[
	{
		"country": "US",
		"name": "DIberville",
		"_id": 4423395,
		"coord": {
			"lon": -88.890862,
			"lat": 30.42631
		}
	},
	{
		"country": "CN",
		"name": "Da Juh",
		"_id": 1281437,
		"coord": {
			"lon": 94.099998,
			"lat": 36.599998
		}
	},
	{
		"country": "VN",
		"name": "Da Lat",
		"_id": 1584071,
		"coord": {
			"lon": 108.441933,
			"lat": 11.94646
		}
	},
	{
		"country": "ZA",
		"name": "Da Nova",
		"_id": 1011880,
		"coord": {
			"lon": 22.13343,
			"lat": -34.184479
		}
	},
	{
		"country": "PH",
		"name": "Da-an Sur",
		"_id": 1716365,
		"coord": {
			"lon": 122.420197,
			"lat": 11.2612
		}
	},
	{
		"country": "DE",
		"name": "Daaden",
		"_id": 6547428,
		"coord": {
			"lon": 7.95125,
			"lat": 50.747101
		}
	},
	{
		"country": "DE",
		"name": "Daaden",
		"_id": 2939650,
		"coord": {
			"lon": 7.96667,
			"lat": 50.73333
		}
	},
	{
		"country": "CN",
		"name": "Daan",
		"_id": 1814642,
		"coord": {
			"lon": 106.29583,
			"lat": 33.055828
		}
	},
	{
		"country": "CN",
		"name": "Daan",
		"_id": 1814652,
		"coord": {
			"lon": 115.626404,
			"lat": 23.07275
		}
	},
	{
		"country": "CN",
		"name": "Daan",
		"_id": 1814653,
		"coord": {
			"lon": 109.368538,
			"lat": 19.285351
		}
	},
	{
		"country": "CN",
		"name": "Daan",
		"_id": 1907834,
		"coord": {
			"lon": 109.209831,
			"lat": 18.69565
		}
	},
	{
		"country": "CN",
		"name": "Daan",
		"_id": 2038036,
		"coord": {
			"lon": 126.12722,
			"lat": 41.83556
		}
	},
	{
		"country": "PH",
		"name": "Daanbantayan",
		"_id": 1716388,
		"coord": {
			"lon": 124,
			"lat": 11.2505
		}
	},
	{
		"country": "CN",
		"name": "Daanping",
		"_id": 1814639,
		"coord": {
			"lon": 109.671387,
			"lat": 29.53599
		}
	},
	{
		"country": "US",
		"name": "Daaquam",
		"_id": 4962030,
		"coord": {
			"lon": -70.011192,
			"lat": 46.59837
		}
	},
	{
		"country": "DE",
		"name": "Daasdorf",
		"_id": 2939649,
		"coord": {
			"lon": 11.35,
			"lat": 51.066669
		}
	},
	{
		"country": "CN",
		"name": "Daba",
		"_id": 1917290,
		"coord": {
			"lon": 114.926888,
			"lat": 24.507191
		}
	},
	{
		"country": "CN",
		"name": "Daba",
		"_id": 1936444,
		"coord": {
			"lon": 116.177208,
			"lat": 23.369841
		}
	},
	{
		"country": "GM",
		"name": "Daba Kunda",
		"_id": 2413653,
		"coord": {
			"lon": -14.3,
			"lat": 13.31667
		}
	},
	{
		"country": "RO",
		"name": "Dabaca",
		"_id": 679844,
		"coord": {
			"lon": 23.66667,
			"lat": 46.98333
		}
	},
	{
		"country": "CN",
		"name": "Dabachang",
		"_id": 1814621,
		"coord": {
			"lon": 108.34333,
			"lat": 27.7425
		}
	},
	{
		"country": "CN",
		"name": "Dabagou",
		"_id": 8052580,
		"coord": {
			"lon": 121.916321,
			"lat": 46.069462
		}
	},
	{
		"country": "NG",
		"name": "Dabai",
		"_id": 2345872,
		"coord": {
			"lon": 5.20625,
			"lat": 11.47652
		}
	},
	{
		"country": "CN",
		"name": "Dabaidi",
		"_id": 1814616,
		"coord": {
			"lon": 116.041557,
			"lat": 26.10199
		}
	},
	{
		"country": "CN",
		"name": "Dabaimashi",
		"_id": 7076883,
		"coord": {
			"lon": 120.904297,
			"lat": 40.765221
		}
	},
	{
		"country": "CN",
		"name": "Dabaizhuang",
		"_id": 1814610,
		"coord": {
			"lon": 117.38028,
			"lat": 39.444721
		}
	},
	{
		"country": "VE",
		"name": "Dabajuro",
		"_id": 3644571,
		"coord": {
			"lon": -70.677689,
			"lat": 11.02273
		}
	},
	{
		"country": "CI",
		"name": "Dabakala",
		"_id": 2290609,
		"coord": {
			"lon": -4.43333,
			"lat": 8.36667
		}
	},
	{
		"country": "CN",
		"name": "Daban",
		"_id": 2038025,
		"coord": {
			"lon": 118.666672,
			"lat": 43.533329
		}
	},
	{
		"country": "CN",
		"name": "Dabao",
		"_id": 7372929,
		"coord": {
			"lon": 105.576538,
			"lat": 33.4706
		}
	},
	{
		"country": "CN",
		"name": "Dabaoanzhen",
		"_id": 1814596,
		"coord": {
			"lon": 117.476387,
			"lat": 39.899441
		}
	},
	{
		"country": "CN",
		"name": "Dabaozi",
		"_id": 1813683,
		"coord": {
			"lon": 109.447777,
			"lat": 26.69556
		}
	},
	{
		"country": "HU",
		"name": "Dabas",
		"_id": 3053836,
		"coord": {
			"lon": 19.310909,
			"lat": 47.18594
		}
	},
	{
		"country": "ET",
		"name": "Dabat",
		"_id": 340358,
		"coord": {
			"lon": 37.764999,
			"lat": 12.98417
		}
	},
	{
		"country": "IL",
		"name": "Dabburiya",
		"_id": 295370,
		"coord": {
			"lon": 35.371231,
			"lat": 32.692558
		}
	},
	{
		"country": "CO",
		"name": "Dabeiba",
		"_id": 3685295,
		"coord": {
			"lon": -76.26722,
			"lat": 7.00172
		}
	},
	{
		"country": "DE",
		"name": "Dabel",
		"_id": 6548342,
		"coord": {
			"lon": 11.9,
			"lat": 53.666698
		}
	},
	{
		"country": "DE",
		"name": "Dabel",
		"_id": 2939645,
		"coord": {
			"lon": 11.90025,
			"lat": 53.661121
		}
	},
	{
		"country": "DE",
		"name": "Dabelow",
		"_id": 2939642,
		"coord": {
			"lon": 13.19673,
			"lat": 53.246422
		}
	},
	{
		"country": "DE",
		"name": "Dabergotz",
		"_id": 6547653,
		"coord": {
			"lon": 12.7333,
			"lat": 52.900002
		}
	},
	{
		"country": "DE",
		"name": "Dabergotz",
		"_id": 2939635,
		"coord": {
			"lon": 12.72466,
			"lat": 52.903099
		}
	},
	{
		"country": "DE",
		"name": "Daberkow",
		"_id": 6547819,
		"coord": {
			"lon": 13.3,
			"lat": 53.833302
		}
	},
	{
		"country": "DE",
		"name": "Daberkow",
		"_id": 2939634,
		"coord": {
			"lon": 13.3,
			"lat": 53.833328
		}
	},
	{
		"country": "DE",
		"name": "Dabern",
		"_id": 2939632,
		"coord": {
			"lon": 13.66667,
			"lat": 51.716671
		}
	},
	{
		"country": "IN",
		"name": "Dabhaura",
		"_id": 1273771,
		"coord": {
			"lon": 81.316666,
			"lat": 25.15
		}
	},
	{
		"country": "IN",
		"name": "Dabhoi",
		"_id": 1273766,
		"coord": {
			"lon": 73.433327,
			"lat": 22.183331
		}
	},
	{
		"country": "IN",
		"name": "Dabhol",
		"_id": 1273765,
		"coord": {
			"lon": 73.166672,
			"lat": 17.6
		}
	},
	{
		"country": "PL",
		"name": "Dabie",
		"_id": 3100880,
		"coord": {
			"lon": 18.8225,
			"lat": 52.086681
		}
	},
	{
		"country": "PL",
		"name": "Dabie",
		"_id": 3100881,
		"coord": {
			"lon": 15.15221,
			"lat": 52.010559
		}
	},
	{
		"country": "CN",
		"name": "Dabizhuang",
		"_id": 1814577,
		"coord": {
			"lon": 117.255829,
			"lat": 39.193062
		}
	},
	{
		"country": "FR",
		"name": "Dabo",
		"_id": 6437464,
		"coord": {
			"lon": 7.23333,
			"lat": 48.650002
		}
	},
	{
		"country": "FR",
		"name": "Dabo",
		"_id": 3021933,
		"coord": {
			"lon": 7.23636,
			"lat": 48.653709
		}
	},
	{
		"country": "IN",
		"name": "Daboh",
		"_id": 1273756,
		"coord": {
			"lon": 78.876106,
			"lat": 26.002501
		}
	},
	{
		"country": "GN",
		"name": "Dabola",
		"_id": 2422442,
		"coord": {
			"lon": -11.11667,
			"lat": 10.75
		}
	},
	{
		"country": "CI",
		"name": "Dabou",
		"_id": 2290582,
		"coord": {
			"lon": -4.37685,
			"lat": 5.32556
		}
	},
	{
		"country": "IN",
		"name": "Dabra",
		"_id": 1273751,
		"coord": {
			"lon": 78.333328,
			"lat": 25.9
		}
	},
	{
		"country": "PL",
		"name": "Dabrowa",
		"_id": 3100820,
		"coord": {
			"lon": 17.94342,
			"lat": 52.746681
		}
	},
	{
		"country": "PL",
		"name": "Dabrowa",
		"_id": 3100849,
		"coord": {
			"lon": 17.749571,
			"lat": 50.683521
		}
	},
	{
		"country": "PL",
		"name": "Dabrowa Bialostocka",
		"_id": 773593,
		"coord": {
			"lon": 23.347919,
			"lat": 53.653641
		}
	},
	{
		"country": "PL",
		"name": "Dabrowa Chelminska",
		"_id": 3100802,
		"coord": {
			"lon": 18.30537,
			"lat": 53.175179
		}
	},
	{
		"country": "PL",
		"name": "Dabrowa Gornicza",
		"_id": 3100796,
		"coord": {
			"lon": 19.2374,
			"lat": 50.31818
		}
	},
	{
		"country": "PL",
		"name": "Dabrowa Tarnowska",
		"_id": 773569,
		"coord": {
			"lon": 20.98633,
			"lat": 50.174622
		}
	},
	{
		"country": "PL",
		"name": "Dabrowa Zielona",
		"_id": 3100778,
		"coord": {
			"lon": 19.55652,
			"lat": 50.843941
		}
	},
	{
		"country": "PL",
		"name": "Dabrowice",
		"_id": 3100772,
		"coord": {
			"lon": 19.08437,
			"lat": 52.31142
		}
	},
	{
		"country": "PL",
		"name": "Dabrowka",
		"_id": 773525,
		"coord": {
			"lon": 21.297939,
			"lat": 52.483879
		}
	},
	{
		"country": "PL",
		"name": "Dabrowno",
		"_id": 773478,
		"coord": {
			"lon": 20.03529,
			"lat": 53.434078
		}
	},
	{
		"country": "DE",
		"name": "Dabrun",
		"_id": 2939625,
		"coord": {
			"lon": 12.71667,
			"lat": 51.833328
		}
	},
	{
		"country": "CN",
		"name": "Dabu",
		"_id": 1814570,
		"coord": {
			"lon": 115.069588,
			"lat": 25.69294
		}
	},
	{
		"country": "CN",
		"name": "Dabu",
		"_id": 1814572,
		"coord": {
			"lon": 109.235474,
			"lat": 24.667391
		}
	},
	{
		"country": "CN",
		"name": "Dabu",
		"_id": 1814573,
		"coord": {
			"lon": 113.137657,
			"lat": 24.539671
		}
	},
	{
		"country": "CN",
		"name": "Dabu",
		"_id": 1922462,
		"coord": {
			"lon": 117.009354,
			"lat": 26.714069
		}
	},
	{
		"country": "BY",
		"name": "Dabuchyn",
		"_id": 629009,
		"coord": {
			"lon": 24.516666,
			"lat": 52.616669
		}
	},
	{
		"country": "RO",
		"name": "Dabuleni",
		"_id": 679841,
		"coord": {
			"lon": 24.08333,
			"lat": 43.799999
		}
	},
	{
		"country": "IN",
		"name": "Dabwali",
		"_id": 1273745,
		"coord": {
			"lon": 74.73333,
			"lat": 29.950001
		}
	},
	{
		"country": "AU",
		"name": "Daceyville",
		"_id": 2169574,
		"coord": {
			"lon": 151.233337,
			"lat": -33.933331
		}
	},
	{
		"country": "CN",
		"name": "Dachangshandao",
		"_id": 1794227,
		"coord": {
			"lon": 122.599998,
			"lat": 39.275558
		}
	},
	{
		"country": "DE",
		"name": "Dachau",
		"_id": 2939623,
		"coord": {
			"lon": 11.43402,
			"lat": 48.259998
		}
	},
	{
		"country": "CN",
		"name": "Dachen",
		"_id": 7071293,
		"coord": {
			"lon": 120.125267,
			"lat": 29.452101
		}
	},
	{
		"country": "CN",
		"name": "Dacheng",
		"_id": 1814524,
		"coord": {
			"lon": 109.134201,
			"lat": 34.660938
		}
	},
	{
		"country": "CN",
		"name": "Dacheng",
		"_id": 1814525,
		"coord": {
			"lon": 115.518837,
			"lat": 28.538231
		}
	},
	{
		"country": "CN",
		"name": "Dacheng",
		"_id": 1893595,
		"coord": {
			"lon": 109.392754,
			"lat": 19.50927
		}
	},
	{
		"country": "CN",
		"name": "Dacheng",
		"_id": 1919639,
		"coord": {
			"lon": 117.136429,
			"lat": 23.609329
		}
	},
	{
		"country": "UA",
		"name": "Dachne",
		"_id": 710334,
		"coord": {
			"lon": 34.983334,
			"lat": 44.883331
		}
	},
	{
		"country": "RU",
		"name": "Dachnoye",
		"_id": 567312,
		"coord": {
			"lon": 44.735802,
			"lat": 43.084679
		}
	},
	{
		"country": "RU",
		"name": "Dachnoye",
		"_id": 567311,
		"coord": {
			"lon": 30.255833,
			"lat": 59.841667
		}
	},
	{
		"country": "CN",
		"name": "Dachong",
		"_id": 7658331,
		"coord": {
			"lon": 114.846519,
			"lat": 27.334579
		}
	},
	{
		"country": "DE",
		"name": "Dachrieden",
		"_id": 2939610,
		"coord": {
			"lon": 10.45,
			"lat": 51.26667
		}
	},
	{
		"country": "DE",
		"name": "Dachsberg",
		"_id": 3205650,
		"coord": {
			"lon": 8.1,
			"lat": 47.700001
		}
	},
	{
		"country": "DE",
		"name": "Dachsberg",
		"_id": 7580311,
		"coord": {
			"lon": 8.10001,
			"lat": 47.72945
		}
	},
	{
		"country": "CH",
		"name": "Dachsen",
		"_id": 2661058,
		"coord": {
			"lon": 8.6179,
			"lat": 47.66515
		}
	},
	{
		"country": "DE",
		"name": "Dachsenhausen",
		"_id": 6554009,
		"coord": {
			"lon": 7.6809,
			"lat": 50.243401
		}
	},
	{
		"country": "DE",
		"name": "Dachsenhausen",
		"_id": 2939532,
		"coord": {
			"lon": 7.73333,
			"lat": 50.25
		}
	},
	{
		"country": "FR",
		"name": "Dachstein",
		"_id": 3021931,
		"coord": {
			"lon": 7.53233,
			"lat": 48.561272
		}
	},
	{
		"country": "DE",
		"name": "Dachtel",
		"_id": 2939514,
		"coord": {
			"lon": 8.85464,
			"lat": 48.677872
		}
	},
	{
		"country": "CN",
		"name": "Dachuan",
		"_id": 7330663,
		"coord": {
			"lon": 104.436203,
			"lat": 33.716202
		}
	},
	{
		"country": "CN",
		"name": "Dachuan",
		"_id": 7569007,
		"coord": {
			"lon": 125.539017,
			"lat": 41.547771
		}
	},
	{
		"country": "CN",
		"name": "Dachun",
		"_id": 7745051,
		"coord": {
			"lon": 114.250427,
			"lat": 29.11867
		}
	},
	{
		"country": "DE",
		"name": "Dachwig",
		"_id": 6550067,
		"coord": {
			"lon": 10.85,
			"lat": 51.0667
		}
	},
	{
		"country": "DE",
		"name": "Dachwig",
		"_id": 2939510,
		"coord": {
			"lon": 10.85,
			"lat": 51.066669
		}
	},
	{
		"country": "KM",
		"name": "Daché",
		"_id": 1092342,
		"coord": {
			"lon": 43.251389,
			"lat": -11.7125
		}
	},
	{
		"country": "CZ",
		"name": "Dacice",
		"_id": 3077304,
		"coord": {
			"lon": 15.43727,
			"lat": 49.081539
		}
	},
	{
		"country": "CN",
		"name": "Daciyao",
		"_id": 1814503,
		"coord": {
			"lon": 113.729103,
			"lat": 39.63784
		}
	},
	{
		"country": "DE",
		"name": "Dackenheim",
		"_id": 6554892,
		"coord": {
			"lon": 8.18722,
			"lat": 49.521099
		}
	},
	{
		"country": "DE",
		"name": "Dackenheim",
		"_id": 2939508,
		"coord": {
			"lon": 8.18722,
			"lat": 49.521111
		}
	},
	{
		"country": "DE",
		"name": "Dackscheid",
		"_id": 6554529,
		"coord": {
			"lon": 6.38333,
			"lat": 50.116699
		}
	},
	{
		"country": "DE",
		"name": "Dackscheid",
		"_id": 2939505,
		"coord": {
			"lon": 6.38333,
			"lat": 50.116669
		}
	},
	{
		"country": "US",
		"name": "Dacono",
		"_id": 5576177,
		"coord": {
			"lon": -104.939423,
			"lat": 40.084709
		}
	},
	{
		"country": "GB",
		"name": "Dacorum District",
		"_id": 7290564,
		"coord": {
			"lon": -0.57377,
			"lat": 51.768509
		}
	},
	{
		"country": "CA",
		"name": "Dacre",
		"_id": 5934486,
		"coord": {
			"lon": -76.966141,
			"lat": 45.36681
		}
	},
	{
		"country": "PH",
		"name": "Dacudao",
		"_id": 1716315,
		"coord": {
			"lon": 125.47139,
			"lat": 7.21528
		}
	},
	{
		"country": "US",
		"name": "Dacula",
		"_id": 4190523,
		"coord": {
			"lon": -83.897957,
			"lat": 33.98872
		}
	},
	{
		"country": "CN",
		"name": "Dacun",
		"_id": 7072678,
		"coord": {
			"lon": 121.197906,
			"lat": 29.05574
		}
	},
	{
		"country": "ES",
		"name": "Dacón",
		"_id": 3123984,
		"coord": {
			"lon": -8.04865,
			"lat": 42.422508
		}
	},
	{
		"country": "RU",
		"name": "Dada",
		"_id": 2025197,
		"coord": {
			"lon": 136.472595,
			"lat": 49.167801
		}
	},
	{
		"country": "ID",
		"name": "Dadaha",
		"_id": 8024151,
		"coord": {
			"lon": 108.222099,
			"lat": -7.3343
		}
	},
	{
		"country": "CN",
		"name": "Dadamtu",
		"_id": 1538375,
		"coord": {
			"lon": 81.314171,
			"lat": 43.980282
		}
	},
	{
		"country": "ID",
		"name": "Dadapan",
		"_id": 1645847,
		"coord": {
			"lon": 114.194603,
			"lat": -8.3222
		}
	},
	{
		"country": "ID",
		"name": "Dadapan",
		"_id": 7035060,
		"coord": {
			"lon": 112.494301,
			"lat": -8.2059
		}
	},
	{
		"country": "ID",
		"name": "Dadapan",
		"_id": 8068651,
		"coord": {
			"lon": 111.539597,
			"lat": -6.7094
		}
	},
	{
		"country": "ID",
		"name": "Dadapan",
		"_id": 8080486,
		"coord": {
			"lon": 112.314499,
			"lat": -6.9222
		}
	},
	{
		"country": "TR",
		"name": "Daday",
		"_id": 748761,
		"coord": {
			"lon": 33.466671,
			"lat": 41.478661
		}
	},
	{
		"country": "US",
		"name": "Dade City",
		"_id": 4152695,
		"coord": {
			"lon": -82.195923,
			"lat": 28.364719
		}
	},
	{
		"country": "US",
		"name": "Dade City North",
		"_id": 7259672,
		"coord": {
			"lon": -82.193901,
			"lat": 28.383341
		}
	},
	{
		"country": "NP",
		"name": "Dadeldhura",
		"_id": 1283499,
		"coord": {
			"lon": 80.580589,
			"lat": 29.29842
		}
	},
	{
		"country": "CN",
		"name": "Dadeng",
		"_id": 1814492,
		"coord": {
			"lon": 118.32753,
			"lat": 24.543859
		}
	},
	{
		"country": "CN",
		"name": "Dadeng",
		"_id": 1910992,
		"coord": {
			"lon": 111.533882,
			"lat": 35.921478
		}
	},
	{
		"country": "US",
		"name": "Dadeville",
		"_id": 4058027,
		"coord": {
			"lon": -85.763573,
			"lat": 32.831242
		}
	},
	{
		"country": "PK",
		"name": "Dadhar",
		"_id": 1180825,
		"coord": {
			"lon": 67.651352,
			"lat": 29.475269
		}
	},
	{
		"country": "CN",
		"name": "Dadian",
		"_id": 1814483,
		"coord": {
			"lon": 108.609444,
			"lat": 34.775002
		}
	},
	{
		"country": "CN",
		"name": "Dadianzi",
		"_id": 2034268,
		"coord": {
			"lon": 128.324432,
			"lat": 42.873058
		}
	},
	{
		"country": "CN",
		"name": "Dadianzi",
		"_id": 2053433,
		"coord": {
			"lon": 119.807228,
			"lat": 40.231609
		}
	},
	{
		"country": "ID",
		"name": "Dadiharja",
		"_id": 8059689,
		"coord": {
			"lon": 108.509804,
			"lat": -7.152
		}
	},
	{
		"country": "NG",
		"name": "Dadiya",
		"_id": 2345785,
		"coord": {
			"lon": 11.43333,
			"lat": 9.61667
		}
	},
	{
		"country": "PH",
		"name": "Dado",
		"_id": 1978691,
		"coord": {
			"lon": 124.459717,
			"lat": 7.05
		}
	},
	{
		"country": "CN",
		"name": "Dadong",
		"_id": 1814471,
		"coord": {
			"lon": 114.9496,
			"lat": 29.48827
		}
	},
	{
		"country": "CN",
		"name": "Dadong",
		"_id": 1917133,
		"coord": {
			"lon": 113.068832,
			"lat": 24.02553
		}
	},
	{
		"country": "CN",
		"name": "Dadongao",
		"_id": 1894758,
		"coord": {
			"lon": 122.388809,
			"lat": 29.922279
		}
	},
	{
		"country": "FR",
		"name": "Dadonville",
		"_id": 3021930,
		"coord": {
			"lon": 2.2715,
			"lat": 48.157761
		}
	},
	{
		"country": "IN",
		"name": "Dadri",
		"_id": 1273724,
		"coord": {
			"lon": 77.550003,
			"lat": 28.566669
		}
	},
	{
		"country": "PK",
		"name": "Dadu",
		"_id": 1180809,
		"coord": {
			"lon": 67.776314,
			"lat": 26.732861
		}
	},
	{
		"country": "CN",
		"name": "Daduan",
		"_id": 1814464,
		"coord": {
			"lon": 114.554268,
			"lat": 28.65834
		}
	},
	{
		"country": "CN",
		"name": "Daduchuan",
		"_id": 2037999,
		"coord": {
			"lon": 131.067719,
			"lat": 43.94532
		}
	},
	{
		"country": "CN",
		"name": "Dadukou",
		"_id": 1798998,
		"coord": {
			"lon": 101.705391,
			"lat": 26.547899
		}
	},
	{
		"country": "CN",
		"name": "Daduling",
		"_id": 2037998,
		"coord": {
			"lon": 125.690826,
			"lat": 41.6175
		}
	},
	{
		"country": "CN",
		"name": "Dadunqiu",
		"_id": 1814456,
		"coord": {
			"lon": 117.033058,
			"lat": 39.406109
		}
	},
	{
		"country": "CN",
		"name": "Daduo",
		"_id": 1814454,
		"coord": {
			"lon": 120.034073,
			"lat": 32.89706
		}
	},
	{
		"country": "PH",
		"name": "Dadus",
		"_id": 1716294,
		"coord": {
			"lon": 124.321671,
			"lat": 7.0575
		}
	},
	{
		"country": "ES",
		"name": "Dadín",
		"_id": 3123983,
		"coord": {
			"lon": -8.81799,
			"lat": 42.438221
		}
	},
	{
		"country": "KR",
		"name": "Daegu",
		"_id": 1835329,
		"coord": {
			"lon": 128.59111,
			"lat": 35.870281
		}
	},
	{
		"country": "KR",
		"name": "Daejeon",
		"_id": 1835235,
		"coord": {
			"lon": 127.419724,
			"lat": 36.321388
		}
	},
	{
		"country": "CH",
		"name": "Daellikon / Daellikon (Dorf)",
		"_id": 6291499,
		"coord": {
			"lon": 8.43813,
			"lat": 47.439831
		}
	},
	{
		"country": "RO",
		"name": "Daeni",
		"_id": 679830,
		"coord": {
			"lon": 28.116671,
			"lat": 44.833328
		}
	},
	{
		"country": "CH",
		"name": "Daenikon",
		"_id": 6295522,
		"coord": {
			"lon": 8.40648,
			"lat": 47.446739
		}
	},
	{
		"country": "ID",
		"name": "Daerah Istimewa Yogyakarta",
		"_id": 1621176,
		"coord": {
			"lon": 110.5,
			"lat": -7.75
		}
	},
	{
		"country": "ID",
		"name": "Daerah Khusus Ibukota Jakarta",
		"_id": 1642907,
		"coord": {
			"lon": 106.858398,
			"lat": -6.2182
		}
	},
	{
		"country": "RO",
		"name": "Daesti",
		"_id": 679828,
		"coord": {
			"lon": 24.133329,
			"lat": 44.966671
		}
	},
	{
		"country": "PH",
		"name": "Daet",
		"_id": 1716289,
		"coord": {
			"lon": 122.916672,
			"lat": 14.1
		}
	},
	{
		"country": "PH",
		"name": "Daet",
		"_id": 1716287,
		"coord": {
			"lon": 122.955299,
			"lat": 14.1122
		}
	},
	{
		"country": "CN",
		"name": "Dafan",
		"_id": 1814447,
		"coord": {
			"lon": 114.664368,
			"lat": 29.658831
		}
	},
	{
		"country": "CN",
		"name": "Dafangshen",
		"_id": 2053350,
		"coord": {
			"lon": 123.329857,
			"lat": 40.495258
		}
	},
	{
		"country": "ET",
		"name": "Dafara",
		"_id": 340268,
		"coord": {
			"lon": 42.133331,
			"lat": 12.43333
		}
	},
	{
		"country": "CN",
		"name": "Dafasi",
		"_id": 7745072,
		"coord": {
			"lon": 115.476631,
			"lat": 29.94968
		}
	},
	{
		"country": "CN",
		"name": "Dafeng",
		"_id": 1814435,
		"coord": {
			"lon": 108.588112,
			"lat": 23.45171
		}
	},
	{
		"country": "CN",
		"name": "Dafengying",
		"_id": 1908846,
		"coord": {
			"lon": 112.841698,
			"lat": 33.006721
		}
	},
	{
		"country": "CA",
		"name": "Dafoe",
		"_id": 5934507,
		"coord": {
			"lon": -104.534393,
			"lat": 51.75005
		}
	},
	{
		"country": "CN",
		"name": "Dafu",
		"_id": 1920470,
		"coord": {
			"lon": 112.055519,
			"lat": 24.64752
		}
	},
	{
		"country": "BT",
		"name": "Daga",
		"_id": 1252433,
		"coord": {
			"lon": 89.876877,
			"lat": 27.075291
		}
	},
	{
		"country": "PH",
		"name": "Dagami",
		"_id": 1716272,
		"coord": {
			"lon": 124.902779,
			"lat": 11.06083
		}
	},
	{
		"country": "CN",
		"name": "Dagan",
		"_id": 1814417,
		"coord": {
			"lon": 117.732811,
			"lat": 26.931601
		}
	},
	{
		"country": "ID",
		"name": "Dagan",
		"_id": 8140954,
		"coord": {
			"lon": 112.411697,
			"lat": -6.9164
		}
	},
	{
		"country": "BT",
		"name": "Dagana Dzongkhag",
		"_id": 1337280,
		"coord": {
			"lon": 89.866669,
			"lat": 27.1
		}
	},
	{
		"country": "CN",
		"name": "Dagang",
		"_id": 1814414,
		"coord": {
			"lon": 116.146858,
			"lat": 28.16754
		}
	},
	{
		"country": "CN",
		"name": "Dagang",
		"_id": 7636859,
		"coord": {
			"lon": 116.482353,
			"lat": 29.54661
		}
	},
	{
		"country": "ID",
		"name": "Dagangan",
		"_id": 7036720,
		"coord": {
			"lon": 112.460403,
			"lat": -7.0913
		}
	},
	{
		"country": "CN",
		"name": "Dagangshan",
		"_id": 7658298,
		"coord": {
			"lon": 114.588142,
			"lat": 27.6556
		}
	},
	{
		"country": "ES",
		"name": "Daganzo de Arriba",
		"_id": 6359279,
		"coord": {
			"lon": -3.43988,
			"lat": 40.562531
		}
	},
	{
		"country": "ES",
		"name": "Daganzo de Arriba",
		"_id": 3123981,
		"coord": {
			"lon": -3.45457,
			"lat": 40.542931
		}
	},
	{
		"country": "PH",
		"name": "Dagatan",
		"_id": 1716252,
		"coord": {
			"lon": 121.378891,
			"lat": 14.00333
		}
	},
	{
		"country": "PH",
		"name": "Dagatan",
		"_id": 1716256,
		"coord": {
			"lon": 121.198997,
			"lat": 13.7389
		}
	},
	{
		"country": "LV",
		"name": "Dagda",
		"_id": 460474,
		"coord": {
			"lon": 27.53723,
			"lat": 56.095119
		}
	},
	{
		"country": "TR",
		"name": "Dagduzu",
		"_id": 438206,
		"coord": {
			"lon": 36.087059,
			"lat": 36.069
		}
	},
	{
		"country": "DE",
		"name": "Dagebull",
		"_id": 2939489,
		"coord": {
			"lon": 8.70083,
			"lat": 54.729279
		}
	},
	{
		"country": "DE",
		"name": "Dagebüll",
		"_id": 6551539,
		"coord": {
			"lon": 8.71667,
			"lat": 54.733299
		}
	},
	{
		"country": "DE",
		"name": "Dagebüllerkoog",
		"_id": 2939485,
		"coord": {
			"lon": 8.71667,
			"lat": 54.73333
		}
	},
	{
		"country": "DE",
		"name": "Dageling",
		"_id": 2939482,
		"coord": {
			"lon": 9.53333,
			"lat": 53.883331
		}
	},
	{
		"country": "GB",
		"name": "Dagenham",
		"_id": 2651621,
		"coord": {
			"lon": 0.16667,
			"lat": 51.549999
		}
	},
	{
		"country": "GB",
		"name": "Dagenham",
		"_id": 6690871,
		"coord": {
			"lon": 0.14801,
			"lat": 51.540619
		}
	},
	{
		"country": "RU",
		"name": "Dagestanskaya",
		"_id": 567291,
		"coord": {
			"lon": 40.020828,
			"lat": 44.376389
		}
	},
	{
		"country": "RU",
		"name": "Dagestanskiye Ogni",
		"_id": 567290,
		"coord": {
			"lon": 48.192039,
			"lat": 42.115891
		}
	},
	{
		"country": "PK",
		"name": "Daggar",
		"_id": 1180787,
		"coord": {
			"lon": 72.484322,
			"lat": 34.510281
		}
	},
	{
		"country": "CH",
		"name": "Dagmersellen",
		"_id": 7285616,
		"coord": {
			"lon": 8.01002,
			"lat": 47.213169
		}
	},
	{
		"country": "CH",
		"name": "Dagmersellen",
		"_id": 2661057,
		"coord": {
			"lon": 7.98466,
			"lat": 47.213661
		}
	},
	{
		"country": "FR",
		"name": "Dagneux",
		"_id": 3021927,
		"coord": {
			"lon": 5.0778,
			"lat": 45.851398
		}
	},
	{
		"country": "DE",
		"name": "Dagobertshausen",
		"_id": 2939478,
		"coord": {
			"lon": 8.7016,
			"lat": 50.821011
		}
	},
	{
		"country": "PH",
		"name": "Dagohoy",
		"_id": 1716231,
		"coord": {
			"lon": 124.272697,
			"lat": 9.8927
		}
	},
	{
		"country": "RU",
		"name": "Dagomys",
		"_id": 823674,
		"coord": {
			"lon": 39.668888,
			"lat": 43.670277
		}
	},
	{
		"country": "CN",
		"name": "Dagong",
		"_id": 1548535,
		"coord": {
			"lon": 120.522217,
			"lat": 32.625
		}
	},
	{
		"country": "CN",
		"name": "Dagou",
		"_id": 1814392,
		"coord": {
			"lon": 105.232529,
			"lat": 35.979858
		}
	},
	{
		"country": "DE",
		"name": "Dagow",
		"_id": 2939476,
		"coord": {
			"lon": 13.06667,
			"lat": 53.150002
		}
	},
	{
		"country": "IN",
		"name": "Dagshai",
		"_id": 1273712,
		"coord": {
			"lon": 77.050003,
			"lat": 30.883329
		}
	},
	{
		"country": "CN",
		"name": "Dagu",
		"_id": 7466652,
		"coord": {
			"lon": 115.786163,
			"lat": 26.734489
		}
	},
	{
		"country": "CO",
		"name": "Dagua",
		"_id": 3685292,
		"coord": {
			"lon": -76.688591,
			"lat": 3.65685
		}
	},
	{
		"country": "PR",
		"name": "Daguao",
		"_id": 4564085,
		"coord": {
			"lon": -65.68322,
			"lat": 18.226351
		}
	},
	{
		"country": "PH",
		"name": "Daguioman",
		"_id": 1716214,
		"coord": {
			"lon": 120.915047,
			"lat": 17.45093
		}
	},
	{
		"country": "PH",
		"name": "Daguit",
		"_id": 1716213,
		"coord": {
			"lon": 122.726601,
			"lat": 14.1895
		}
	},
	{
		"country": "PH",
		"name": "Daguma",
		"_id": 1979142,
		"coord": {
			"lon": 124.547218,
			"lat": 6.58667
		}
	},
	{
		"country": "PH",
		"name": "Dagumba-an",
		"_id": 1716230,
		"coord": {
			"lon": 124.590828,
			"lat": 8.15306
		}
	},
	{
		"country": "AU",
		"name": "Dagun",
		"_id": 2169564,
		"coord": {
			"lon": 152.683334,
			"lat": -26.316669
		}
	},
	{
		"country": "CN",
		"name": "Daguo",
		"_id": 1814367,
		"coord": {
			"lon": 113.795799,
			"lat": 33.790771
		}
	},
	{
		"country": "PH",
		"name": "Dagup",
		"_id": 1716199,
		"coord": {
			"lon": 120.445557,
			"lat": 16.63722
		}
	},
	{
		"country": "PH",
		"name": "Dagupan",
		"_id": 1716197,
		"coord": {
			"lon": 120.51667,
			"lat": 16.1
		}
	},
	{
		"country": "PH",
		"name": "Dagupan",
		"_id": 1716192,
		"coord": {
			"lon": 121.5047,
			"lat": 17.7061
		}
	},
	{
		"country": "CN",
		"name": "Daguyun",
		"_id": 1553570,
		"coord": {
			"lon": 118.422081,
			"lat": 30.061001
		}
	},
	{
		"country": "NP",
		"name": "Dahakhani",
		"_id": 7800545,
		"coord": {
			"lon": 84.54248,
			"lat": 27.77109
		}
	},
	{
		"country": "AF",
		"name": "Dahan-e Akhtah Khānah",
		"_id": 1470705,
		"coord": {
			"lon": 65.169777,
			"lat": 34.509521
		}
	},
	{
		"country": "AF",
		"name": "Dahan-e Jarf",
		"_id": 1455430,
		"coord": {
			"lon": 68.464172,
			"lat": 34.927219
		}
	},
	{
		"country": "IN",
		"name": "Dahanu",
		"_id": 1273708,
		"coord": {
			"lon": 72.73333,
			"lat": 19.966669
		}
	},
	{
		"country": "CN",
		"name": "Dahao",
		"_id": 1814356,
		"coord": {
			"lon": 116.716087,
			"lat": 23.287331
		}
	},
	{
		"country": "YE",
		"name": "Dahasuways",
		"_id": 30485,
		"coord": {
			"lon": 50.729439,
			"lat": 15.72389
		}
	},
	{
		"country": "PH",
		"name": "Dahay",
		"_id": 1716184,
		"coord": {
			"lon": 124.722504,
			"lat": 6.39694
		}
	},
	{
		"country": "CN",
		"name": "Dahe",
		"_id": 1814321,
		"coord": {
			"lon": 106.932373,
			"lat": 32.195721
		}
	},
	{
		"country": "CN",
		"name": "Dahe",
		"_id": 1814348,
		"coord": {
			"lon": 116.101357,
			"lat": 25.400631
		}
	},
	{
		"country": "CN",
		"name": "Dahe",
		"_id": 7006113,
		"coord": {
			"lon": 109.178688,
			"lat": 29.43203
		}
	},
	{
		"country": "CN",
		"name": "Dahean",
		"_id": 1814339,
		"coord": {
			"lon": 115.481796,
			"lat": 30.848061
		}
	},
	{
		"country": "CN",
		"name": "Dahedian",
		"_id": 1899335,
		"coord": {
			"lon": 106.049721,
			"lat": 33.653332
		}
	},
	{
		"country": "IN",
		"name": "Dahegam",
		"_id": 1273704,
		"coord": {
			"lon": 72.816673,
			"lat": 23.16667
		}
	},
	{
		"country": "CN",
		"name": "Dahejia",
		"_id": 1814324,
		"coord": {
			"lon": 102.757561,
			"lat": 35.834171
		}
	},
	{
		"country": "CN",
		"name": "Dahekan",
		"_id": 1908504,
		"coord": {
			"lon": 107.036392,
			"lat": 33.041111
		}
	},
	{
		"country": "CN",
		"name": "Daheng",
		"_id": 1814314,
		"coord": {
			"lon": 118.257729,
			"lat": 26.766781
		}
	},
	{
		"country": "US",
		"name": "Dahl",
		"_id": 5860260,
		"coord": {
			"lon": -149.477219,
			"lat": 60.665562
		}
	},
	{
		"country": "LU",
		"name": "Dahl",
		"_id": 2960667,
		"coord": {
			"lon": 5.97583,
			"lat": 49.93528
		}
	},
	{
		"country": "DE",
		"name": "Dahle",
		"_id": 2939447,
		"coord": {
			"lon": 7.75,
			"lat": 51.299999
		}
	},
	{
		"country": "DE",
		"name": "Dahlem",
		"_id": 6553065,
		"coord": {
			"lon": 6.55,
			"lat": 50.383301
		}
	},
	{
		"country": "DE",
		"name": "Dahlem",
		"_id": 2939442,
		"coord": {
			"lon": 6.55,
			"lat": 50.383331
		}
	},
	{
		"country": "DE",
		"name": "Dahlem",
		"_id": 2939443,
		"coord": {
			"lon": 6.68333,
			"lat": 49.98333
		}
	},
	{
		"country": "DE",
		"name": "Dahlem",
		"_id": 6547425,
		"coord": {
			"lon": 10.75,
			"lat": 53.200001
		}
	},
	{
		"country": "DE",
		"name": "Dahlem",
		"_id": 2939441,
		"coord": {
			"lon": 10.75,
			"lat": 53.200001
		}
	},
	{
		"country": "DE",
		"name": "Dahlem",
		"_id": 6554413,
		"coord": {
			"lon": 6.6,
			"lat": 49.916698
		}
	},
	{
		"country": "DE",
		"name": "Dahlem",
		"_id": 2939444,
		"coord": {
			"lon": 6.6,
			"lat": 49.916672
		}
	},
	{
		"country": "DE",
		"name": "Dahlen",
		"_id": 2939433,
		"coord": {
			"lon": 12.41667,
			"lat": 52.216671
		}
	},
	{
		"country": "DE",
		"name": "Dahlen",
		"_id": 2939434,
		"coord": {
			"lon": 13,
			"lat": 51.366669
		}
	},
	{
		"country": "DE",
		"name": "Dahlenberg",
		"_id": 2939427,
		"coord": {
			"lon": 12.78333,
			"lat": 51.633331
		}
	},
	{
		"country": "DE",
		"name": "Dahlenburg",
		"_id": 2939426,
		"coord": {
			"lon": 10.75,
			"lat": 53.183331
		}
	},
	{
		"country": "FR",
		"name": "Dahlenheim",
		"_id": 6450621,
		"coord": {
			"lon": 7.51667,
			"lat": 48.583328
		}
	},
	{
		"country": "FR",
		"name": "Dahlenheim",
		"_id": 3021920,
		"coord": {
			"lon": 7.50718,
			"lat": 48.585289
		}
	},
	{
		"country": "DE",
		"name": "Dahlenwarsleben",
		"_id": 2939420,
		"coord": {
			"lon": 11.53736,
			"lat": 52.19519
		}
	},
	{
		"country": "DE",
		"name": "Dahlewitz",
		"_id": 2939417,
		"coord": {
			"lon": 13.43333,
			"lat": 52.316669
		}
	},
	{
		"country": "US",
		"name": "Dahlgren",
		"_id": 4755143,
		"coord": {
			"lon": -77.051086,
			"lat": 38.331242
		}
	},
	{
		"country": "DE",
		"name": "Dahlheim",
		"_id": 6554010,
		"coord": {
			"lon": 7.7,
			"lat": 50.200001
		}
	},
	{
		"country": "DE",
		"name": "Dahlheim",
		"_id": 2939405,
		"coord": {
			"lon": 7.7,
			"lat": 50.200001
		}
	},
	{
		"country": "ZW",
		"name": "Dahlia",
		"_id": 892711,
		"coord": {
			"lon": 27.16667,
			"lat": -18.616671
		}
	},
	{
		"country": "US",
		"name": "Dahlonega",
		"_id": 4190542,
		"coord": {
			"lon": -83.984909,
			"lat": 34.532589
		}
	},
	{
		"country": "DE",
		"name": "Dahlum",
		"_id": 6552405,
		"coord": {
			"lon": 10.85,
			"lat": 52.133301
		}
	},
	{
		"country": "DE",
		"name": "Dahlum",
		"_id": 3208595,
		"coord": {
			"lon": 10.85,
			"lat": 52.133331
		}
	},
	{
		"country": "DE",
		"name": "Dahlwitz-Hoppegarten",
		"_id": 2939390,
		"coord": {
			"lon": 13.66667,
			"lat": 52.51667
		}
	},
	{
		"country": "DE",
		"name": "Dahme",
		"_id": 6551644,
		"coord": {
			"lon": 11.0833,
			"lat": 54.216702
		}
	},
	{
		"country": "DE",
		"name": "Dahme",
		"_id": 2939387,
		"coord": {
			"lon": 11.08333,
			"lat": 54.216671
		}
	},
	{
		"country": "DE",
		"name": "Dahme",
		"_id": 2939388,
		"coord": {
			"lon": 13.43333,
			"lat": 51.866669
		}
	},
	{
		"country": "DE",
		"name": "Dahmen",
		"_id": 6547873,
		"coord": {
			"lon": 12.5833,
			"lat": 53.650002
		}
	},
	{
		"country": "DE",
		"name": "Dahmen",
		"_id": 2939385,
		"coord": {
			"lon": 12.58141,
			"lat": 53.660919
		}
	},
	{
		"country": "IN",
		"name": "Dahmi",
		"_id": 1273690,
		"coord": {
			"lon": 75.583336,
			"lat": 26.833332
		}
	},
	{
		"country": "DE",
		"name": "Dahmker",
		"_id": 6551422,
		"coord": {
			"lon": 10.45,
			"lat": 53.583302
		}
	},
	{
		"country": "DE",
		"name": "Dahmker",
		"_id": 2939375,
		"coord": {
			"lon": 10.45,
			"lat": 53.583328
		}
	},
	{
		"country": "DZ",
		"name": "Dahmouni",
		"_id": 2501089,
		"coord": {
			"lon": 1.47541,
			"lat": 35.41687
		}
	},
	{
		"country": "DE",
		"name": "Dahmsdorf",
		"_id": 2939372,
		"coord": {
			"lon": 10.55,
			"lat": 53.866669
		}
	},
	{
		"country": "DE",
		"name": "Dahn",
		"_id": 2939370,
		"coord": {
			"lon": 7.77843,
			"lat": 49.150982
		}
	},
	{
		"country": "DE",
		"name": "Dahnen",
		"_id": 6554530,
		"coord": {
			"lon": 6.15,
			"lat": 50.0667
		}
	},
	{
		"country": "DE",
		"name": "Dahnen",
		"_id": 2939369,
		"coord": {
			"lon": 6.15,
			"lat": 50.066669
		}
	},
	{
		"country": "DE",
		"name": "Dahnsdorf",
		"_id": 2939367,
		"coord": {
			"lon": 12.66667,
			"lat": 52.099998
		}
	},
	{
		"country": "IN",
		"name": "Dahod",
		"_id": 1273687,
		"coord": {
			"lon": 74.26667,
			"lat": 22.83333
		}
	},
	{
		"country": "ID",
		"name": "Dahot",
		"_id": 7564299,
		"coord": {
			"lon": 120.072304,
			"lat": -8.6474
		}
	},
	{
		"country": "DE",
		"name": "Dahre",
		"_id": 2939365,
		"coord": {
			"lon": 10.9,
			"lat": 52.799999
		}
	},
	{
		"country": "DE",
		"name": "Dahrenstedt",
		"_id": 2939361,
		"coord": {
			"lon": 11.83193,
			"lat": 52.542332
		}
	},
	{
		"country": "CN",
		"name": "Dahu",
		"_id": 1814287,
		"coord": {
			"lon": 117.323578,
			"lat": 26.049709
		}
	},
	{
		"country": "CN",
		"name": "Dahu",
		"_id": 1814288,
		"coord": {
			"lon": 114.824341,
			"lat": 24.244301
		}
	},
	{
		"country": "CN",
		"name": "Dahu",
		"_id": 1916234,
		"coord": {
			"lon": 115.561707,
			"lat": 22.835039
		}
	},
	{
		"country": "ID",
		"name": "Dahu",
		"_id": 7780716,
		"coord": {
			"lon": 105.874001,
			"lat": -6.2163
		}
	},
	{
		"country": "ID",
		"name": "Dahu Satu",
		"_id": 7759642,
		"coord": {
			"lon": 105.801399,
			"lat": -6.7373
		}
	},
	{
		"country": "CN",
		"name": "Dahua",
		"_id": 1814282,
		"coord": {
			"lon": 107.9841,
			"lat": 23.767981
		}
	},
	{
		"country": "CN",
		"name": "Dahuaishu",
		"_id": 1807981,
		"coord": {
			"lon": 111.675278,
			"lat": 36.26556
		}
	},
	{
		"country": "CN",
		"name": "Dahuang",
		"_id": 1814277,
		"coord": {
			"lon": 116.933327,
			"lat": 28.783331
		}
	},
	{
		"country": "CN",
		"name": "Dahuanggou",
		"_id": 2033757,
		"coord": {
			"lon": 126.126549,
			"lat": 42.050838
		}
	},
	{
		"country": "CN",
		"name": "Dahuangpu",
		"_id": 1814273,
		"coord": {
			"lon": 117.277779,
			"lat": 39.441109
		}
	},
	{
		"country": "CN",
		"name": "Dahuangwei",
		"_id": 1814270,
		"coord": {
			"lon": 113.071861,
			"lat": 39.531261
		}
	},
	{
		"country": "IQ",
		"name": "Dahuk",
		"_id": 96994,
		"coord": {
			"lon": 42.99398,
			"lat": 36.869499
		}
	},
	{
		"country": "RO",
		"name": "Daia",
		"_id": 679822,
		"coord": {
			"lon": 25.98333,
			"lat": 44
		}
	},
	{
		"country": "RO",
		"name": "Daia Romana",
		"_id": 679812,
		"coord": {
			"lon": 23.66667,
			"lat": 46.01667
		}
	},
	{
		"country": "IT",
		"name": "Daiano",
		"_id": 6534995,
		"coord": {
			"lon": 11.44908,
			"lat": 46.301609
		}
	},
	{
		"country": "CN",
		"name": "Daicun",
		"_id": 7735233,
		"coord": {
			"lon": 120.195938,
			"lat": 30.01759
		}
	},
	{
		"country": "CN",
		"name": "Daidaon",
		"_id": 1898693,
		"coord": {
			"lon": 122.197937,
			"lat": 30.295259
		}
	},
	{
		"country": "JP",
		"name": "Daidō",
		"_id": 1864470,
		"coord": {
			"lon": 131.483337,
			"lat": 34.049999
		}
	},
	{
		"country": "CN",
		"name": "Daifang",
		"_id": 1814252,
		"coord": {
			"lon": 115.706039,
			"lat": 27.55146
		}
	},
	{
		"country": "US",
		"name": "Daigle",
		"_id": 4962045,
		"coord": {
			"lon": -68.460876,
			"lat": 47.18948
		}
	},
	{
		"country": "FR",
		"name": "Daignac",
		"_id": 6432208,
		"coord": {
			"lon": -0.25,
			"lat": 44.799999
		}
	},
	{
		"country": "FR",
		"name": "Daignac",
		"_id": 3021918,
		"coord": {
			"lon": -0.24883,
			"lat": 44.798672
		}
	},
	{
		"country": "JP",
		"name": "Daigo",
		"_id": 2112989,
		"coord": {
			"lon": 140.350006,
			"lat": 36.76667
		}
	},
	{
		"country": "CN",
		"name": "Daihai",
		"_id": 2036167,
		"coord": {
			"lon": 112.493057,
			"lat": 40.521111
		}
	},
	{
		"country": "CN",
		"name": "Daihui",
		"_id": 7638278,
		"coord": {
			"lon": 118.183067,
			"lat": 30.89089
		}
	},
	{
		"country": "CN",
		"name": "Daijia",
		"_id": 7072184,
		"coord": {
			"lon": 121.45089,
			"lat": 29.82752
		}
	},
	{
		"country": "CN",
		"name": "Daijia",
		"_id": 2001585,
		"coord": {
			"lon": 108.150429,
			"lat": 34.33514
		}
	},
	{
		"country": "CN",
		"name": "Daijiaba",
		"_id": 1814246,
		"coord": {
			"lon": 106.183517,
			"lat": 33.009701
		}
	},
	{
		"country": "NP",
		"name": "Dailekh",
		"_id": 1283497,
		"coord": {
			"lon": 81.666672,
			"lat": 28.83333
		}
	},
	{
		"country": "NP",
		"name": "Dailekh",
		"_id": 1283496,
		"coord": {
			"lon": 81.710114,
			"lat": 28.844339
		}
	},
	{
		"country": "CH",
		"name": "Daillens",
		"_id": 7285617,
		"coord": {
			"lon": 6.54957,
			"lat": 46.628632
		}
	},
	{
		"country": "CH",
		"name": "Daillens",
		"_id": 2661056,
		"coord": {
			"lon": 6.54871,
			"lat": 46.621151
		}
	},
	{
		"country": "CH",
		"name": "Dailly",
		"_id": 2661054,
		"coord": {
			"lon": 7.03333,
			"lat": 46.200001
		}
	},
	{
		"country": "ES",
		"name": "Daimiel",
		"_id": 6357133,
		"coord": {
			"lon": -3.61347,
			"lat": 39.072639
		}
	},
	{
		"country": "ES",
		"name": "Daimiel",
		"_id": 2518924,
		"coord": {
			"lon": -3.61498,
			"lat": 39.070042
		}
	},
	{
		"country": "ES",
		"name": "Daimus",
		"_id": 2518923,
		"coord": {
			"lon": -0.15,
			"lat": 38.966671
		}
	},
	{
		"country": "ES",
		"name": "Daimús",
		"_id": 6361978,
		"coord": {
			"lon": -0.15081,
			"lat": 38.972061
		}
	},
	{
		"country": "CN",
		"name": "Dainan",
		"_id": 1814236,
		"coord": {
			"lon": 120.129059,
			"lat": 32.71703
		}
	},
	{
		"country": "LT",
		"name": "Dainava (Kaunas)",
		"_id": 6618486,
		"coord": {
			"lon": 23.968309,
			"lat": 54.915249
		}
	},
	{
		"country": "IE",
		"name": "Daingean",
		"_id": 2962054,
		"coord": {
			"lon": -7.28944,
			"lat": 53.296108
		}
	},
	{
		"country": "US",
		"name": "Daingerfield",
		"_id": 4684858,
		"coord": {
			"lon": -94.72187,
			"lat": 33.031792
		}
	},
	{
		"country": "AU",
		"name": "Daintree",
		"_id": 2169554,
		"coord": {
			"lon": 145.316666,
			"lat": -16.25
		}
	},
	{
		"country": "FR",
		"name": "Dainville",
		"_id": 3021911,
		"coord": {
			"lon": 2.72603,
			"lat": 50.280979
		}
	},
	{
		"country": "PK",
		"name": "Daira Din Panah",
		"_id": 1180757,
		"coord": {
			"lon": 70.936111,
			"lat": 30.5702
		}
	},
	{
		"country": "IT",
		"name": "Dairago",
		"_id": 6536510,
		"coord": {
			"lon": 8.86324,
			"lat": 45.567169
		}
	},
	{
		"country": "IT",
		"name": "Dairago",
		"_id": 3177651,
		"coord": {
			"lon": 8.86324,
			"lat": 45.567169
		}
	},
	{
		"country": "AR",
		"name": "Daireaux",
		"_id": 3859538,
		"coord": {
			"lon": -61.75,
			"lat": -36.599998
		}
	},
	{
		"country": "NZ",
		"name": "Dairy Flat",
		"_id": 2191945,
		"coord": {
			"lon": 174.649994,
			"lat": -36.666672
		}
	},
	{
		"country": "DE",
		"name": "Daisbach",
		"_id": 2939349,
		"coord": {
			"lon": 8.8775,
			"lat": 49.294441
		}
	},
	{
		"country": "JP",
		"name": "Daisen",
		"_id": 1864427,
		"coord": {
			"lon": 133.533325,
			"lat": 35.383331
		}
	},
	{
		"country": "DE",
		"name": "Daisendorf",
		"_id": 6556038,
		"coord": {
			"lon": 9.26667,
			"lat": 47.716702
		}
	},
	{
		"country": "DE",
		"name": "Daisendorf",
		"_id": 2939345,
		"coord": {
			"lon": 9.26783,
			"lat": 47.71265
		}
	},
	{
		"country": "CN",
		"name": "Daishan",
		"_id": 1814232,
		"coord": {
			"lon": 122.198952,
			"lat": 30.24588
		}
	},
	{
		"country": "IN",
		"name": "Daitari",
		"_id": 1273673,
		"coord": {
			"lon": 85.75,
			"lat": 21.1
		}
	},
	{
		"country": "DE",
		"name": "Daiting",
		"_id": 6557274,
		"coord": {
			"lon": 10.9,
			"lat": 48.799999
		}
	},
	{
		"country": "DE",
		"name": "Daiting",
		"_id": 2939343,
		"coord": {
			"lon": 10.9,
			"lat": 48.799999
		}
	},
	{
		"country": "JP",
		"name": "Daito",
		"_id": 1864416,
		"coord": {
			"lon": 135.616669,
			"lat": 34.700001
		}
	},
	{
		"country": "CN",
		"name": "Daiwang",
		"_id": 1910318,
		"coord": {
			"lon": 109.294273,
			"lat": 34.396858
		}
	},
	{
		"country": "FR",
		"name": "Daix",
		"_id": 3021909,
		"coord": {
			"lon": 5.00052,
			"lat": 47.350811
		}
	},
	{
		"country": "CN",
		"name": "Daixi",
		"_id": 1814216,
		"coord": {
			"lon": 120.009987,
			"lat": 30.662901
		}
	},
	{
		"country": "CN",
		"name": "Daixi",
		"_id": 1814217,
		"coord": {
			"lon": 119.114166,
			"lat": 26.8125
		}
	},
	{
		"country": "CN",
		"name": "Daixi",
		"_id": 1898675,
		"coord": {
			"lon": 122.122643,
			"lat": 30.293449
		}
	},
	{
		"country": "CN",
		"name": "Daixi",
		"_id": 7690187,
		"coord": {
			"lon": 114.626328,
			"lat": 28.67428
		}
	},
	{
		"country": "CN",
		"name": "Daiyao",
		"_id": 1548609,
		"coord": {
			"lon": 120.214256,
			"lat": 32.929131
		}
	},
	{
		"country": "CN",
		"name": "Daiyue",
		"_id": 1814208,
		"coord": {
			"lon": 112.816841,
			"lat": 39.520378
		}
	},
	{
		"country": "DO",
		"name": "Dajabon",
		"_id": 3508952,
		"coord": {
			"lon": -71.70829,
			"lat": 19.54878
		}
	},
	{
		"country": "PK",
		"name": "Dajal",
		"_id": 1180752,
		"coord": {
			"lon": 70.376152,
			"lat": 29.557671
		}
	},
	{
		"country": "ID",
		"name": "Dajan Tangluk",
		"_id": 7528985,
		"coord": {
			"lon": 115.238899,
			"lat": -8.6458
		}
	},
	{
		"country": "ID",
		"name": "Dajanpura",
		"_id": 7084634,
		"coord": {
			"lon": 114.9963,
			"lat": -8.2177
		}
	},
	{
		"country": "ID",
		"name": "Dajanrurung",
		"_id": 7084524,
		"coord": {
			"lon": 114.8899,
			"lat": -8.2015
		}
	},
	{
		"country": "CN",
		"name": "Daji",
		"_id": 1814204,
		"coord": {
			"lon": 114.042809,
			"lat": 30.508869
		}
	},
	{
		"country": "KM",
		"name": "Daji",
		"_id": 1091436,
		"coord": {
			"lon": 44.488609,
			"lat": -12.32583
		}
	},
	{
		"country": "CN",
		"name": "Dajia",
		"_id": 1814201,
		"coord": {
			"lon": 119.275414,
			"lat": 26.63909
		}
	},
	{
		"country": "CN",
		"name": "Dajiahe",
		"_id": 1887218,
		"coord": {
			"lon": 121.55056,
			"lat": 29.42889
		}
	},
	{
		"country": "CN",
		"name": "Dajianchang",
		"_id": 1814198,
		"coord": {
			"lon": 117.083061,
			"lat": 39.477779
		}
	},
	{
		"country": "CN",
		"name": "Dajiang",
		"_id": 1814195,
		"coord": {
			"lon": 112.800072,
			"lat": 22.377081
		}
	},
	{
		"country": "CN",
		"name": "Dajie",
		"_id": 1814169,
		"coord": {
			"lon": 102.750641,
			"lat": 24.29623
		}
	},
	{
		"country": "CN",
		"name": "Dajin",
		"_id": 7644501,
		"coord": {
			"lon": 115.612099,
			"lat": 29.99785
		}
	},
	{
		"country": "CN",
		"name": "Dajing",
		"_id": 1814152,
		"coord": {
			"lon": 109.86425,
			"lat": 34.058338
		}
	},
	{
		"country": "CN",
		"name": "Dajinggou",
		"_id": 2037937,
		"coord": {
			"lon": 126.52375,
			"lat": 41.862431
		}
	},
	{
		"country": "CN",
		"name": "Dajipu",
		"_id": 7757670,
		"coord": {
			"lon": 115.013672,
			"lat": 30.044121
		}
	},
	{
		"country": "CN",
		"name": "Dajishan",
		"_id": 1814139,
		"coord": {
			"lon": 114.361397,
			"lat": 24.605209
		}
	},
	{
		"country": "LA",
		"name": "Dak Cheung",
		"_id": 7648072,
		"coord": {
			"lon": 107.26667,
			"lat": 15.46667
		}
	},
	{
		"country": "CN",
		"name": "Dakangbaozi",
		"_id": 7401036,
		"coord": {
			"lon": 123.310921,
			"lat": 42.1992
		}
	},
	{
		"country": "SN",
		"name": "Dakar",
		"_id": 2253354,
		"coord": {
			"lon": -17.444059,
			"lat": 14.6937
		}
	},
	{
		"country": "GA",
		"name": "Dakar",
		"_id": 2401325,
		"coord": {
			"lon": 10.21667,
			"lat": -0.7
		}
	},
	{
		"country": "SN",
		"name": "Dakar Dodj",
		"_id": 2253348,
		"coord": {
			"lon": -16.73333,
			"lat": 14.93333
		}
	},
	{
		"country": "SN",
		"name": "Dakar-Bango",
		"_id": 2253349,
		"coord": {
			"lon": -16.460699,
			"lat": 16.06105
		}
	},
	{
		"country": "CN",
		"name": "Dake",
		"_id": 6825184,
		"coord": {
			"lon": 103.239113,
			"lat": 24.615749
		}
	},
	{
		"country": "RU",
		"name": "Dakhovskaya",
		"_id": 567282,
		"coord": {
			"lon": 40.203056,
			"lat": 44.23
		}
	},
	{
		"country": "NG",
		"name": "Dakingari",
		"_id": 2345643,
		"coord": {
			"lon": 4.06046,
			"lat": 11.64511
		}
	},
	{
		"country": "IN",
		"name": "Dakor",
		"_id": 1273665,
		"coord": {
			"lon": 73.150002,
			"lat": 22.75
		}
	},
	{
		"country": "NE",
		"name": "Dakoro",
		"_id": 2446267,
		"coord": {
			"lon": 6.765,
			"lat": 14.51056
		}
	},
	{
		"country": "US",
		"name": "Dakota City",
		"_id": 4853296,
		"coord": {
			"lon": -94.197182,
			"lat": 42.722191
		}
	},
	{
		"country": "US",
		"name": "Dakota City",
		"_id": 5066637,
		"coord": {
			"lon": -96.418358,
			"lat": 42.41555
		}
	},
	{
		"country": "US",
		"name": "Dakota County",
		"_id": 5023752,
		"coord": {
			"lon": -93.066879,
			"lat": 44.66663
		}
	},
	{
		"country": "US",
		"name": "Dakota Dunes",
		"_id": 5227180,
		"coord": {
			"lon": -96.48642,
			"lat": 42.487492
		}
	},
	{
		"country": "CN",
		"name": "Dakoutun",
		"_id": 1814123,
		"coord": {
			"lon": 117.228889,
			"lat": 39.583328
		}
	},
	{
		"country": "PK",
		"name": "Dal",
		"_id": 1342787,
		"coord": {
			"lon": 64.105835,
			"lat": 26.216389
		}
	},
	{
		"country": "NO",
		"name": "Dal",
		"_id": 3159484,
		"coord": {
			"lon": 11.2,
			"lat": 60.25
		}
	},
	{
		"country": "UA",
		"name": "Dal'nya Zhuravlivka",
		"_id": 6723020,
		"coord": {
			"lon": 36.272141,
			"lat": 50.012501
		}
	},
	{
		"country": "NO",
		"name": "Dala",
		"_id": 3159481,
		"coord": {
			"lon": 5.07583,
			"lat": 60.286942
		}
	},
	{
		"country": "AO",
		"name": "Dala",
		"_id": 3348966,
		"coord": {
			"lon": 16.716669,
			"lat": -13.78333
		}
	},
	{
		"country": "AT",
		"name": "Dalaas",
		"_id": 7872645,
		"coord": {
			"lon": 10.03634,
			"lat": 47.156689
		}
	},
	{
		"country": "AT",
		"name": "Dalaas",
		"_id": 2781119,
		"coord": {
			"lon": 9.99104,
			"lat": 47.124458
		}
	},
	{
		"country": "GN",
		"name": "Dalaba",
		"_id": 2422383,
		"coord": {
			"lon": -12.25,
			"lat": 10.7
		}
	},
	{
		"country": "PL",
		"name": "Dalachow",
		"_id": 3100694,
		"coord": {
			"lon": 18.5784,
			"lat": 51.07732
		}
	},
	{
		"country": "PH",
		"name": "Dalaguete",
		"_id": 1716108,
		"coord": {
			"lon": 123.48333,
			"lat": 9.78333
		}
	},
	{
		"country": "PH",
		"name": "Dalaguete",
		"_id": 1716107,
		"coord": {
			"lon": 123.534897,
			"lat": 9.7612
		}
	},
	{
		"country": "CN",
		"name": "Dalai",
		"_id": 2037930,
		"coord": {
			"lon": 124.300003,
			"lat": 45.5
		}
	},
	{
		"country": "CN",
		"name": "Dalain Hob",
		"_id": 2037927,
		"coord": {
			"lon": 101.063889,
			"lat": 41.965279
		}
	},
	{
		"country": "RU",
		"name": "Dalakovo",
		"_id": 567280,
		"coord": {
			"lon": 44.591671,
			"lat": 43.235001
		}
	},
	{
		"country": "ID",
		"name": "Dalam",
		"_id": 7351812,
		"coord": {
			"lon": 116.848602,
			"lat": -8.7417
		}
	},
	{
		"country": "ID",
		"name": "Dalam",
		"_id": 7351967,
		"coord": {
			"lon": 116.9953,
			"lat": -8.5155
		}
	},
	{
		"country": "ID",
		"name": "Dalam Daya",
		"_id": 7410109,
		"coord": {
			"lon": 116.470497,
			"lat": -8.6801
		}
	},
	{
		"country": "TR",
		"name": "Dalaman",
		"_id": 447273,
		"coord": {
			"lon": 28.802799,
			"lat": 36.765911
		}
	},
	{
		"country": "ID",
		"name": "Dalamdesa Kalapadua",
		"_id": 1640526,
		"coord": {
			"lon": 108.2267,
			"lat": -7.0037
		}
	},
	{
		"country": "ID",
		"name": "Dalamdesa Selatan",
		"_id": 7377298,
		"coord": {
			"lon": 116.411499,
			"lat": -8.5938
		}
	},
	{
		"country": "CN",
		"name": "Dalan",
		"_id": 1814108,
		"coord": {
			"lon": 114.715668,
			"lat": 23.28174
		}
	},
	{
		"country": "CN",
		"name": "Dalan Turu",
		"_id": 2037922,
		"coord": {
			"lon": 105.199997,
			"lat": 40.799999
		}
	},
	{
		"country": "MN",
		"name": "Dalandzadgad",
		"_id": 2032007,
		"coord": {
			"lon": 104.425003,
			"lat": 43.570831
		}
	},
	{
		"country": "CN",
		"name": "Dalang",
		"_id": 1814104,
		"coord": {
			"lon": 112.49614,
			"lat": 24.454451
		}
	},
	{
		"country": "CN",
		"name": "Dalang",
		"_id": 1814105,
		"coord": {
			"lon": 113.931877,
			"lat": 22.947411
		}
	},
	{
		"country": "ID",
		"name": "Dalangdesa",
		"_id": 7334983,
		"coord": {
			"lon": 115.080704,
			"lat": -8.4401
		}
	},
	{
		"country": "PH",
		"name": "Dalangin",
		"_id": 1957558,
		"coord": {
			"lon": 122.578331,
			"lat": 7.85056
		}
	},
	{
		"country": "PH",
		"name": "Dalaoig",
		"_id": 1716074,
		"coord": {
			"lon": 121.7155,
			"lat": 17.933001
		}
	},
	{
		"country": "PH",
		"name": "Dalaon",
		"_id": 1716073,
		"coord": {
			"lon": 123.5084,
			"lat": 8.1038
		}
	},
	{
		"country": "AM",
		"name": "Dalar",
		"_id": 174931,
		"coord": {
			"lon": 44.526489,
			"lat": 39.976528
		}
	},
	{
		"country": "AM",
		"name": "Dalarik",
		"_id": 616769,
		"coord": {
			"lon": 43.875381,
			"lat": 40.226639
		}
	},
	{
		"country": "SE",
		"name": "Dalarnas Län",
		"_id": 2699767,
		"coord": {
			"lon": 14.5,
			"lat": 61
		}
	},
	{
		"country": "SE",
		"name": "Dalaro",
		"_id": 2718271,
		"coord": {
			"lon": 18.406389,
			"lat": 59.13306
		}
	},
	{
		"country": "MN",
		"name": "Dalay",
		"_id": 2031998,
		"coord": {
			"lon": 103.51284,
			"lat": 43.467869
		}
	},
	{
		"country": "CN",
		"name": "Dalazi",
		"_id": 2033112,
		"coord": {
			"lon": 129.561584,
			"lat": 42.639351
		}
	},
	{
		"country": "PK",
		"name": "Dalbandin",
		"_id": 1180729,
		"coord": {
			"lon": 64.410088,
			"lat": 28.894699
		}
	},
	{
		"country": "GB",
		"name": "Dalbeattie",
		"_id": 2651609,
		"coord": {
			"lon": -3.82271,
			"lat": 54.932781
		}
	},
	{
		"country": "DE",
		"name": "Dalberg",
		"_id": 6553478,
		"coord": {
			"lon": 7.73333,
			"lat": 49.900002
		}
	},
	{
		"country": "DE",
		"name": "Dalberg",
		"_id": 2939337,
		"coord": {
			"lon": 7.73333,
			"lat": 49.900002
		}
	},
	{
		"country": "DE",
		"name": "Dalborn",
		"_id": 2939333,
		"coord": {
			"lon": 8.98424,
			"lat": 51.979172
		}
	},
	{
		"country": "SE",
		"name": "Dalby",
		"_id": 2718245,
		"coord": {
			"lon": 17.35,
			"lat": 59.533329
		}
	},
	{
		"country": "AU",
		"name": "Dalby",
		"_id": 2169535,
		"coord": {
			"lon": 151.266663,
			"lat": -27.183331
		}
	},
	{
		"country": "IM",
		"name": "Dalby",
		"_id": 3042244,
		"coord": {
			"lon": -4.72923,
			"lat": 54.168789
		}
	},
	{
		"country": "CL",
		"name": "Dalcahue",
		"_id": 3892760,
		"coord": {
			"lon": -73.702217,
			"lat": -42.362782
		}
	},
	{
		"country": "GB",
		"name": "Dalcross",
		"_id": 2651601,
		"coord": {
			"lon": -4.05,
			"lat": 57.533329
		}
	},
	{
		"country": "DE",
		"name": "Daldorf",
		"_id": 6552080,
		"coord": {
			"lon": 10.25,
			"lat": 54.016701
		}
	},
	{
		"country": "DE",
		"name": "Daldorf",
		"_id": 2939330,
		"coord": {
			"lon": 10.25,
			"lat": 54.01667
		}
	},
	{
		"country": "NO",
		"name": "Dale",
		"_id": 3159438,
		"coord": {
			"lon": 5.81886,
			"lat": 60.586391
		}
	},
	{
		"country": "NO",
		"name": "Dale",
		"_id": 3159442,
		"coord": {
			"lon": 9.33333,
			"lat": 59.383331
		}
	},
	{
		"country": "GB",
		"name": "Dale",
		"_id": 2651600,
		"coord": {
			"lon": -5.17333,
			"lat": 51.709171
		}
	},
	{
		"country": "NO",
		"name": "Dale",
		"_id": 3159433,
		"coord": {
			"lon": 5.39809,
			"lat": 61.36311
		}
	},
	{
		"country": "US",
		"name": "Dale",
		"_id": 4256426,
		"coord": {
			"lon": -86.989998,
			"lat": 38.168941
		}
	},
	{
		"country": "US",
		"name": "Dale",
		"_id": 4919487,
		"coord": {
			"lon": -86.400002,
			"lat": 40.016708
		}
	},
	{
		"country": "US",
		"name": "Dale",
		"_id": 5186244,
		"coord": {
			"lon": -78.90419,
			"lat": 40.312851
		}
	},
	{
		"country": "US",
		"name": "Dale City",
		"_id": 4755158,
		"coord": {
			"lon": -77.311089,
			"lat": 38.637058
		}
	},
	{
		"country": "US",
		"name": "Dale County",
		"_id": 4058052,
		"coord": {
			"lon": -85.64994,
			"lat": 31.450171
		}
	},
	{
		"country": "IT",
		"name": "Dalegna del Collio",
		"_id": 3219958,
		"coord": {
			"lon": 13.47472,
			"lat": 46.033058
		}
	},
	{
		"country": "DE",
		"name": "Daleiden",
		"_id": 6554531,
		"coord": {
			"lon": 6.16667,
			"lat": 50.0667
		}
	},
	{
		"country": "DE",
		"name": "Daleiden",
		"_id": 2939326,
		"coord": {
			"lon": 6.16667,
			"lat": 50.066669
		}
	},
	{
		"country": "NL",
		"name": "Dalen",
		"_id": 2757857,
		"coord": {
			"lon": 6.75556,
			"lat": 52.699169
		}
	},
	{
		"country": "NO",
		"name": "Dalen",
		"_id": 3159400,
		"coord": {
			"lon": 8.01168,
			"lat": 59.44474
		}
	},
	{
		"country": "DE",
		"name": "Dalena",
		"_id": 2939325,
		"coord": {
			"lon": 11.85,
			"lat": 51.650002
		}
	},
	{
		"country": "PL",
		"name": "Daleszyce",
		"_id": 773453,
		"coord": {
			"lon": 20.807911,
			"lat": 50.802292
		}
	},
	{
		"country": "ID",
		"name": "Daleum",
		"_id": 7763463,
		"coord": {
			"lon": 105.969101,
			"lat": -6.752
		}
	},
	{
		"country": "US",
		"name": "Daleville",
		"_id": 4058061,
		"coord": {
			"lon": -85.71299,
			"lat": 31.310169
		}
	},
	{
		"country": "US",
		"name": "Daleville",
		"_id": 4755173,
		"coord": {
			"lon": -79.912537,
			"lat": 37.409859
		}
	},
	{
		"country": "US",
		"name": "Daleville",
		"_id": 4919490,
		"coord": {
			"lon": -85.558029,
			"lat": 40.121151
		}
	},
	{
		"country": "NL",
		"name": "Dalfsen",
		"_id": 2757850,
		"coord": {
			"lon": 6.25694,
			"lat": 52.511669
		}
	},
	{
		"country": "AU",
		"name": "Dalgety",
		"_id": 2169526,
		"coord": {
			"lon": 148.833328,
			"lat": -36.5
		}
	},
	{
		"country": "US",
		"name": "Dalhart",
		"_id": 5519862,
		"coord": {
			"lon": -102.513252,
			"lat": 36.059479
		}
	},
	{
		"country": "DE",
		"name": "Dalhausen",
		"_id": 3207336,
		"coord": {
			"lon": 9.28333,
			"lat": 51.616669
		}
	},
	{
		"country": "LU",
		"name": "Dalheim",
		"_id": 6693350,
		"coord": {
			"lon": 6.25972,
			"lat": 49.540829
		}
	},
	{
		"country": "LU",
		"name": "Dalheim",
		"_id": 2960665,
		"coord": {
			"lon": 6.25972,
			"lat": 49.540829
		}
	},
	{
		"country": "DE",
		"name": "Dalheim",
		"_id": 6555262,
		"coord": {
			"lon": 8.29528,
			"lat": 49.826698
		}
	},
	{
		"country": "DE",
		"name": "Dalheim",
		"_id": 2939321,
		"coord": {
			"lon": 8.29528,
			"lat": 49.826672
		}
	},
	{
		"country": "BE",
		"name": "Dalhem",
		"_id": 2799898,
		"coord": {
			"lon": 5.72602,
			"lat": 50.71315
		}
	},
	{
		"country": "BE",
		"name": "Dalhem",
		"_id": 2799897,
		"coord": {
			"lon": 5.72774,
			"lat": 50.71315
		}
	},
	{
		"country": "CA",
		"name": "Dalhousie",
		"_id": 6943599,
		"coord": {
			"lon": -66.38472,
			"lat": 48.055019
		}
	},
	{
		"country": "IN",
		"name": "Dalhousie",
		"_id": 1273648,
		"coord": {
			"lon": 75.98333,
			"lat": 32.533329
		}
	},
	{
		"country": "CA",
		"name": "Dalhousie Road",
		"_id": 5934673,
		"coord": {
			"lon": -64.698769,
			"lat": 44.733452
		}
	},
	{
		"country": "CN",
		"name": "Dali",
		"_id": 1814093,
		"coord": {
			"lon": 100.183327,
			"lat": 25.700001
		}
	},
	{
		"country": "CN",
		"name": "Dali",
		"_id": 1814092,
		"coord": {
			"lon": 109.93895,
			"lat": 34.79586
		}
	},
	{
		"country": "CN",
		"name": "Dalian",
		"_id": 1814087,
		"coord": {
			"lon": 121.602219,
			"lat": 38.91222
		}
	},
	{
		"country": "CN",
		"name": "Dalian",
		"_id": 2034161,
		"coord": {
			"lon": 122.598511,
			"lat": 41.069592
		}
	},
	{
		"country": "CN",
		"name": "Daliang",
		"_id": 1814082,
		"coord": {
			"lon": 113.247009,
			"lat": 22.85042
		}
	},
	{
		"country": "CN",
		"name": "Daliang",
		"_id": 1814078,
		"coord": {
			"lon": 117.095001,
			"lat": 39.53944
		}
	},
	{
		"country": "CN",
		"name": "Dalianwan",
		"_id": 1921372,
		"coord": {
			"lon": 121.695,
			"lat": 39.02861
		}
	},
	{
		"country": "PH",
		"name": "Daliao",
		"_id": 1716019,
		"coord": {
			"lon": 124.953331,
			"lat": 5.86111
		}
	},
	{
		"country": "ES",
		"name": "Dalias",
		"_id": 2518921,
		"coord": {
			"lon": -2.87138,
			"lat": 36.821789
		}
	},
	{
		"country": "GB",
		"name": "Daliburgh",
		"_id": 2651589,
		"coord": {
			"lon": -7.4,
			"lat": 57.166672
		}
	},
	{
		"country": "PH",
		"name": "Dalican",
		"_id": 1716014,
		"coord": {
			"lon": 124.400002,
			"lat": 6.96667
		}
	},
	{
		"country": "PH",
		"name": "Daliciasao",
		"_id": 1715194,
		"coord": {
			"lon": 122.761803,
			"lat": 9.9859
		}
	},
	{
		"country": "CN",
		"name": "Dalikou",
		"_id": 1814056,
		"coord": {
			"lon": 118.002457,
			"lat": 26.889429
		}
	},
	{
		"country": "PL",
		"name": "Dalikow",
		"_id": 3100685,
		"coord": {
			"lon": 19.11904,
			"lat": 51.884762
		}
	},
	{
		"country": "CH",
		"name": "Dalin",
		"_id": 7670133,
		"coord": {
			"lon": 9.40558,
			"lat": 46.736382
		}
	},
	{
		"country": "CN",
		"name": "Daling",
		"_id": 1916848,
		"coord": {
			"lon": 114.701523,
			"lat": 23.00371
		}
	},
	{
		"country": "CN",
		"name": "Daling",
		"_id": 7630145,
		"coord": {
			"lon": 127.112663,
			"lat": 45.506302
		}
	},
	{
		"country": "CN",
		"name": "Dalinhe",
		"_id": 1814042,
		"coord": {
			"lon": 113.361107,
			"lat": 39.555561
		}
	},
	{
		"country": "FM",
		"name": "Dalipebinaw Municipality",
		"_id": 7626936,
		"coord": {
			"lon": 138.085403,
			"lat": 9.52229
		}
	},
	{
		"country": "PH",
		"name": "Dalipey",
		"_id": 1715962,
		"coord": {
			"lon": 120.716667,
			"lat": 16.799999
		}
	},
	{
		"country": "PH",
		"name": "Dalipuga",
		"_id": 1715959,
		"coord": {
			"lon": 124.254723,
			"lat": 8.31583
		}
	},
	{
		"country": "PH",
		"name": "Dalirig",
		"_id": 1715958,
		"coord": {
			"lon": 124.90139,
			"lat": 8.37722
		}
	},
	{
		"country": "CN",
		"name": "Daliu",
		"_id": 1814033,
		"coord": {
			"lon": 113.902946,
			"lat": 33.503639
		}
	},
	{
		"country": "IL",
		"name": "Daliyat el Karmil",
		"_id": 295365,
		"coord": {
			"lon": 35.040829,
			"lat": 32.693611
		}
	},
	{
		"country": "CN",
		"name": "Dalizi",
		"_id": 2037906,
		"coord": {
			"lon": 126.833328,
			"lat": 41.730282
		}
	},
	{
		"country": "HR",
		"name": "Dalj",
		"_id": 3202215,
		"coord": {
			"lon": 18.98472,
			"lat": 45.490002
		}
	},
	{
		"country": "AU",
		"name": "Dalkeith",
		"_id": 2078912,
		"coord": {
			"lon": 115.79583,
			"lat": -31.995831
		}
	},
	{
		"country": "GB",
		"name": "Dalkeith",
		"_id": 2651587,
		"coord": {
			"lon": -3.06381,
			"lat": 55.89341
		}
	},
	{
		"country": "DE",
		"name": "Dalkendorf",
		"_id": 6547874,
		"coord": {
			"lon": 12.5,
			"lat": 53.8167
		}
	},
	{
		"country": "DE",
		"name": "Dalkendorf",
		"_id": 2939307,
		"coord": {
			"lon": 12.5,
			"lat": 53.816669
		}
	},
	{
		"country": "IE",
		"name": "Dalkey",
		"_id": 2964892,
		"coord": {
			"lon": -6.10028,
			"lat": 53.278332
		}
	},
	{
		"country": "IN",
		"name": "Dalkola",
		"_id": 1273642,
		"coord": {
			"lon": 87.849998,
			"lat": 25.85
		}
	},
	{
		"country": "ET",
		"name": "Dalla",
		"_id": 340128,
		"coord": {
			"lon": 40.916672,
			"lat": 7.71667
		}
	},
	{
		"country": "DE",
		"name": "Dallackenried",
		"_id": 2939302,
		"coord": {
			"lon": 11.91656,
			"lat": 49.152748
		}
	},
	{
		"country": "US",
		"name": "Dallam County",
		"_id": 5519868,
		"coord": {
			"lon": -102.600471,
			"lat": 36.28336
		}
	},
	{
		"country": "AU",
		"name": "Dallarnil",
		"_id": 2169515,
		"coord": {
			"lon": 152.050003,
			"lat": -25.4
		}
	},
	{
		"country": "US",
		"name": "Dallas",
		"_id": 4684888,
		"coord": {
			"lon": -96.806671,
			"lat": 32.783058
		}
	},
	{
		"country": "US",
		"name": "Dallas",
		"_id": 4190598,
		"coord": {
			"lon": -84.840767,
			"lat": 33.92371
		}
	},
	{
		"country": "US",
		"name": "Dallas",
		"_id": 4462896,
		"coord": {
			"lon": -81.176193,
			"lat": 35.316528
		}
	},
	{
		"country": "US",
		"name": "Dallas",
		"_id": 5186266,
		"coord": {
			"lon": -75.963249,
			"lat": 41.336189
		}
	},
	{
		"country": "US",
		"name": "Dallas",
		"_id": 5722064,
		"coord": {
			"lon": -123.317047,
			"lat": 44.919281
		}
	},
	{
		"country": "US",
		"name": "Dallas Center",
		"_id": 4853325,
		"coord": {
			"lon": -93.96106,
			"lat": 41.684429
		}
	},
	{
		"country": "US",
		"name": "Dallas County",
		"_id": 4058076,
		"coord": {
			"lon": -87.083321,
			"lat": 32.333469
		}
	},
	{
		"country": "US",
		"name": "Dallas County",
		"_id": 4853335,
		"coord": {
			"lon": -94.050232,
			"lat": 41.683319
		}
	},
	{
		"country": "US",
		"name": "Dallas County",
		"_id": 4684904,
		"coord": {
			"lon": -96.783607,
			"lat": 32.7668
		}
	},
	{
		"country": "US",
		"name": "Dallastown",
		"_id": 4557477,
		"coord": {
			"lon": -76.640251,
			"lat": 39.89954
		}
	},
	{
		"country": "DE",
		"name": "Dallau",
		"_id": 2939299,
		"coord": {
			"lon": 9.1925,
			"lat": 49.385559
		}
	},
	{
		"country": "DE",
		"name": "Dalldorf",
		"_id": 6551423,
		"coord": {
			"lon": 10.61193,
			"lat": 53.43475
		}
	},
	{
		"country": "DE",
		"name": "Dalldorf",
		"_id": 2939293,
		"coord": {
			"lon": 10.61185,
			"lat": 53.435001
		}
	},
	{
		"country": "CH",
		"name": "Dallenwil",
		"_id": 7285618,
		"coord": {
			"lon": 8.36496,
			"lat": 46.91737
		}
	},
	{
		"country": "CH",
		"name": "Dallenwil",
		"_id": 2661053,
		"coord": {
			"lon": 8.38785,
			"lat": 46.924198
		}
	},
	{
		"country": "US",
		"name": "Dallesport",
		"_id": 5791724,
		"coord": {
			"lon": -121.17952,
			"lat": 45.61734
		}
	},
	{
		"country": "FR",
		"name": "Dallet",
		"_id": 6440014,
		"coord": {
			"lon": 3.23333,
			"lat": 45.76667
		}
	},
	{
		"country": "FR",
		"name": "Dallet",
		"_id": 3021902,
		"coord": {
			"lon": 3.23906,
			"lat": 45.77039
		}
	},
	{
		"country": "DE",
		"name": "Dallgow",
		"_id": 2939291,
		"coord": {
			"lon": 13.08333,
			"lat": 52.51667
		}
	},
	{
		"country": "DE",
		"name": "Dallgow-Doeberitz",
		"_id": 6547590,
		"coord": {
			"lon": 13.05837,
			"lat": 52.54269
		}
	},
	{
		"country": "DE",
		"name": "Dallgow-Döberitz",
		"_id": 7602564,
		"coord": {
			"lon": 13.05837,
			"lat": 52.54269
		}
	},
	{
		"country": "DE",
		"name": "Dalliendorf",
		"_id": 2939288,
		"coord": {
			"lon": 11.33333,
			"lat": 53.783329
		}
	},
	{
		"country": "GB",
		"name": "Dallington",
		"_id": 2651579,
		"coord": {
			"lon": -0.91667,
			"lat": 52.23333
		}
	},
	{
		"country": "AR",
		"name": "Dalmacio Velez Sarsfield",
		"_id": 3859535,
		"coord": {
			"lon": -63.580379,
			"lat": -32.610722
		}
	},
	{
		"country": "RU",
		"name": "Dalmatovo",
		"_id": 1507565,
		"coord": {
			"lon": 62.936199,
			"lat": 56.259998
		}
	},
	{
		"country": "IN",
		"name": "Dalmau",
		"_id": 1273637,
		"coord": {
			"lon": 81.033333,
			"lat": 26.066669
		}
	},
	{
		"country": "CA",
		"name": "Dalmeny",
		"_id": 5934709,
		"coord": {
			"lon": -106.767921,
			"lat": 52.333389
		}
	},
	{
		"country": "IT",
		"name": "Dalmine",
		"_id": 6536541,
		"coord": {
			"lon": 9.60395,
			"lat": 45.649281
		}
	},
	{
		"country": "IT",
		"name": "Dalmine",
		"_id": 3177650,
		"coord": {
			"lon": 9.60395,
			"lat": 45.649281
		}
	},
	{
		"country": "AU",
		"name": "Dalmore",
		"_id": 2169507,
		"coord": {
			"lon": 145.416672,
			"lat": -38.183331
		}
	},
	{
		"country": "RU",
		"name": "Dalnegorsk",
		"_id": 2051471,
		"coord": {
			"lon": 135.570084,
			"lat": 44.56039
		}
	},
	{
		"country": "RU",
		"name": "Dalnerechensk",
		"_id": 2025159,
		"coord": {
			"lon": 133.722504,
			"lat": 45.933891
		}
	},
	{
		"country": "ID",
		"name": "Dalo",
		"_id": 7567672,
		"coord": {
			"lon": 120.696503,
			"lat": -8.6593
		}
	},
	{
		"country": "CI",
		"name": "Daloa",
		"_id": 2290486,
		"coord": {
			"lon": -6.45022,
			"lat": 6.87736
		}
	},
	{
		"country": "CN",
		"name": "Dalong",
		"_id": 1814011,
		"coord": {
			"lon": 118.712891,
			"lat": 31.433331
		}
	},
	{
		"country": "CN",
		"name": "Dalong",
		"_id": 7636892,
		"coord": {
			"lon": 116.384331,
			"lat": 29.744129
		}
	},
	{
		"country": "ID",
		"name": "Dalong",
		"_id": 7378562,
		"coord": {
			"lon": 119.936203,
			"lat": -8.5649
		}
	},
	{
		"country": "CN",
		"name": "Dalongtan",
		"_id": 6824285,
		"coord": {
			"lon": 102.108322,
			"lat": 24.435829
		}
	},
	{
		"country": "CN",
		"name": "Dalongzhan",
		"_id": 1814007,
		"coord": {
			"lon": 111.752983,
			"lat": 29.20472
		}
	},
	{
		"country": "SO",
		"name": "Dalooldho",
		"_id": 61993,
		"coord": {
			"lon": 44.06229,
			"lat": 9.59271
		}
	},
	{
		"country": "PH",
		"name": "Dalorong",
		"_id": 1715940,
		"coord": {
			"lon": 125.132782,
			"lat": 7.58583
		}
	},
	{
		"country": "CZ",
		"name": "Dalovice",
		"_id": 3077291,
		"coord": {
			"lon": 12.89581,
			"lat": 50.247791
		}
	},
	{
		"country": "GB",
		"name": "Dalry",
		"_id": 2651561,
		"coord": {
			"lon": -4.71667,
			"lat": 55.683331
		}
	},
	{
		"country": "GB",
		"name": "Dalrymple",
		"_id": 2651559,
		"coord": {
			"lon": -4.59169,
			"lat": 55.397572
		}
	},
	{
		"country": "AU",
		"name": "Dalrymple Heights",
		"_id": 2169493,
		"coord": {
			"lon": 148.516663,
			"lat": -21.1
		}
	},
	{
		"country": "SE",
		"name": "Dals Langed",
		"_id": 2718133,
		"coord": {
			"lon": 12.3,
			"lat": 58.916672
		}
	},
	{
		"country": "DE",
		"name": "Dalsheim",
		"_id": 2939279,
		"coord": {
			"lon": 8.20278,
			"lat": 49.662498
		}
	},
	{
		"country": "IN",
		"name": "Dalsingh Sarai",
		"_id": 1273628,
		"coord": {
			"lon": 85.833328,
			"lat": 25.66667
		}
	},
	{
		"country": "SE",
		"name": "Dalsjofors",
		"_id": 2718144,
		"coord": {
			"lon": 13.08333,
			"lat": 57.716671
		}
	},
	{
		"country": "IN",
		"name": "Daltenganj",
		"_id": 1273626,
		"coord": {
			"lon": 84.066673,
			"lat": 24.033331
		}
	},
	{
		"country": "AU",
		"name": "Dalton",
		"_id": 2169490,
		"coord": {
			"lon": 149.183334,
			"lat": -34.716671
		}
	},
	{
		"country": "ZA",
		"name": "Dalton",
		"_id": 1012080,
		"coord": {
			"lon": 30.631189,
			"lat": -29.340931
		}
	},
	{
		"country": "US",
		"name": "Dalton",
		"_id": 4190581,
		"coord": {
			"lon": -84.970222,
			"lat": 34.769798
		}
	},
	{
		"country": "US",
		"name": "Dalton",
		"_id": 4934429,
		"coord": {
			"lon": -73.166206,
			"lat": 42.473701
		}
	},
	{
		"country": "US",
		"name": "Dalton",
		"_id": 5151660,
		"coord": {
			"lon": -81.695412,
			"lat": 40.798939
		}
	},
	{
		"country": "US",
		"name": "Dalton",
		"_id": 5186267,
		"coord": {
			"lon": -75.736031,
			"lat": 41.534241
		}
	},
	{
		"country": "US",
		"name": "Dalton Gardens",
		"_id": 5590453,
		"coord": {
			"lon": -116.770187,
			"lat": 47.72963
		}
	},
	{
		"country": "GB",
		"name": "Dalton in Furness",
		"_id": 2651551,
		"coord": {
			"lon": -3.16667,
			"lat": 54.150002
		}
	},
	{
		"country": "US",
		"name": "Daltons",
		"_id": 4755189,
		"coord": {
			"lon": -77.419434,
			"lat": 38.13541
		}
	},
	{
		"country": "CN",
		"name": "Dalu",
		"_id": 1814005,
		"coord": {
			"lon": 110.465271,
			"lat": 19.3895
		}
	},
	{
		"country": "CN",
		"name": "Dalu",
		"_id": 2037903,
		"coord": {
			"lon": 125.77121,
			"lat": 40.995468
		}
	},
	{
		"country": "CN",
		"name": "Dalu",
		"_id": 7741551,
		"coord": {
			"lon": 114.431793,
			"lat": 29.59938
		}
	},
	{
		"country": "CN",
		"name": "Dalubian",
		"_id": 1813995,
		"coord": {
			"lon": 112.629112,
			"lat": 25.041439
		}
	},
	{
		"country": "CN",
		"name": "Dalukou",
		"_id": 7757668,
		"coord": {
			"lon": 114.999039,
			"lat": 30.2742
		}
	},
	{
		"country": "DE",
		"name": "Dalum",
		"_id": 2939276,
		"coord": {
			"lon": 7.73333,
			"lat": 52.549999
		}
	},
	{
		"country": "PH",
		"name": "Dalumangcob",
		"_id": 1715931,
		"coord": {
			"lon": 124.300003,
			"lat": 7.21667
		}
	},
	{
		"country": "CN",
		"name": "Dalun",
		"_id": 1813985,
		"coord": {
			"lon": 120.24192,
			"lat": 32.44376
		}
	},
	{
		"country": "CN",
		"name": "Daluo",
		"_id": 1813981,
		"coord": {
			"lon": 117.789391,
			"lat": 26.25099
		}
	},
	{
		"country": "PH",
		"name": "Dalupaon",
		"_id": 1715922,
		"coord": {
			"lon": 122.945702,
			"lat": 13.5517
		}
	},
	{
		"country": "PH",
		"name": "Dalupirip",
		"_id": 1715917,
		"coord": {
			"lon": 120.725563,
			"lat": 16.32583
		}
	},
	{
		"country": "CN",
		"name": "Dalupu",
		"_id": 6423041,
		"coord": {
			"lon": 111.532501,
			"lat": 25.064171
		}
	},
	{
		"country": "PT",
		"name": "Dalvares",
		"_id": 2740163,
		"coord": {
			"lon": -7.75995,
			"lat": 41.035271
		}
	},
	{
		"country": "AU",
		"name": "Dalveen",
		"_id": 2169487,
		"coord": {
			"lon": 151.983337,
			"lat": -28.48333
		}
	},
	{
		"country": "JM",
		"name": "Dalvey",
		"_id": 3490768,
		"coord": {
			"lon": -76.248642,
			"lat": 17.91184
		}
	},
	{
		"country": "IS",
		"name": "Dalvik",
		"_id": 2632287,
		"coord": {
			"lon": -18.52861,
			"lat": 65.970177
		}
	},
	{
		"country": "AU",
		"name": "Dalwallinu",
		"_id": 7839496,
		"coord": {
			"lon": 116.984009,
			"lat": -30.12998
		}
	},
	{
		"country": "AU",
		"name": "Dalwallinu",
		"_id": 2073216,
		"coord": {
			"lon": 116.666672,
			"lat": -30.283331
		}
	},
	{
		"country": "PH",
		"name": "Dalwangan",
		"_id": 1715912,
		"coord": {
			"lon": 125.040558,
			"lat": 8.20056
		}
	},
	{
		"country": "US",
		"name": "Dalworthington Gardens",
		"_id": 4684955,
		"coord": {
			"lon": -97.155289,
			"lat": 32.702911
		}
	},
	{
		"country": "US",
		"name": "Daly City",
		"_id": 5341430,
		"coord": {
			"lon": -122.461922,
			"lat": 37.705769
		}
	},
	{
		"country": "AU",
		"name": "Daly Waters",
		"_id": 2073208,
		"coord": {
			"lon": 133.366669,
			"lat": -16.25
		}
	},
	{
		"country": "TR",
		"name": "Dalyan",
		"_id": 317681,
		"coord": {
			"lon": 28.6446,
			"lat": 36.83429
		}
	},
	{
		"country": "AU",
		"name": "Dalysford",
		"_id": 2169482,
		"coord": {
			"lon": 151.883331,
			"lat": -25.01667
		}
	},
	{
		"country": "AU",
		"name": "Dalyston",
		"_id": 2169480,
		"coord": {
			"lon": 145.550003,
			"lat": -38.566669
		}
	},
	{
		"country": "US",
		"name": "Dalzell",
		"_id": 4889370,
		"coord": {
			"lon": -89.176201,
			"lat": 41.357811
		}
	},
	{
		"country": "US",
		"name": "Dalzell",
		"_id": 4576268,
		"coord": {
			"lon": -80.430077,
			"lat": 34.016819
		}
	},
	{
		"country": "UA",
		"name": "Dalëkiy",
		"_id": 710324,
		"coord": {
			"lon": 35.283329,
			"lat": 46.950001
		}
	},
	{
		"country": "RU",
		"name": "Dal’negorsk",
		"_id": 2025161,
		"coord": {
			"lon": 135.567398,
			"lat": 44.555801
		}
	},
	{
		"country": "RU",
		"name": "Dal’niy",
		"_id": 2025153,
		"coord": {
			"lon": 135.066666,
			"lat": 44.900002
		}
	},
	{
		"country": "RU",
		"name": "Dal’niy",
		"_id": 517213,
		"coord": {
			"lon": 40.959999,
			"lat": 57.056946
		}
	},
	{
		"country": "RU",
		"name": "Dal’niy",
		"_id": 567252,
		"coord": {
			"lon": 43.5,
			"lat": 48.700001
		}
	},
	{
		"country": "UA",
		"name": "Dal’niye Kamyshi",
		"_id": 710315,
		"coord": {
			"lon": 35.483334,
			"lat": 45.116669
		}
	},
	{
		"country": "RU",
		"name": "Dal’niye Prudishchi",
		"_id": 6417336,
		"coord": {
			"lon": 37.860279,
			"lat": 55.553333
		}
	},
	{
		"country": "RU",
		"name": "Dal’nyaya",
		"_id": 567235,
		"coord": {
			"lon": 38.655277,
			"lat": 55.956944
		}
	},
	{
		"country": "CF",
		"name": "Dam",
		"_id": 2387440,
		"coord": {
			"lon": 17.433331,
			"lat": 6.48333
		}
	},
	{
		"country": "IN",
		"name": "Dam Dam",
		"_id": 1272243,
		"coord": {
			"lon": 88.416939,
			"lat": 22.622219
		}
	},
	{
		"country": "CN",
		"name": "Dama",
		"_id": 1813970,
		"coord": {
			"lon": 120.34111,
			"lat": 30.502331
		}
	},
	{
		"country": "PH",
		"name": "Damabalas",
		"_id": 1978291,
		"coord": {
			"lon": 124.514168,
			"lat": 7.01556
		}
	},
	{
		"country": "CN",
		"name": "Damai",
		"_id": 1813965,
		"coord": {
			"lon": 102.664139,
			"lat": 35.200062
		}
	},
	{
		"country": "PT",
		"name": "Damaia",
		"_id": 2268728,
		"coord": {
			"lon": -9.21227,
			"lat": 38.751411
		}
	},
	{
		"country": "CN",
		"name": "Damaishan",
		"_id": 1920444,
		"coord": {
			"lon": 112.278938,
			"lat": 24.503599
		}
	},
	{
		"country": "TR",
		"name": "Damal",
		"_id": 748688,
		"coord": {
			"lon": 42.839359,
			"lat": 41.340351
		}
	},
	{
		"country": "IN",
		"name": "Daman",
		"_id": 1273618,
		"coord": {
			"lon": 72.849998,
			"lat": 20.41667
		}
	},
	{
		"country": "EG",
		"name": "Damanhur",
		"_id": 358448,
		"coord": {
			"lon": 30.469139,
			"lat": 31.039169
		}
	},
	{
		"country": "CN",
		"name": "Damao",
		"_id": 1917594,
		"coord": {
			"lon": 110.392441,
			"lat": 18.849199
		}
	},
	{
		"country": "CF",
		"name": "Damara",
		"_id": 2387435,
		"coord": {
			"lon": 18.703501,
			"lat": 4.96075
		}
	},
	{
		"country": "US",
		"name": "Damariscotta",
		"_id": 4962066,
		"coord": {
			"lon": -69.518661,
			"lat": 44.03286
		}
	},
	{
		"country": "ID",
		"name": "Damarsi",
		"_id": 1965199,
		"coord": {
			"lon": 112.759804,
			"lat": -7.4177
		}
	},
	{
		"country": "NG",
		"name": "Damasak",
		"_id": 2345526,
		"coord": {
			"lon": 12.4952,
			"lat": 13.09771
		}
	},
	{
		"country": "SY",
		"name": "Damascus",
		"_id": 170654,
		"coord": {
			"lon": 36.291279,
			"lat": 33.510201
		}
	},
	{
		"country": "US",
		"name": "Damascus",
		"_id": 4352728,
		"coord": {
			"lon": -77.203873,
			"lat": 39.288441
		}
	},
	{
		"country": "US",
		"name": "Damascus",
		"_id": 5722088,
		"coord": {
			"lon": -122.458977,
			"lat": 45.417622
		}
	},
	{
		"country": "US",
		"name": "Damascus Heights",
		"_id": 5722090,
		"coord": {
			"lon": -122.449257,
			"lat": 45.420681
		}
	},
	{
		"country": "PL",
		"name": "Damaslawek",
		"_id": 3100677,
		"coord": {
			"lon": 17.50062,
			"lat": 52.83979
		}
	},
	{
		"country": "IE",
		"name": "Damastown",
		"_id": 3316342,
		"coord": {
			"lon": -6.30472,
			"lat": 53.555828
		}
	},
	{
		"country": "PH",
		"name": "Damatulan",
		"_id": 1715890,
		"coord": {
			"lon": 124.48278,
			"lat": 7.03889
		}
	},
	{
		"country": "NG",
		"name": "Damaturu",
		"_id": 2345521,
		"coord": {
			"lon": 11.9608,
			"lat": 11.747
		}
	},
	{
		"country": "IR",
		"name": "Damavand",
		"_id": 138042,
		"coord": {
			"lon": 52.064999,
			"lat": 35.717781
		}
	},
	{
		"country": "PH",
		"name": "Damawato",
		"_id": 1715889,
		"coord": {
			"lon": 124.783333,
			"lat": 6.7
		}
	},
	{
		"country": "PH",
		"name": "Damayan",
		"_id": 1715887,
		"coord": {
			"lon": 122.553101,
			"lat": 11.4936
		}
	},
	{
		"country": "FR",
		"name": "Damazan",
		"_id": 3021890,
		"coord": {
			"lon": 0.27694,
			"lat": 44.29068
		}
	},
	{
		"country": "DE",
		"name": "Dambach",
		"_id": 2939256,
		"coord": {
			"lon": 10.97363,
			"lat": 49.46349
		}
	},
	{
		"country": "DE",
		"name": "Dambach",
		"_id": 6553580,
		"coord": {
			"lon": 7.13333,
			"lat": 49.633301
		}
	},
	{
		"country": "DE",
		"name": "Dambach",
		"_id": 2939255,
		"coord": {
			"lon": 7.13333,
			"lat": 49.633331
		}
	},
	{
		"country": "FR",
		"name": "Dambach-la-Ville",
		"_id": 3021888,
		"coord": {
			"lon": 7.42547,
			"lat": 48.323792
		}
	},
	{
		"country": "NG",
		"name": "Dambarta",
		"_id": 2345505,
		"coord": {
			"lon": 8.51541,
			"lat": 12.43303
		}
	},
	{
		"country": "DE",
		"name": "Dambeck",
		"_id": 2939249,
		"coord": {
			"lon": 11.12297,
			"lat": 53.118912
		}
	},
	{
		"country": "DE",
		"name": "Dambeck",
		"_id": 6547926,
		"coord": {
			"lon": 11.7667,
			"lat": 53.25
		}
	},
	{
		"country": "DE",
		"name": "Dambeck",
		"_id": 2939248,
		"coord": {
			"lon": 11.76667,
			"lat": 53.25
		}
	},
	{
		"country": "IT",
		"name": "Dambel",
		"_id": 3177649,
		"coord": {
			"lon": 11.09307,
			"lat": 46.404709
		}
	},
	{
		"country": "FR",
		"name": "Damblainville",
		"_id": 6427184,
		"coord": {
			"lon": -0.11667,
			"lat": 48.916672
		}
	},
	{
		"country": "FR",
		"name": "Damblainville",
		"_id": 3021882,
		"coord": {
			"lon": -0.11527,
			"lat": 48.91486
		}
	},
	{
		"country": "NG",
		"name": "Damboa",
		"_id": 2345498,
		"coord": {
			"lon": 12.75758,
			"lat": 11.15604
		}
	},
	{
		"country": "CZ",
		"name": "Damborice",
		"_id": 3077285,
		"coord": {
			"lon": 16.91757,
			"lat": 49.03828
		}
	},
	{
		"country": "RO",
		"name": "Dambovicioara",
		"_id": 679389,
		"coord": {
			"lon": 25.23333,
			"lat": 45.450001
		}
	},
	{
		"country": "LK",
		"name": "Dambulla",
		"_id": 1248749,
		"coord": {
			"lon": 80.651672,
			"lat": 7.86
		}
	},
	{
		"country": "HT",
		"name": "Dame-Marie",
		"_id": 3727055,
		"coord": {
			"lon": -74.416672,
			"lat": 18.566669
		}
	},
	{
		"country": "DE",
		"name": "Damelang-Freienthal",
		"_id": 3208739,
		"coord": {
			"lon": 12.7,
			"lat": 52.23333
		}
	},
	{
		"country": "FR",
		"name": "Damelevieres",
		"_id": 3021872,
		"coord": {
			"lon": 6.38611,
			"lat": 48.557362
		}
	},
	{
		"country": "DE",
		"name": "Damendorf",
		"_id": 6551824,
		"coord": {
			"lon": 9.73333,
			"lat": 54.416698
		}
	},
	{
		"country": "DE",
		"name": "Damendorf",
		"_id": 2939230,
		"coord": {
			"lon": 9.73333,
			"lat": 54.416672
		}
	},
	{
		"country": "DE",
		"name": "Damerow",
		"_id": 2939225,
		"coord": {
			"lon": 13.65,
			"lat": 53.400002
		}
	},
	{
		"country": "DE",
		"name": "Damerow",
		"_id": 6548450,
		"coord": {
			"lon": 13.9833,
			"lat": 53.450001
		}
	},
	{
		"country": "DE",
		"name": "Damerow",
		"_id": 2939224,
		"coord": {
			"lon": 13.98333,
			"lat": 53.450001
		}
	},
	{
		"country": "FR",
		"name": "Damery",
		"_id": 3021866,
		"coord": {
			"lon": 3.88036,
			"lat": 49.07238
		}
	},
	{
		"country": "DE",
		"name": "Damflos",
		"_id": 6554725,
		"coord": {
			"lon": 6.98333,
			"lat": 49.666698
		}
	},
	{
		"country": "DE",
		"name": "Damflos",
		"_id": 2939214,
		"coord": {
			"lon": 6.98333,
			"lat": 49.666672
		}
	},
	{
		"country": "FR",
		"name": "Damgan",
		"_id": 3021861,
		"coord": {
			"lon": -2.57698,
			"lat": 47.51799
		}
	},
	{
		"country": "IR",
		"name": "Damghan",
		"_id": 138025,
		"coord": {
			"lon": 54.348,
			"lat": 36.168301
		}
	},
	{
		"country": "CN",
		"name": "Damiao",
		"_id": 1813933,
		"coord": {
			"lon": 114.884132,
			"lat": 28.076509
		}
	},
	{
		"country": "RO",
		"name": "Damienesti",
		"_id": 679788,
		"coord": {
			"lon": 26.98333,
			"lat": 46.73333
		}
	},
	{
		"country": "EG",
		"name": "Damietta",
		"_id": 358048,
		"coord": {
			"lon": 31.81332,
			"lat": 31.416479
		}
	},
	{
		"country": "FR",
		"name": "Damigny",
		"_id": 6617250,
		"coord": {
			"lon": 0.0737,
			"lat": 48.447899
		}
	},
	{
		"country": "FR",
		"name": "Damigny",
		"_id": 3021859,
		"coord": {
			"lon": 0.06667,
			"lat": 48.450001
		}
	},
	{
		"country": "PH",
		"name": "Damilag",
		"_id": 1715880,
		"coord": {
			"lon": 124.812218,
			"lat": 8.35472
		}
	},
	{
		"country": "CN",
		"name": "Daming",
		"_id": 1928040,
		"coord": {
			"lon": 110.051147,
			"lat": 29.10783
		}
	},
	{
		"country": "CN",
		"name": "Daming",
		"_id": 7048205,
		"coord": {
			"lon": 109.672302,
			"lat": 34.42944
		}
	},
	{
		"country": "CN",
		"name": "Daminggong",
		"_id": 1998337,
		"coord": {
			"lon": 108.963287,
			"lat": 34.30455
		}
	},
	{
		"country": "MZ",
		"name": "Damião",
		"_id": 1100188,
		"coord": {
			"lon": 35.315281,
			"lat": -22.022779
		}
	},
	{
		"country": "DE",
		"name": "Damlos",
		"_id": 6551645,
		"coord": {
			"lon": 10.9,
			"lat": 54.25
		}
	},
	{
		"country": "DE",
		"name": "Damlos",
		"_id": 2939208,
		"coord": {
			"lon": 10.9,
			"lat": 54.25
		}
	},
	{
		"country": "DE",
		"name": "Damm",
		"_id": 2939192,
		"coord": {
			"lon": 10.2,
			"lat": 54.366669
		}
	},
	{
		"country": "DE",
		"name": "Damm",
		"_id": 2939195,
		"coord": {
			"lon": 11.75,
			"lat": 53.433331
		}
	},
	{
		"country": "FR",
		"name": "Dammarie",
		"_id": 3021854,
		"coord": {
			"lon": 1.49444,
			"lat": 48.34314
		}
	},
	{
		"country": "FR",
		"name": "Dammarie-les-Lys",
		"_id": 6455404,
		"coord": {
			"lon": 2.65,
			"lat": 48.51667
		}
	},
	{
		"country": "FR",
		"name": "Dammarie-les-Lys",
		"_id": 3021852,
		"coord": {
			"lon": 2.65,
			"lat": 48.51667
		}
	},
	{
		"country": "FR",
		"name": "Dammartin-en-Goele",
		"_id": 3021848,
		"coord": {
			"lon": 2.67777,
			"lat": 49.05423
		}
	},
	{
		"country": "DE",
		"name": "Dammbach",
		"_id": 2858498,
		"coord": {
			"lon": 9.32756,
			"lat": 49.857738
		}
	},
	{
		"country": "DE",
		"name": "Damme",
		"_id": 2939167,
		"coord": {
			"lon": 8.2,
			"lat": 52.51667
		}
	},
	{
		"country": "BE",
		"name": "Damme",
		"_id": 2799886,
		"coord": {
			"lon": 3.28126,
			"lat": 51.251598
		}
	},
	{
		"country": "BE",
		"name": "Damme",
		"_id": 2799885,
		"coord": {
			"lon": 3.28144,
			"lat": 51.251469
		}
	},
	{
		"country": "DE",
		"name": "Dammende",
		"_id": 2939161,
		"coord": {
			"lon": 9.56667,
			"lat": 54.73333
		}
	},
	{
		"country": "DE",
		"name": "Dammendorf",
		"_id": 2939159,
		"coord": {
			"lon": 14.41667,
			"lat": 52.150002
		}
	},
	{
		"country": "DE",
		"name": "Dammerstorf",
		"_id": 2939141,
		"coord": {
			"lon": 12.47549,
			"lat": 54.11758
		}
	},
	{
		"country": "DE",
		"name": "Dammfleth",
		"_id": 6552180,
		"coord": {
			"lon": 9.37299,
			"lat": 53.908798
		}
	},
	{
		"country": "DE",
		"name": "Dammfleth",
		"_id": 2939134,
		"coord": {
			"lon": 9.37312,
			"lat": 53.90881
		}
	},
	{
		"country": "DE",
		"name": "Dammstedt",
		"_id": 2939103,
		"coord": {
			"lon": 9.65,
			"lat": 54.216671
		}
	},
	{
		"country": "IN",
		"name": "Damnagar",
		"_id": 1273593,
		"coord": {
			"lon": 71.51667,
			"lat": 21.700001
		}
	},
	{
		"country": "DE",
		"name": "Damnatz",
		"_id": 6558462,
		"coord": {
			"lon": 11.1716,
			"lat": 53.143299
		}
	},
	{
		"country": "DE",
		"name": "Damnatz",
		"_id": 2939093,
		"coord": {
			"lon": 11.17687,
			"lat": 53.136471
		}
	},
	{
		"country": "PL",
		"name": "Damnica",
		"_id": 3100671,
		"coord": {
			"lon": 17.27154,
			"lat": 54.500252
		}
	},
	{
		"country": "TH",
		"name": "Damnoen Saduak",
		"_id": 1153513,
		"coord": {
			"lon": 99.954689,
			"lat": 13.51824
		}
	},
	{
		"country": "RO",
		"name": "Damoc",
		"_id": 679780,
		"coord": {
			"lon": 26.866671,
			"lat": 46.466671
		}
	},
	{
		"country": "IN",
		"name": "Damoh",
		"_id": 1273587,
		"coord": {
			"lon": 79.449997,
			"lat": 23.83333
		}
	},
	{
		"country": "PH",
		"name": "Damolog",
		"_id": 1715864,
		"coord": {
			"lon": 124,
			"lat": 10.76667
		}
	},
	{
		"country": "PH",
		"name": "Damortis",
		"_id": 1715861,
		"coord": {
			"lon": 120.405098,
			"lat": 16.2423
		}
	},
	{
		"country": "DE",
		"name": "Damp",
		"_id": 2939090,
		"coord": {
			"lon": 9.98333,
			"lat": 54.583328
		}
	},
	{
		"country": "DE",
		"name": "Damp",
		"_id": 2939088,
		"coord": {
			"lon": 9.98333,
			"lat": 54.583328
		}
	},
	{
		"country": "FR",
		"name": "Damparis",
		"_id": 3021841,
		"coord": {
			"lon": 5.41398,
			"lat": 47.075562
		}
	},
	{
		"country": "ID",
		"name": "Dampek",
		"_id": 7571945,
		"coord": {
			"lon": 120.593803,
			"lat": -8.301
		}
	},
	{
		"country": "DE",
		"name": "Dampfach",
		"_id": 2939087,
		"coord": {
			"lon": 10.43333,
			"lat": 49.98333
		}
	},
	{
		"country": "AU",
		"name": "Dampier",
		"_id": 2073200,
		"coord": {
			"lon": 116.699997,
			"lat": -20.66667
		}
	},
	{
		"country": "FR",
		"name": "Dampierre",
		"_id": 3021839,
		"coord": {
			"lon": 5.74166,
			"lat": 47.15498
		}
	},
	{
		"country": "FR",
		"name": "Dampierre-en-Burly",
		"_id": 3021829,
		"coord": {
			"lon": 2.51962,
			"lat": 47.761429
		}
	},
	{
		"country": "FR",
		"name": "Dampierre-en-Yvelines",
		"_id": 3021835,
		"coord": {
			"lon": 1.98333,
			"lat": 48.700001
		}
	},
	{
		"country": "FR",
		"name": "Dampierre-les-Bois",
		"_id": 3021822,
		"coord": {
			"lon": 6.91279,
			"lat": 47.506378
		}
	},
	{
		"country": "FR",
		"name": "Dampierre-sur-Salon",
		"_id": 3021809,
		"coord": {
			"lon": 5.6797,
			"lat": 47.55719
		}
	},
	{
		"country": "ID",
		"name": "Dampit",
		"_id": 1645749,
		"coord": {
			"lon": 112.749336,
			"lat": -8.21162
		}
	},
	{
		"country": "ID",
		"name": "Dampit Satu",
		"_id": 7852697,
		"coord": {
			"lon": 106.990097,
			"lat": -7.1581
		}
	},
	{
		"country": "FR",
		"name": "Dampmart",
		"_id": 3021806,
		"coord": {
			"lon": 2.74095,
			"lat": 48.888538
		}
	},
	{
		"country": "PH",
		"name": "Dampol",
		"_id": 1715841,
		"coord": {
			"lon": 120.811943,
			"lat": 14.88444
		}
	},
	{
		"country": "BE",
		"name": "Dampremy",
		"_id": 2799880,
		"coord": {
			"lon": 4.43092,
			"lat": 50.417049
		}
	},
	{
		"country": "FR",
		"name": "Damprichard",
		"_id": 3021803,
		"coord": {
			"lon": 6.88121,
			"lat": 47.244129
		}
	},
	{
		"country": "BE",
		"name": "Damré",
		"_id": 2799879,
		"coord": {
			"lon": 5.67784,
			"lat": 50.50555
		}
	},
	{
		"country": "DE",
		"name": "Damscheid",
		"_id": 6553885,
		"coord": {
			"lon": 7.68333,
			"lat": 50.099998
		}
	},
	{
		"country": "DE",
		"name": "Damscheid",
		"_id": 2939083,
		"coord": {
			"lon": 7.68333,
			"lat": 50.099998
		}
	},
	{
		"country": "DE",
		"name": "Damsdorf",
		"_id": 2939081,
		"coord": {
			"lon": 13.26667,
			"lat": 52.299999
		}
	},
	{
		"country": "DE",
		"name": "Damsdorf",
		"_id": 6552081,
		"coord": {
			"lon": 10.3167,
			"lat": 54.0667
		}
	},
	{
		"country": "DE",
		"name": "Damsdorf",
		"_id": 2939079,
		"coord": {
			"lon": 10.31667,
			"lat": 54.066669
		}
	},
	{
		"country": "DE",
		"name": "Damshagen",
		"_id": 6548173,
		"coord": {
			"lon": 11.15,
			"lat": 53.9333
		}
	},
	{
		"country": "DE",
		"name": "Damshagen",
		"_id": 2939074,
		"coord": {
			"lon": 11.15,
			"lat": 53.933331
		}
	},
	{
		"country": "CN",
		"name": "Damu",
		"_id": 7741549,
		"coord": {
			"lon": 114.539124,
			"lat": 29.808769
		}
	},
	{
		"country": "RO",
		"name": "Damuc",
		"_id": 679779,
		"coord": {
			"lon": 25.9,
			"lat": 46.799999
		}
	},
	{
		"country": "AT",
		"name": "Damuels",
		"_id": 6949508,
		"coord": {
			"lon": 9.89164,
			"lat": 47.280338
		}
	},
	{
		"country": "PH",
		"name": "Damulog",
		"_id": 1715834,
		"coord": {
			"lon": 124.943062,
			"lat": 7.48361
		}
	},
	{
		"country": "CH",
		"name": "Damvant",
		"_id": 2661050,
		"coord": {
			"lon": 6.89733,
			"lat": 47.372459
		}
	},
	{
		"country": "FR",
		"name": "Damville",
		"_id": 3021795,
		"coord": {
			"lon": 1.07458,
			"lat": 48.869301
		}
	},
	{
		"country": "NL",
		"name": "Damwald",
		"_id": 2757838,
		"coord": {
			"lon": 5.99785,
			"lat": 53.290459
		}
	},
	{
		"country": "AT",
		"name": "Damüls",
		"_id": 2781105,
		"coord": {
			"lon": 9.88333,
			"lat": 47.283329
		}
	},
	{
		"country": "TH",
		"name": "Dan Chang",
		"_id": 1153507,
		"coord": {
			"lon": 99.697563,
			"lat": 14.84183
		}
	},
	{
		"country": "NG",
		"name": "Dan Gora",
		"_id": 2345336,
		"coord": {
			"lon": 8.15224,
			"lat": 11.53485
		}
	},
	{
		"country": "TH",
		"name": "Dan Khun Thot",
		"_id": 1610963,
		"coord": {
			"lon": 101.771378,
			"lat": 15.2085
		}
	},
	{
		"country": "TH",
		"name": "Dan Makham Tia",
		"_id": 1157966,
		"coord": {
			"lon": 99.410423,
			"lat": 13.85339
		}
	},
	{
		"country": "NG",
		"name": "Dan Sadau",
		"_id": 2345213,
		"coord": {
			"lon": 6.4952,
			"lat": 11.29621
		}
	},
	{
		"country": "TH",
		"name": "Dan Sai",
		"_id": 1610958,
		"coord": {
			"lon": 101.146858,
			"lat": 17.280109
		}
	},
	{
		"country": "US",
		"name": "Dana",
		"_id": 4462937,
		"coord": {
			"lon": -82.375397,
			"lat": 35.329281
		}
	},
	{
		"country": "US",
		"name": "Dana Point",
		"_id": 5341483,
		"coord": {
			"lon": -117.698112,
			"lat": 33.466969
		}
	},
	{
		"country": "ZA",
		"name": "Danabaai",
		"_id": 1011951,
		"coord": {
			"lon": 22.03891,
			"lat": -34.19891
		}
	},
	{
		"country": "TR",
		"name": "Danacılı",
		"_id": 317634,
		"coord": {
			"lon": 35.683331,
			"lat": 37.25
		}
	},
	{
		"country": "CN",
		"name": "Danan",
		"_id": 7065462,
		"coord": {
			"lon": 118.244041,
			"lat": 28.548519
		}
	},
	{
		"country": "CI",
		"name": "Danane",
		"_id": 2290462,
		"coord": {
			"lon": -8.15498,
			"lat": 7.25957
		}
	},
	{
		"country": "CN",
		"name": "Dananshan",
		"_id": 1919785,
		"coord": {
			"lon": 116.168518,
			"lat": 23.26741
		}
	},
	{
		"country": "CN",
		"name": "Dananyu",
		"_id": 7372877,
		"coord": {
			"lon": 105.75843,
			"lat": 33.431122
		}
	},
	{
		"country": "PH",
		"name": "Danao",
		"_id": 1715804,
		"coord": {
			"lon": 124.027222,
			"lat": 10.52083
		}
	},
	{
		"country": "PH",
		"name": "Danao",
		"_id": 1715812,
		"coord": {
			"lon": 123.771111,
			"lat": 9.56972
		}
	},
	{
		"country": "PH",
		"name": "Danao",
		"_id": 1715807,
		"coord": {
			"lon": 124.223297,
			"lat": 9.945
		}
	},
	{
		"country": "PH",
		"name": "Danao",
		"_id": 1715811,
		"coord": {
			"lon": 124.199997,
			"lat": 9.63333
		}
	},
	{
		"country": "PH",
		"name": "Danao City",
		"_id": 1715775,
		"coord": {
			"lon": 124.033333,
			"lat": 10.53333
		}
	},
	{
		"country": "IN",
		"name": "Danapur",
		"_id": 1273581,
		"coord": {
			"lon": 85.050003,
			"lat": 25.633329
		}
	},
	{
		"country": "US",
		"name": "Danbury",
		"_id": 4832353,
		"coord": {
			"lon": -73.45401,
			"lat": 41.394821
		}
	},
	{
		"country": "GB",
		"name": "Danbury",
		"_id": 2651532,
		"coord": {
			"lon": 0.58245,
			"lat": 51.71645
		}
	},
	{
		"country": "US",
		"name": "Danbury",
		"_id": 4462940,
		"coord": {
			"lon": -80.205879,
			"lat": 36.409302
		}
	},
	{
		"country": "US",
		"name": "Danbury",
		"_id": 4685160,
		"coord": {
			"lon": -95.34494,
			"lat": 29.2283
		}
	},
	{
		"country": "US",
		"name": "Danbury",
		"_id": 5085222,
		"coord": {
			"lon": -71.861748,
			"lat": 43.525631
		}
	},
	{
		"country": "GB",
		"name": "Danby",
		"_id": 6620428,
		"coord": {
			"lon": -0.91073,
			"lat": 54.466061
		}
	},
	{
		"country": "PH",
		"name": "Dancagan",
		"_id": 1715722,
		"coord": {
			"lon": 125.004173,
			"lat": 7.60917
		}
	},
	{
		"country": "PH",
		"name": "Dancalan",
		"_id": 1715750,
		"coord": {
			"lon": 122.738602,
			"lat": 9.9821
		}
	},
	{
		"country": "CN",
		"name": "Dancheng",
		"_id": 1813892,
		"coord": {
			"lon": 115.183327,
			"lat": 33.633331
		}
	},
	{
		"country": "RO",
		"name": "Danciulesti",
		"_id": 679769,
		"coord": {
			"lon": 23.75,
			"lat": 44.73333
		}
	},
	{
		"country": "CN",
		"name": "Dancun",
		"_id": 1813889,
		"coord": {
			"lon": 109.05352,
			"lat": 34.719471
		}
	},
	{
		"country": "NP",
		"name": "Dandakhrka",
		"_id": 7968003,
		"coord": {
			"lon": 85.18428,
			"lat": 27.67441
		}
	},
	{
		"country": "AF",
		"name": "Dandar",
		"_id": 1144185,
		"coord": {
			"lon": 69.475037,
			"lat": 34.790951
		}
	},
	{
		"country": "AU",
		"name": "Dandaragan",
		"_id": 7839497,
		"coord": {
			"lon": 115.461319,
			"lat": -30.54142
		}
	},
	{
		"country": "AU",
		"name": "Dandaragan",
		"_id": 2073187,
		"coord": {
			"lon": 115.699997,
			"lat": -30.66667
		}
	},
	{
		"country": "IN",
		"name": "Dandeli",
		"_id": 1273574,
		"coord": {
			"lon": 74.616669,
			"lat": 15.26667
		}
	},
	{
		"country": "AU",
		"name": "Dandenong West",
		"_id": 2169455,
		"coord": {
			"lon": 145.199997,
			"lat": -37.98333
		}
	},
	{
		"country": "AU",
		"name": "Danderoo",
		"_id": 2169454,
		"coord": {
			"lon": 152.233337,
			"lat": -28.25
		}
	},
	{
		"country": "CN",
		"name": "Dandian",
		"_id": 1813887,
		"coord": {
			"lon": 115.177757,
			"lat": 30.76787
		}
	},
	{
		"country": "CN",
		"name": "Dandong",
		"_id": 2037886,
		"coord": {
			"lon": 124.394722,
			"lat": 40.129169
		}
	},
	{
		"country": "US",
		"name": "Dandridge",
		"_id": 4617112,
		"coord": {
			"lon": -83.414886,
			"lat": 36.015369
		}
	},
	{
		"country": "CA",
		"name": "Dane",
		"_id": 5934896,
		"coord": {
			"lon": -80.016411,
			"lat": 48.083469
		}
	},
	{
		"country": "US",
		"name": "Dane County",
		"_id": 5250074,
		"coord": {
			"lon": -89.433449,
			"lat": 43.066662
		}
	},
	{
		"country": "RO",
		"name": "Daneasa",
		"_id": 679765,
		"coord": {
			"lon": 24.566669,
			"lat": 44.150002
		}
	},
	{
		"country": "RO",
		"name": "Danes",
		"_id": 679763,
		"coord": {
			"lon": 24.700001,
			"lat": 46.216671
		}
	},
	{
		"country": "FR",
		"name": "Danestal",
		"_id": 6427186,
		"coord": {
			"lon": 0.01667,
			"lat": 49.25
		}
	},
	{
		"country": "FR",
		"name": "Danestal",
		"_id": 3021780,
		"coord": {
			"lon": 0.01667,
			"lat": 49.25
		}
	},
	{
		"country": "RO",
		"name": "Danesti",
		"_id": 679757,
		"coord": {
			"lon": 27.66667,
			"lat": 46.849998
		}
	},
	{
		"country": "RO",
		"name": "Danesti",
		"_id": 679758,
		"coord": {
			"lon": 25.75,
			"lat": 46.51667
		}
	},
	{
		"country": "RO",
		"name": "Danesti",
		"_id": 679760,
		"coord": {
			"lon": 23.33333,
			"lat": 44.966671
		}
	},
	{
		"country": "RO",
		"name": "Daneti",
		"_id": 679749,
		"coord": {
			"lon": 24.049999,
			"lat": 43.98333
		}
	},
	{
		"country": "CN",
		"name": "Danfeng",
		"_id": 1813884,
		"coord": {
			"lon": 104.008202,
			"lat": 24.83054
		}
	},
	{
		"country": "CM",
		"name": "Dang",
		"_id": 2233252,
		"coord": {
			"lon": 11.23333,
			"lat": 4.75
		}
	},
	{
		"country": "AF",
		"name": "Dangam",
		"_id": 1144166,
		"coord": {
			"lon": 71.419434,
			"lat": 34.99231
		}
	},
	{
		"country": "DE",
		"name": "Dangast",
		"_id": 2939053,
		"coord": {
			"lon": 8.11667,
			"lat": 53.450001
		}
	},
	{
		"country": "PH",
		"name": "Dangcalan",
		"_id": 1715719,
		"coord": {
			"lon": 123.583801,
			"lat": 12.9168
		}
	},
	{
		"country": "CN",
		"name": "Dangchang Chengguanzhen",
		"_id": 1813875,
		"coord": {
			"lon": 104.394638,
			"lat": 34.044621
		}
	},
	{
		"country": "CN",
		"name": "Dangcheng",
		"_id": 1813855,
		"coord": {
			"lon": 116.376572,
			"lat": 34.427872
		}
	},
	{
		"country": "ID",
		"name": "Dangdeur",
		"_id": 7912121,
		"coord": {
			"lon": 107.829399,
			"lat": -7.2525
		}
	},
	{
		"country": "NG",
		"name": "Dange",
		"_id": 2345349,
		"coord": {
			"lon": 5.34705,
			"lat": 12.85128
		}
	},
	{
		"country": "FR",
		"name": "Dange-Saint-Romain",
		"_id": 3021778,
		"coord": {
			"lon": 0.6,
			"lat": 46.933331
		}
	},
	{
		"country": "RO",
		"name": "Dangeni",
		"_id": 679351,
		"coord": {
			"lon": 26.966669,
			"lat": 47.849998
		}
	},
	{
		"country": "ID",
		"name": "Danger Utara",
		"_id": 7377246,
		"coord": {
			"lon": 116.459396,
			"lat": -8.6121
		}
	},
	{
		"country": "DE",
		"name": "Dangersen",
		"_id": 2939042,
		"coord": {
			"lon": 9.85,
			"lat": 53.366669
		}
	},
	{
		"country": "TJ",
		"name": "Danghara",
		"_id": 1221965,
		"coord": {
			"lon": 69.339981,
			"lat": 38.095779
		}
	},
	{
		"country": "ID",
		"name": "Dangiang",
		"_id": 1645718,
		"coord": {
			"lon": 107.876198,
			"lat": -7.4586
		}
	},
	{
		"country": "AU",
		"name": "Dangin",
		"_id": 2073183,
		"coord": {
			"lon": 117.316673,
			"lat": -32.049999
		}
	},
	{
		"country": "CN",
		"name": "Dangjiaxian",
		"_id": 1813864,
		"coord": {
			"lon": 105.301697,
			"lat": 35.529919
		}
	},
	{
		"country": "PH",
		"name": "Danglas",
		"_id": 1715704,
		"coord": {
			"lon": 120.655602,
			"lat": 17.700899
		}
	},
	{
		"country": "CN",
		"name": "Dangliuzhuang",
		"_id": 1813860,
		"coord": {
			"lon": 113.422203,
			"lat": 39.988972
		}
	},
	{
		"country": "CN",
		"name": "Dangmu",
		"_id": 1813859,
		"coord": {
			"lon": 109.62101,
			"lat": 34.814178
		}
	},
	{
		"country": "SN",
		"name": "Dangol",
		"_id": 2253301,
		"coord": {
			"lon": -16.26667,
			"lat": 14.66667
		}
	},
	{
		"country": "AU",
		"name": "Dangore",
		"_id": 2169438,
		"coord": {
			"lon": 151.583328,
			"lat": -26.450001
		}
	},
	{
		"country": "IN",
		"name": "Dangrawari",
		"_id": 1273541,
		"coord": {
			"lon": 70.933334,
			"lat": 20.716667
		}
	},
	{
		"country": "BZ",
		"name": "Dangriga",
		"_id": 3582228,
		"coord": {
			"lon": -88.232063,
			"lat": 16.96921
		}
	},
	{
		"country": "CN",
		"name": "Dangshan",
		"_id": 1881858,
		"coord": {
			"lon": 120.518997,
			"lat": 30.164431
		}
	},
	{
		"country": "DE",
		"name": "Dangstetten",
		"_id": 2939040,
		"coord": {
			"lon": 8.33333,
			"lat": 47.599998
		}
	},
	{
		"country": "ID",
		"name": "Dangur",
		"_id": 8018010,
		"coord": {
			"lon": 108.083603,
			"lat": -7.3598
		}
	},
	{
		"country": "CN",
		"name": "Dangwan",
		"_id": 7735271,
		"coord": {
			"lon": 120.543709,
			"lat": 30.229509
		}
	},
	{
		"country": "FR",
		"name": "Dangy",
		"_id": 6435389,
		"coord": {
			"lon": -1.21667,
			"lat": 49.049999
		}
	},
	{
		"country": "FR",
		"name": "Dangy",
		"_id": 3021770,
		"coord": {
			"lon": -1.22412,
			"lat": 49.044559
		}
	},
	{
		"country": "US",
		"name": "Dania Beach",
		"_id": 4152772,
		"coord": {
			"lon": -80.143929,
			"lat": 26.052311
		}
	},
	{
		"country": "CN",
		"name": "Danian",
		"_id": 7330776,
		"coord": {
			"lon": 104.630379,
			"lat": 33.42897
		}
	},
	{
		"country": "CR",
		"name": "Daniel Flores",
		"_id": 3623961,
		"coord": {
			"lon": -83.669403,
			"lat": 9.33554
		}
	},
	{
		"country": "CA",
		"name": "Daniel's Harbour",
		"_id": 5934957,
		"coord": {
			"lon": -57.581558,
			"lat": 50.23333
		}
	},
	{
		"country": "US",
		"name": "Daniels",
		"_id": 4803616,
		"coord": {
			"lon": -81.122879,
			"lat": 37.743172
		}
	},
	{
		"country": "ZA",
		"name": "Danielskuil",
		"_id": 1011918,
		"coord": {
			"lon": 23.539511,
			"lat": -28.18873
		}
	},
	{
		"country": "US",
		"name": "Danielson",
		"_id": 4832411,
		"coord": {
			"lon": -71.88591,
			"lat": 41.802601
		}
	},
	{
		"country": "US",
		"name": "Danielsville",
		"_id": 4190721,
		"coord": {
			"lon": -83.22126,
			"lat": 34.124279
		}
	},
	{
		"country": "BY",
		"name": "Danilavichy",
		"_id": 629183,
		"coord": {
			"lon": 25.65,
			"lat": 53.450001
		}
	},
	{
		"country": "RU",
		"name": "Danilov",
		"_id": 567183,
		"coord": {
			"lon": 40.171711,
			"lat": 58.1908
		}
	},
	{
		"country": "ME",
		"name": "Danilovgrad",
		"_id": 3202194,
		"coord": {
			"lon": 19.14608,
			"lat": 42.553841
		}
	},
	{
		"country": "RU",
		"name": "Danilovka",
		"_id": 567177,
		"coord": {
			"lon": 44.11681,
			"lat": 50.355728
		}
	},
	{
		"country": "RU",
		"name": "Danilovka",
		"_id": 567167,
		"coord": {
			"lon": 46.15889,
			"lat": 52.765556
		}
	},
	{
		"country": "UA",
		"name": "Danilovka",
		"_id": 710298,
		"coord": {
			"lon": 34.25,
			"lat": 44.516666
		}
	},
	{
		"country": "UA",
		"name": "Danilovka",
		"_id": 710297,
		"coord": {
			"lon": 34.299999,
			"lat": 45.48333
		}
	},
	{
		"country": "RU",
		"name": "Danilovo",
		"_id": 567144,
		"coord": {
			"lon": 38.765278,
			"lat": 55.671391
		}
	},
	{
		"country": "CH",
		"name": "Danis",
		"_id": 2661047,
		"coord": {
			"lon": 9.05568,
			"lat": 46.75486
		}
	},
	{
		"country": "DE",
		"name": "Danischenhagen",
		"_id": 2939032,
		"coord": {
			"lon": 10.13333,
			"lat": 54.433331
		}
	},
	{
		"country": "NG",
		"name": "Danja",
		"_id": 2345306,
		"coord": {
			"lon": 7.56249,
			"lat": 11.37643
		}
	},
	{
		"country": "CN",
		"name": "Danjiangkou",
		"_id": 1813828,
		"coord": {
			"lon": 111.508614,
			"lat": 32.542782
		}
	},
	{
		"country": "FR",
		"name": "Danjoutin",
		"_id": 3021767,
		"coord": {
			"lon": 6.86638,
			"lat": 47.615601
		}
	},
	{
		"country": "CM",
		"name": "Dankali",
		"_id": 2233238,
		"coord": {
			"lon": 14.25,
			"lat": 6.4
		}
	},
	{
		"country": "NG",
		"name": "Dankalwa",
		"_id": 2345283,
		"coord": {
			"lon": 12.1867,
			"lat": 11.7443
		}
	},
	{
		"country": "NG",
		"name": "Dankama",
		"_id": 2345282,
		"coord": {
			"lon": 7.79492,
			"lat": 13.29782
		}
	},
	{
		"country": "IN",
		"name": "Dankaur",
		"_id": 1273534,
		"coord": {
			"lon": 77.550003,
			"lat": 28.35
		}
	},
	{
		"country": "DE",
		"name": "Dankenfeld",
		"_id": 2939021,
		"coord": {
			"lon": 10.66667,
			"lat": 49.900002
		}
	},
	{
		"country": "DE",
		"name": "Dankerath",
		"_id": 6553299,
		"coord": {
			"lon": 6.81667,
			"lat": 50.333302
		}
	},
	{
		"country": "DE",
		"name": "Dankerath",
		"_id": 2939019,
		"coord": {
			"lon": 6.81667,
			"lat": 50.333328
		}
	},