[
	{
		"country": "NE",
		"name": "I-n-Alakam",
		"_id": 2443250,
		"coord": {
			"lon": 1.24301,
			"lat": 14.14841
		}
	},
	{
		"country": "DZ",
		"name": "I-n-Amenas",
		"_id": 2493330,
		"coord": {
			"lon": 9.54112,
			"lat": 28.043711
		}
	},
	{
		"country": "DZ",
		"name": "I-n-Salah",
		"_id": 2493222,
		"coord": {
			"lon": 2.46069,
			"lat": 27.19351
		}
	},
	{
		"country": "NL",
		"name": "IJlst",
		"_id": 2753379,
		"coord": {
			"lon": 5.62312,
			"lat": 53.01009
		}
	},
	{
		"country": "NL",
		"name": "IJsselmonde",
		"_id": 2753359,
		"coord": {
			"lon": 4.55,
			"lat": 51.900002
		}
	},
	{
		"country": "NL",
		"name": "IJsselstein",
		"_id": 2753355,
		"coord": {
			"lon": 5.04306,
			"lat": 52.02
		}
	},
	{
		"country": "BE",
		"name": "IJzerhand",
		"_id": 2795085,
		"coord": {
			"lon": 4.25,
			"lat": 51.216671
		}
	},
	{
		"country": "RO",
		"name": "Iablanita",
		"_id": 675872,
		"coord": {
			"lon": 22.314171,
			"lat": 44.950279
		}
	},
	{
		"country": "BR",
		"name": "Iacanga",
		"_id": 3461642,
		"coord": {
			"lon": -49.024719,
			"lat": -21.889999
		}
	},
	{
		"country": "BR",
		"name": "Iaciara",
		"_id": 3461641,
		"coord": {
			"lon": -46.631672,
			"lat": -14.09583
		}
	},
	{
		"country": "RO",
		"name": "Iacobeni",
		"_id": 675865,
		"coord": {
			"lon": 25.316669,
			"lat": 47.433331
		}
	},
	{
		"country": "RO",
		"name": "Iacobeni",
		"_id": 675868,
		"coord": {
			"lon": 24.716669,
			"lat": 46.049999
		}
	},
	{
		"country": "BR",
		"name": "Iacri",
		"_id": 3461640,
		"coord": {
			"lon": -50.689442,
			"lat": -21.85833
		}
	},
	{
		"country": "BR",
		"name": "Iacu",
		"_id": 3461638,
		"coord": {
			"lon": -40.21167,
			"lat": -12.76722
		}
	},
	{
		"country": "PG",
		"name": "Ialibu",
		"_id": 2095925,
		"coord": {
			"lon": 143.993546,
			"lat": -6.28208
		}
	},
	{
		"country": "MD",
		"name": "Ialoveni",
		"_id": 618196,
		"coord": {
			"lon": 28.777781,
			"lat": 46.943062
		}
	},
	{
		"country": "RO",
		"name": "Iana",
		"_id": 675843,
		"coord": {
			"lon": 27.549999,
			"lat": 46.383331
		}
	},
	{
		"country": "RO",
		"name": "Ianca",
		"_id": 675840,
		"coord": {
			"lon": 27.450001,
			"lat": 45.133331
		}
	},
	{
		"country": "RO",
		"name": "Ianca",
		"_id": 675841,
		"coord": {
			"lon": 24.183331,
			"lat": 43.783329
		}
	},
	{
		"country": "RO",
		"name": "Iancu Jianu",
		"_id": 675832,
		"coord": {
			"lon": 24.033331,
			"lat": 44.5
		}
	},
	{
		"country": "BR",
		"name": "Iandrinópolis",
		"_id": 3461635,
		"coord": {
			"lon": -51.083328,
			"lat": -23.683331
		}
	},
	{
		"country": "BR",
		"name": "Iapu",
		"_id": 3461633,
		"coord": {
			"lon": -42.217781,
			"lat": -19.43667
		}
	},
	{
		"country": "RO",
		"name": "Iara",
		"_id": 675817,
		"coord": {
			"lon": 23.51667,
			"lat": 46.549999
		}
	},
	{
		"country": "MD",
		"name": "Iargara",
		"_id": 617081,
		"coord": {
			"lon": 28.43667,
			"lat": 46.427502
		}
	},
	{
		"country": "RO",
		"name": "Iasi",
		"_id": 675810,
		"coord": {
			"lon": 27.6,
			"lat": 47.166672
		}
	},
	{
		"country": "GR",
		"name": "Iasmos",
		"_id": 736137,
		"coord": {
			"lon": 25.183331,
			"lat": 41.133331
		}
	},
	{
		"country": "PH",
		"name": "Iba",
		"_id": 1711447,
		"coord": {
			"lon": 120.033333,
			"lat": 15.36667
		}
	},
	{
		"country": "PH",
		"name": "Iba",
		"_id": 1711437,
		"coord": {
			"lon": 119.977997,
			"lat": 15.3276
		}
	},
	{
		"country": "PH",
		"name": "Iba",
		"_id": 1711436,
		"coord": {
			"lon": 120.413033,
			"lat": 15.45505
		}
	},
	{
		"country": "PH",
		"name": "Ibaan",
		"_id": 1711431,
		"coord": {
			"lon": 121.133003,
			"lat": 13.8176
		}
	},
	{
		"country": "PH",
		"name": "Ibabang Tayuman",
		"_id": 1711416,
		"coord": {
			"lon": 122.514999,
			"lat": 13.40639
		}
	},
	{
		"country": "CH",
		"name": "Ibach",
		"_id": 2660279,
		"coord": {
			"lon": 8.64538,
			"lat": 47.011051
		}
	},
	{
		"country": "DE",
		"name": "Ibach",
		"_id": 6555914,
		"coord": {
			"lon": 8.06667,
			"lat": 47.733299
		}
	},
	{
		"country": "DE",
		"name": "Ibach",
		"_id": 2896823,
		"coord": {
			"lon": 8.06667,
			"lat": 47.73333
		}
	},
	{
		"country": "NG",
		"name": "Ibadan",
		"_id": 2339354,
		"coord": {
			"lon": 3.89639,
			"lat": 7.38778
		}
	},
	{
		"country": "CO",
		"name": "Ibague",
		"_id": 3680656,
		"coord": {
			"lon": -75.232224,
			"lat": 4.43889
		}
	},
	{
		"country": "ES",
		"name": "Ibahernando",
		"_id": 6356798,
		"coord": {
			"lon": -5.91802,
			"lat": 39.32938
		}
	},
	{
		"country": "ES",
		"name": "Ibahernando",
		"_id": 2516483,
		"coord": {
			"lon": -5.91833,
			"lat": 39.325378
		}
	},
	{
		"country": "BR",
		"name": "Ibaiti",
		"_id": 3461628,
		"coord": {
			"lon": -50.187778,
			"lat": -23.84861
		}
	},
	{
		"country": "PH",
		"name": "Ibajay",
		"_id": 1711404,
		"coord": {
			"lon": 122.162003,
			"lat": 11.8199
		}
	},
	{
		"country": "RO",
		"name": "Ibanesti",
		"_id": 675783,
		"coord": {
			"lon": 26.366671,
			"lat": 48.066669
		}
	},
	{
		"country": "RO",
		"name": "Ibanesti",
		"_id": 675784,
		"coord": {
			"lon": 24.933331,
			"lat": 46.76667
		}
	},
	{
		"country": "JP",
		"name": "Ibara",
		"_id": 1862034,
		"coord": {
			"lon": 133.466675,
			"lat": 34.599998
		}
	},
	{
		"country": "ME",
		"name": "Ibarac",
		"_id": 790037,
		"coord": {
			"lon": 20.16194,
			"lat": 42.836109
		}
	},
	{
		"country": "JP",
		"name": "Ibaraki",
		"_id": 1862033,
		"coord": {
			"lon": 135.568283,
			"lat": 34.81641
		}
	},
	{
		"country": "JP",
		"name": "Ibaraki-ken",
		"_id": 2112669,
		"coord": {
			"lon": 140.316147,
			"lat": 36.310349
		}
	},
	{
		"country": "BR",
		"name": "Ibarama",
		"_id": 3461627,
		"coord": {
			"lon": -53.13472,
			"lat": -29.419439
		}
	},
	{
		"country": "ES",
		"name": "Ibargoiti",
		"_id": 6359672,
		"coord": {
			"lon": -1.46274,
			"lat": 42.674622
		}
	},
	{
		"country": "AR",
		"name": "Ibarlucea",
		"_id": 3853938,
		"coord": {
			"lon": -60.792721,
			"lat": -32.848202
		}
	},
	{
		"country": "ES",
		"name": "Ibarra",
		"_id": 3120485,
		"coord": {
			"lon": -2.06487,
			"lat": 43.131271
		}
	},
	{
		"country": "ES",
		"name": "Ibarra",
		"_id": 3120487,
		"coord": {
			"lon": -2.56591,
			"lat": 43.049809
		}
	},
	{
		"country": "EC",
		"name": "Ibarra",
		"_id": 3655673,
		"coord": {
			"lon": -78.116669,
			"lat": 0.35
		}
	},
	{
		"country": "PH",
		"name": "Ibarra",
		"_id": 1711393,
		"coord": {
			"lon": 124.884171,
			"lat": 10.12472
		}
	},
	{
		"country": "ES",
		"name": "Ibarrangelu",
		"_id": 6362392,
		"coord": {
			"lon": -2.65736,
			"lat": 43.400681
		}
	},
	{
		"country": "ES",
		"name": "Ibarrangelu",
		"_id": 3120482,
		"coord": {
			"lon": -2.63423,
			"lat": 43.39027
		}
	},
	{
		"country": "AR",
		"name": "Ibarreta",
		"_id": 3433513,
		"coord": {
			"lon": -59.858509,
			"lat": -25.21438
		}
	},
	{
		"country": "ES",
		"name": "Ibarruri",
		"_id": 3120480,
		"coord": {
			"lon": -2.66667,
			"lat": 43.25
		}
	},
	{
		"country": "BR",
		"name": "Ibate",
		"_id": 3461625,
		"coord": {
			"lon": -47.99667,
			"lat": -21.95472
		}
	},
	{
		"country": "BR",
		"name": "Ibateguara",
		"_id": 3398412,
		"coord": {
			"lon": -35.939442,
			"lat": -8.9725
		}
	},
	{
		"country": "BR",
		"name": "Ibatiba",
		"_id": 3461624,
		"coord": {
			"lon": -41.510559,
			"lat": -20.233891
		}
	},
	{
		"country": "YE",
		"name": "Ibb",
		"_id": 74475,
		"coord": {
			"lon": 44.155079,
			"lat": 14.03356
		}
	},
	{
		"country": "YE",
		"name": "Ibb",
		"_id": 74477,
		"coord": {
			"lon": 44.183331,
			"lat": 13.96667
		}
	},
	{
		"country": "DE",
		"name": "Ibbenburen",
		"_id": 2896817,
		"coord": {
			"lon": 7.73333,
			"lat": 52.26667
		}
	},
	{
		"country": "ES",
		"name": "Ibdes",
		"_id": 6362815,
		"coord": {
			"lon": -1.85912,
			"lat": 41.22266
		}
	},
	{
		"country": "ES",
		"name": "Ibdes",
		"_id": 3120477,
		"coord": {
			"lon": -1.83333,
			"lat": 41.216671
		}
	},
	{
		"country": "ES",
		"name": "Ibeas de Juarros",
		"_id": 6356466,
		"coord": {
			"lon": -3.47504,
			"lat": 42.263031
		}
	},
	{
		"country": "ES",
		"name": "Ibeas de Juarros",
		"_id": 3120476,
		"coord": {
			"lon": -3.53519,
			"lat": 42.330879
		}
	},
	{
		"country": "DE",
		"name": "Iber",
		"_id": 2896805,
		"coord": {
			"lon": 9.88333,
			"lat": 51.73333
		}
	},
	{
		"country": "PE",
		"name": "Iberia",
		"_id": 3938531,
		"coord": {
			"lon": -69.583328,
			"lat": -11.35
		}
	},
	{
		"country": "US",
		"name": "Iberia Parish",
		"_id": 4328254,
		"coord": {
			"lon": -91.750671,
			"lat": 29.950199
		}
	},
	{
		"country": "DE",
		"name": "Ibersheim",
		"_id": 2896789,
		"coord": {
			"lon": 8.39972,
			"lat": 49.721668
		}
	},
	{
		"country": "NG",
		"name": "Ibeto",
		"_id": 2339293,
		"coord": {
			"lon": 5.14502,
			"lat": 10.48536
		}
	},
	{
		"country": "ES",
		"name": "Ibi",
		"_id": 6355455,
		"coord": {
			"lon": -0.55926,
			"lat": 38.625561
		}
	},
	{
		"country": "ES",
		"name": "Ibi",
		"_id": 2516480,
		"coord": {
			"lon": -0.57225,
			"lat": 38.625332
		}
	},
	{
		"country": "NG",
		"name": "Ibi",
		"_id": 2339287,
		"coord": {
			"lon": 9.75,
			"lat": 8.18333
		}
	},
	{
		"country": "BR",
		"name": "Ibia",
		"_id": 3461620,
		"coord": {
			"lon": -46.538891,
			"lat": -19.478331
		}
	},
	{
		"country": "BR",
		"name": "Ibiam",
		"_id": 3461612,
		"coord": {
			"lon": -51.236938,
			"lat": -27.181391
		}
	},
	{
		"country": "BR",
		"name": "Ibiapina",
		"_id": 3398408,
		"coord": {
			"lon": -40.889439,
			"lat": -3.92333
		}
	},
	{
		"country": "ES",
		"name": "Ibias",
		"_id": 6359933,
		"coord": {
			"lon": -6.85419,
			"lat": 43.013111
		}
	},
	{
		"country": "BR",
		"name": "Ibiaçá",
		"_id": 3461619,
		"coord": {
			"lon": -51.854721,
			"lat": -28.05694
		}
	},
	{
		"country": "BR",
		"name": "Ibiaí",
		"_id": 3461615,
		"coord": {
			"lon": -44.91444,
			"lat": -16.861111
		}
	},
	{
		"country": "BR",
		"name": "Ibicarai",
		"_id": 3461606,
		"coord": {
			"lon": -39.587502,
			"lat": -14.865
		}
	},
	{
		"country": "BR",
		"name": "Ibicaré",
		"_id": 3461605,
		"coord": {
			"lon": -51.365002,
			"lat": -27.09194
		}
	},
	{
		"country": "BR",
		"name": "Ibicoara",
		"_id": 3461604,
		"coord": {
			"lon": -41.284721,
			"lat": -13.41056
		}
	},
	{
		"country": "BR",
		"name": "Ibicui",
		"_id": 3461602,
		"coord": {
			"lon": -39.986671,
			"lat": -14.84167
		}
	},
	{
		"country": "BR",
		"name": "Ibicuitinga",
		"_id": 3398402,
		"coord": {
			"lon": -38.638889,
			"lat": -4.97389
		}
	},
	{
		"country": "ES",
		"name": "Ibieca",
		"_id": 6358353,
		"coord": {
			"lon": -0.19634,
			"lat": 42.160389
		}
	},
	{
		"country": "ES",
		"name": "Ibieca",
		"_id": 3120472,
		"coord": {
			"lon": -0.20856,
			"lat": 42.160789
		}
	},
	{
		"country": "BR",
		"name": "Ibimirim",
		"_id": 3398401,
		"coord": {
			"lon": -37.690281,
			"lat": -8.54056
		}
	},
	{
		"country": "ES",
		"name": "Ibio",
		"_id": 3120470,
		"coord": {
			"lon": -4.17698,
			"lat": 43.312778
		}
	},
	{
		"country": "BR",
		"name": "Ibipeba",
		"_id": 3461592,
		"coord": {
			"lon": -42.011108,
			"lat": -11.64083
		}
	},
	{
		"country": "BR",
		"name": "Ibipora",
		"_id": 3461588,
		"coord": {
			"lon": -51.048061,
			"lat": -23.269171
		}
	},
	{
		"country": "BR",
		"name": "Ibiracatu",
		"_id": 3461581,
		"coord": {
			"lon": -44.163891,
			"lat": -15.66361
		}
	},
	{
		"country": "BR",
		"name": "Ibiraci",
		"_id": 3461580,
		"coord": {
			"lon": -47.122219,
			"lat": -20.462219
		}
	},
	{
		"country": "BR",
		"name": "Ibiracu",
		"_id": 3461579,
		"coord": {
			"lon": -40.36972,
			"lat": -19.83194
		}
	},
	{
		"country": "BR",
		"name": "Ibiraiaras",
		"_id": 3461578,
		"coord": {
			"lon": -51.636391,
			"lat": -28.370001
		}
	},
	{
		"country": "BR",
		"name": "Ibirajuba",
		"_id": 3398399,
		"coord": {
			"lon": -36.17944,
			"lat": -8.58056
		}
	},
	{
		"country": "BR",
		"name": "Ibirama",
		"_id": 3461576,
		"coord": {
			"lon": -49.51778,
			"lat": -27.05694
		}
	},
	{
		"country": "BR",
		"name": "Ibirapitanga",
		"_id": 3461572,
		"coord": {
			"lon": -39.373611,
			"lat": -14.16417
		}
	},
	{
		"country": "BR",
		"name": "Ibirapuera",
		"_id": 3461570,
		"coord": {
			"lon": -46.633331,
			"lat": -23.6
		}
	},
	{
		"country": "BR",
		"name": "Ibirapuitã",
		"_id": 3461569,
		"coord": {
			"lon": -52.511391,
			"lat": -28.62472
		}
	},
	{
		"country": "BR",
		"name": "Ibirapuã",
		"_id": 3461571,
		"coord": {
			"lon": -40.109169,
			"lat": -17.68778
		}
	},
	{
		"country": "BR",
		"name": "Ibirarema",
		"_id": 3461566,
		"coord": {
			"lon": -50.072498,
			"lat": -22.817499
		}
	},
	{
		"country": "BR",
		"name": "Ibirataia",
		"_id": 3461565,
		"coord": {
			"lon": -39.64056,
			"lat": -14.06694
		}
	},
	{
		"country": "ES",
		"name": "Ibiricu",
		"_id": 3120469,
		"coord": {
			"lon": -2.02303,
			"lat": 42.74651
		}
	},
	{
		"country": "BR",
		"name": "Ibirite",
		"_id": 3461563,
		"coord": {
			"lon": -44.058891,
			"lat": -20.02194
		}
	},
	{
		"country": "BR",
		"name": "Ibiruba",
		"_id": 3461559,
		"coord": {
			"lon": -53.089722,
			"lat": -28.627501
		}
	},
	{
		"country": "BR",
		"name": "Ibirá",
		"_id": 3461584,
		"coord": {
			"lon": -49.240829,
			"lat": -21.08028
		}
	},
	{
		"country": "BR",
		"name": "Ibitiara",
		"_id": 3461556,
		"coord": {
			"lon": -42.217781,
			"lat": -12.65222
		}
	},
	{
		"country": "BR",
		"name": "Ibitinga",
		"_id": 3461550,
		"coord": {
			"lon": -48.828892,
			"lat": -21.75778
		}
	},
	{
		"country": "BR",
		"name": "Ibitirama",
		"_id": 3461543,
		"coord": {
			"lon": -41.667221,
			"lat": -20.541389
		}
	},
	{
		"country": "BR",
		"name": "Ibititá",
		"_id": 3461539,
		"coord": {
			"lon": -41.977501,
			"lat": -11.54722
		}
	},
	{
		"country": "BR",
		"name": "Ibituruna",
		"_id": 3461530,
		"coord": {
			"lon": -44.74778,
			"lat": -21.1525
		}
	},
	{
		"country": "BR",
		"name": "Ibiuna",
		"_id": 3461528,
		"coord": {
			"lon": -47.2225,
			"lat": -23.656389
		}
	},
	{
		"country": "ES",
		"name": "Ibiza",
		"_id": 6356034,
		"coord": {
			"lon": 1.43577,
			"lat": 38.908939
		}
	},
	{
		"country": "ES",
		"name": "Ibiza",
		"_id": 2516479,
		"coord": {
			"lon": 1.43296,
			"lat": 38.908829
		}
	},
	{
		"country": "BR",
		"name": "Ibiúna",
		"_id": 6322280,
		"coord": {
			"lon": -47.210758,
			"lat": -23.83577
		}
	},
	{
		"country": "FR",
		"name": "Ibos",
		"_id": 3012921,
		"coord": {
			"lon": 0,
			"lat": 43.23333
		}
	},
	{
		"country": "BR",
		"name": "Ibotirama",
		"_id": 3461525,
		"coord": {
			"lon": -43.220558,
			"lat": -12.18528
		}
	},
	{
		"country": "DE",
		"name": "Ibra",
		"_id": 2896782,
		"coord": {
			"lon": 9.48333,
			"lat": 50.816669
		}
	},
	{
		"country": "OM",
		"name": "Ibra",
		"_id": 287832,
		"coord": {
			"lon": 58.533371,
			"lat": 22.690571
		}
	},
	{
		"country": "TR",
		"name": "Ibradi",
		"_id": 322817,
		"coord": {
			"lon": 31.599171,
			"lat": 37.096939
		}
	},
	{
		"country": "AF",
		"name": "Ibrahim Khan",
		"_id": 1423451,
		"coord": {
			"lon": 69.256538,
			"lat": 35.05352
		}
	},
	{
		"country": "HU",
		"name": "Ibrany",
		"_id": 719806,
		"coord": {
			"lon": 21.716669,
			"lat": 48.133331
		}
	},
	{
		"country": "RU",
		"name": "Ibresi",
		"_id": 557628,
		"coord": {
			"lon": 47.03944,
			"lat": 55.296108
		}
	},
	{
		"country": "OM",
		"name": "Ibri",
		"_id": 287830,
		"coord": {
			"lon": 56.51572,
			"lat": 23.225731
		}
	},
	{
		"country": "ES",
		"name": "Ibrillos",
		"_id": 6356467,
		"coord": {
			"lon": -3.07802,
			"lat": 42.45771
		}
	},
	{
		"country": "ES",
		"name": "Ibrillos",
		"_id": 3120462,
		"coord": {
			"lon": -3.08238,
			"lat": 42.454311
		}
	},
	{
		"country": "ES",
		"name": "Ibros",
		"_id": 2516475,
		"coord": {
			"lon": -3.50313,
			"lat": 38.021061
		}
	},
	{
		"country": "EG",
		"name": "Ibshaway",
		"_id": 355648,
		"coord": {
			"lon": 30.681419,
			"lat": 29.35804
		}
	},
	{
		"country": "GB",
		"name": "Ibstock",
		"_id": 2646311,
		"coord": {
			"lon": -1.39965,
			"lat": 52.685539
		}
	},
	{
		"country": "IL",
		"name": "Ibtin",
		"_id": 294661,
		"coord": {
			"lon": 35.10083,
			"lat": 32.761669
		}
	},
	{
		"country": "PH",
		"name": "Ibung",
		"_id": 1966433,
		"coord": {
			"lon": 121.186142,
			"lat": 16.609381
		}
	},
	{
		"country": "JP",
		"name": "Ibusuki",
		"_id": 1862010,
		"coord": {
			"lon": 130.649994,
			"lat": 31.23333
		}
	},
	{
		"country": "PS",
		"name": "Ibwayn",
		"_id": 285161,
		"coord": {
			"lon": 35.199921,
			"lat": 32.031441
		}
	},
	{
		"country": "PE",
		"name": "Ica",
		"_id": 3938527,
		"coord": {
			"lon": -75.730827,
			"lat": -14.06528
		}
	},
	{
		"country": "AR",
		"name": "Icano",
		"_id": 3853935,
		"coord": {
			"lon": -65.328171,
			"lat": -28.91934
		}
	},
	{
		"country": "BR",
		"name": "Icapuí",
		"_id": 3398384,
		"coord": {
			"lon": -37.355282,
			"lat": -4.71306
		}
	},
	{
		"country": "BR",
		"name": "Icara",
		"_id": 3461519,
		"coord": {
			"lon": -49.299999,
			"lat": -28.713329
		}
	},
	{
		"country": "BR",
		"name": "Icaraí",
		"_id": 3473648,
		"coord": {
			"lon": -43.09972,
			"lat": -22.9
		}
	},
	{
		"country": "US",
		"name": "Icard",
		"_id": 4472557,
		"coord": {
			"lon": -81.47065,
			"lat": 35.727348
		}
	},
	{
		"country": "BR",
		"name": "Icatu",
		"_id": 3398381,
		"coord": {
			"lon": -44.06583,
			"lat": -2.77583
		}
	},
	{
		"country": "ES",
		"name": "Icazteguieta",
		"_id": 3120461,
		"coord": {
			"lon": -2.12373,
			"lat": 43.09444
		}
	},
	{
		"country": "IN",
		"name": "Ichalkaranji",
		"_id": 1269834,
		"coord": {
			"lon": 74.466667,
			"lat": 16.700001
		}
	},
	{
		"country": "IN",
		"name": "Ichchapuram",
		"_id": 1269827,
		"coord": {
			"lon": 84.699997,
			"lat": 19.116671
		}
	},
	{
		"country": "DE",
		"name": "Ichenhausen",
		"_id": 2896776,
		"coord": {
			"lon": 10.30706,
			"lat": 48.371189
		}
	},
	{
		"country": "NG",
		"name": "Icheu",
		"_id": 2339170,
		"coord": {
			"lon": 6.7718,
			"lat": 7.7067
		}
	},
	{
		"country": "IN",
		"name": "Ichhawar",
		"_id": 1269824,
		"coord": {
			"lon": 77.01667,
			"lat": 23.01667
		}
	},
	{
		"country": "JP",
		"name": "Ichihara",
		"_id": 2112664,
		"coord": {
			"lon": 140.083328,
			"lat": 35.51667
		}
	},
	{
		"country": "JP",
		"name": "Ichikawa",
		"_id": 1861968,
		"coord": {
			"lon": 139.924713,
			"lat": 35.719719
		}
	},
	{
		"country": "JP",
		"name": "Ichinohe",
		"_id": 2129961,
		"coord": {
			"lon": 141.301666,
			"lat": 40.20694
		}
	},
	{
		"country": "JP",
		"name": "Ichinomiya",
		"_id": 1861950,
		"coord": {
			"lon": 134.466675,
			"lat": 34.033329
		}
	},
	{
		"country": "JP",
		"name": "Ichinomiya",
		"_id": 1861949,
		"coord": {
			"lon": 136.800003,
			"lat": 35.299999
		}
	},
	{
		"country": "JP",
		"name": "Ichinoseki",
		"_id": 2112656,
		"coord": {
			"lon": 141.133331,
			"lat": 38.916672
		}
	},
	{
		"country": "UA",
		"name": "Ichnya",
		"_id": 707744,
		"coord": {
			"lon": 32.394249,
			"lat": 50.862579
		}
	},
	{
		"country": "KR",
		"name": "Ichon",
		"_id": 1843702,
		"coord": {
			"lon": 127.442497,
			"lat": 37.279171
		}
	},
	{
		"country": "PH",
		"name": "Ichon",
		"_id": 1711348,
		"coord": {
			"lon": 124.901672,
			"lat": 10.10972
		}
	},
	{
		"country": "DE",
		"name": "Ichstedt",
		"_id": 6549972,
		"coord": {
			"lon": 11.2,
			"lat": 51.383301
		}
	},
	{
		"country": "DE",
		"name": "Ichstedt",
		"_id": 2896772,
		"coord": {
			"lon": 11.2,
			"lat": 51.383331
		}
	},
	{
		"country": "BE",
		"name": "Ichtegem",
		"_id": 2795107,
		"coord": {
			"lon": 3.03087,
			"lat": 51.114979
		}
	},
	{
		"country": "BE",
		"name": "Ichtegem",
		"_id": 2795106,
		"coord": {
			"lon": 3.01549,
			"lat": 51.095718
		}
	},
	{
		"country": "DE",
		"name": "Ichtershausen",
		"_id": 6550210,
		"coord": {
			"lon": 11.0367,
			"lat": 50.878399
		}
	},
	{
		"country": "DE",
		"name": "Ichtershausen",
		"_id": 2896768,
		"coord": {
			"lon": 10.96667,
			"lat": 50.883331
		}
	},
	{
		"country": "BR",
		"name": "Ichu",
		"_id": 3461512,
		"coord": {
			"lon": -39.192219,
			"lat": -11.74861
		}
	},
	{
		"country": "GB",
		"name": "Ickenham",
		"_id": 2646306,
		"coord": {
			"lon": -0.44373,
			"lat": 51.564331
		}
	},
	{
		"country": "DE",
		"name": "Icker",
		"_id": 2896765,
		"coord": {
			"lon": 8.11667,
			"lat": 52.349998
		}
	},
	{
		"country": "DE",
		"name": "Icking",
		"_id": 6556124,
		"coord": {
			"lon": 11.4333,
			"lat": 47.950001
		}
	},
	{
		"country": "DE",
		"name": "Icking",
		"_id": 2896761,
		"coord": {
			"lon": 11.43333,
			"lat": 47.950001
		}
	},
	{
		"country": "SE",
		"name": "Ickornetorp",
		"_id": 2703935,
		"coord": {
			"lon": 15.83333,
			"lat": 57.533329
		}
	},
	{
		"country": "RO",
		"name": "Iclanzel",
		"_id": 675766,
		"coord": {
			"lon": 24.283331,
			"lat": 46.533329
		}
	},
	{
		"country": "RO",
		"name": "Iclod",
		"_id": 675763,
		"coord": {
			"lon": 23.799999,
			"lat": 46.98333
		}
	},
	{
		"country": "TR",
		"name": "Icmeler",
		"_id": 862944,
		"coord": {
			"lon": 29.308889,
			"lat": 40.84639
		}
	},
	{
		"country": "BR",
		"name": "Ico",
		"_id": 3398379,
		"coord": {
			"lon": -38.862221,
			"lat": -6.40111
		}
	},
	{
		"country": "RO",
		"name": "Icoana",
		"_id": 675759,
		"coord": {
			"lon": 24.716669,
			"lat": 44.416672
		}
	},
	{
		"country": "ES",
		"name": "Icod de los Vinos",
		"_id": 6360631,
		"coord": {
			"lon": -16.699921,
			"lat": 28.367041
		}
	},
	{
		"country": "ES",
		"name": "Icod de los Vinos",
		"_id": 2516474,
		"coord": {
			"lon": -16.71188,
			"lat": 28.37241
		}
	},
	{
		"country": "ES",
		"name": "Icod el Alto",
		"_id": 2516473,
		"coord": {
			"lon": -16.6,
			"lat": 28.366671
		}
	},
	{
		"country": "BR",
		"name": "Iconha",
		"_id": 3461510,
		"coord": {
			"lon": -40.811111,
			"lat": -20.79306
		}
	},
	{
		"country": "CO",
		"name": "Icononzo",
		"_id": 3680641,
		"coord": {
			"lon": -74.532539,
			"lat": 4.17698
		}
	},
	{
		"country": "RO",
		"name": "Icusesti",
		"_id": 675752,
		"coord": {
			"lon": 26.933331,
			"lat": 46.799999
		}
	},
	{
		"country": "US",
		"name": "Ida Grove",
		"_id": 4861464,
		"coord": {
			"lon": -95.471672,
			"lat": 42.34499
		}
	},
	{
		"country": "EE",
		"name": "Ida-Virumaa",
		"_id": 592075,
		"coord": {
			"lon": 27.25,
			"lat": 59.400002
		}
	},
	{
		"country": "US",
		"name": "Idabel",
		"_id": 4539224,
		"coord": {
			"lon": -94.826332,
			"lat": 33.89566
		}
	},
	{
		"country": "NG",
		"name": "Idah",
		"_id": 2339156,
		"coord": {
			"lon": 6.73415,
			"lat": 7.10651
		}
	},
	{
		"country": "US",
		"name": "Idaho",
		"_id": 5596512,
		"coord": {
			"lon": -114.251183,
			"lat": 44.500198
		}
	},
	{
		"country": "US",
		"name": "Idaho City",
		"_id": 5596462,
		"coord": {
			"lon": -115.834549,
			"lat": 43.828499
		}
	},
	{
		"country": "US",
		"name": "Idaho County",
		"_id": 5596467,
		"coord": {
			"lon": -114.626213,
			"lat": 45.958248
		}
	},
	{
		"country": "US",
		"name": "Idaho Falls",
		"_id": 5596475,
		"coord": {
			"lon": -112.034142,
			"lat": 43.466579
		}
	},
	{
		"country": "US",
		"name": "Idaho Springs",
		"_id": 5425911,
		"coord": {
			"lon": -105.513611,
			"lat": 39.742489
		}
	},
	{
		"country": "US",
		"name": "Idalou",
		"_id": 5523659,
		"coord": {
			"lon": -101.682938,
			"lat": 33.66647
		}
	},
	{
		"country": "PT",
		"name": "Idanha",
		"_id": 2267428,
		"coord": {
			"lon": -9.27442,
			"lat": 38.77496
		}
	},
	{
		"country": "PT",
		"name": "Idanha-A-Nova",
		"_id": 8010475,
		"coord": {
			"lon": -7.2369,
			"lat": 39.929569
		}
	},
	{
		"country": "NG",
		"name": "Idanre",
		"_id": 2339150,
		"coord": {
			"lon": 5.1159,
			"lat": 7.1127
		}
	},
	{
		"country": "IN",
		"name": "Idappadi",
		"_id": 1269819,
		"coord": {
			"lon": 77.849998,
			"lat": 11.58333
		}
	},
	{
		"country": "DE",
		"name": "Idar",
		"_id": 2896757,
		"coord": {
			"lon": 7.3,
			"lat": 49.716671
		}
	},
	{
		"country": "DE",
		"name": "Idar-Oberstein",
		"_id": 2896753,
		"coord": {
			"lon": 7.3,
			"lat": 49.700001
		}
	},
	{
		"country": "FR",
		"name": "Idaux-Mendy",
		"_id": 6440417,
		"coord": {
			"lon": -0.91667,
			"lat": 43.183331
		}
	},
	{
		"country": "FR",
		"name": "Idaux-Mendy",
		"_id": 3012914,
		"coord": {
			"lon": -0.91581,
			"lat": 43.180969
		}
	},
	{
		"country": "CA",
		"name": "Iddesleigh",
		"_id": 5979300,
		"coord": {
			"lon": -111.30172,
			"lat": 50.73341
		}
	},
	{
		"country": "RU",
		"name": "Ideal",
		"_id": 2023745,
		"coord": {
			"lon": 102.695396,
			"lat": 53.158901
		}
	},
	{
		"country": "RO",
		"name": "Ideciu de Jos",
		"_id": 675750,
		"coord": {
			"lon": 24.75,
			"lat": 46.799999
		}
	},
	{
		"country": "DE",
		"name": "Idelberg",
		"_id": 6553406,
		"coord": {
			"lon": 7.71667,
			"lat": 50.716702
		}
	},
	{
		"country": "DE",
		"name": "Idelberg",
		"_id": 2896748,
		"coord": {
			"lon": 7.71667,
			"lat": 50.716671
		}
	},
	{
		"country": "RU",
		"name": "Idel’",
		"_id": 557608,
		"coord": {
			"lon": 34.23333,
			"lat": 64.133331
		}
	},
	{
		"country": "DE",
		"name": "Iden",
		"_id": 6549501,
		"coord": {
			"lon": 11.9167,
			"lat": 52.783298
		}
	},
	{
		"country": "DE",
		"name": "Iden",
		"_id": 2896747,
		"coord": {
			"lon": 11.91296,
			"lat": 52.779819
		}
	},
	{
		"country": "CM",
		"name": "Idenao",
		"_id": 2594800,
		"coord": {
			"lon": 9.00472,
			"lat": 4.2475
		}
	},
	{
		"country": "DE",
		"name": "Idenheim",
		"_id": 6554446,
		"coord": {
			"lon": 6.56667,
			"lat": 49.900002
		}
	},
	{
		"country": "DE",
		"name": "Idenheim",
		"_id": 2896745,
		"coord": {
			"lon": 6.56667,
			"lat": 49.900002
		}
	},
	{
		"country": "MN",
		"name": "Ider",
		"_id": 1515621,
		"coord": {
			"lon": 99.873894,
			"lat": 48.772781
		}
	},
	{
		"country": "DE",
		"name": "Idesheim",
		"_id": 6554447,
		"coord": {
			"lon": 6.56667,
			"lat": 49.883301
		}
	},
	{
		"country": "DE",
		"name": "Idesheim",
		"_id": 2896742,
		"coord": {
			"lon": 6.56667,
			"lat": 49.883331
		}
	},
	{
		"country": "EG",
		"name": "Idfu",
		"_id": 411165,
		"coord": {
			"lon": 32.874722,
			"lat": 24.98028
		}
	},
	{
		"country": "PK",
		"name": "Idgah",
		"_id": 7423730,
		"coord": {
			"lon": 74.856102,
			"lat": 35.3447
		}
	},
	{
		"country": "PS",
		"name": "Idhna",
		"_id": 283621,
		"coord": {
			"lon": 34.974361,
			"lat": 31.558741
		}
	},
	{
		"country": "NG",
		"name": "Idi Iroko",
		"_id": 2339065,
		"coord": {
			"lon": 2.73333,
			"lat": 6.63333
		}
	},
	{
		"country": "AR",
		"name": "Idiazabal",
		"_id": 3853923,
		"coord": {
			"lon": -63.03252,
			"lat": -32.81411
		}
	},
	{
		"country": "ES",
		"name": "Idiazabal",
		"_id": 6358132,
		"coord": {
			"lon": -2.22846,
			"lat": 42.995811
		}
	},
	{
		"country": "ES",
		"name": "Idiazabal",
		"_id": 3120453,
		"coord": {
			"lon": -2.23356,
			"lat": 43.01189
		}
	},
	{
		"country": "TR",
		"name": "Idil",
		"_id": 311704,
		"coord": {
			"lon": 41.8895,
			"lat": 37.341141
		}
	},
	{
		"country": "PH",
		"name": "Idio",
		"_id": 1711337,
		"coord": {
			"lon": 122.0979,
			"lat": 11.6238
		}
	},
	{
		"country": "EG",
		"name": "Idku",
		"_id": 355628,
		"coord": {
			"lon": 30.299009,
			"lat": 31.307819
		}
	},
	{
		"country": "SY",
		"name": "Idlib",
		"_id": 169389,
		"coord": {
			"lon": 36.63393,
			"lat": 35.930618
		}
	},
	{
		"country": "ES",
		"name": "Idocin",
		"_id": 3120451,
		"coord": {
			"lon": -1.47008,
			"lat": 42.68898
		}
	},
	{
		"country": "LY",
		"name": "Idri",
		"_id": 2220309,
		"coord": {
			"lon": 13.26667,
			"lat": 27.5
		}
	},
	{
		"country": "GB",
		"name": "Idridgehay",
		"_id": 2646290,
		"coord": {
			"lon": -1.57089,
			"lat": 53.034409
		}
	},
	{
		"country": "SI",
		"name": "Idrija",
		"_id": 3199171,
		"coord": {
			"lon": 14.03056,
			"lat": 46.002781
		}
	},
	{
		"country": "RU",
		"name": "Idrinskoye",
		"_id": 1505998,
		"coord": {
			"lon": 92.135834,
			"lat": 54.370831
		}
	},
	{
		"country": "RU",
		"name": "Idritsa",
		"_id": 557588,
		"coord": {
			"lon": 28.89884,
			"lat": 56.33157
		}
	},
	{
		"country": "MK",
		"name": "Idrizovo",
		"_id": 790034,
		"coord": {
			"lon": 21.57556,
			"lat": 41.960831
		}
	},
	{
		"country": "IT",
		"name": "Idro",
		"_id": 6534531,
		"coord": {
			"lon": 10.47337,
			"lat": 45.736092
		}
	},
	{
		"country": "FR",
		"name": "Idron",
		"_id": 6440418,
		"coord": {
			"lon": -0.31667,
			"lat": 43.283329
		}
	},
	{
		"country": "FR",
		"name": "Idron",
		"_id": 3012912,
		"coord": {
			"lon": -0.31667,
			"lat": 43.283329
		}
	},
	{
		"country": "DE",
		"name": "Idstedt",
		"_id": 6551967,
		"coord": {
			"lon": 9.51667,
			"lat": 54.583302
		}
	},
	{
		"country": "DE",
		"name": "Idstedt",
		"_id": 2896739,
		"coord": {
			"lon": 9.51667,
			"lat": 54.583328
		}
	},
	{
		"country": "DE",
		"name": "Idstein",
		"_id": 2896736,
		"coord": {
			"lon": 8.26667,
			"lat": 50.23333
		}
	},
	{
		"country": "PH",
		"name": "Idtig",
		"_id": 1711332,
		"coord": {
			"lon": 124.772781,
			"lat": 6.79889
		}
	},
	{
		"country": "IN",
		"name": "Idukki",
		"_id": 1269811,
		"coord": {
			"lon": 76.966667,
			"lat": 9.85
		}
	},
	{
		"country": "RS",
		"name": "Idvor",
		"_id": 790033,
		"coord": {
			"lon": 20.51417,
			"lat": 45.188889
		}
	},
	{
		"country": "US",
		"name": "Idyllwild",
		"_id": 5358901,
		"coord": {
			"lon": -116.71891,
			"lat": 33.740021
		}
	},
	{
		"country": "US",
		"name": "Idyllwild-Pine Cove",
		"_id": 7261464,
		"coord": {
			"lon": -116.725868,
			"lat": 33.744289
		}
	},
	{
		"country": "US",
		"name": "Idylwood",
		"_id": 4765553,
		"coord": {
			"lon": -77.211647,
			"lat": 38.895111
		}
	},
	{
		"country": "MX",
		"name": "Idzincab",
		"_id": 3526816,
		"coord": {
			"lon": -89.699997,
			"lat": 20.91667
		}
	},
	{
		"country": "PT",
		"name": "Idães",
		"_id": 8012685,
		"coord": {
			"lon": -8.25893,
			"lat": 41.32687
		}
	},
	{
		"country": "PT",
		"name": "Idães",
		"_id": 2738721,
		"coord": {
			"lon": -8.25136,
			"lat": 41.339199
		}
	},
	{
		"country": "LV",
		"name": "Iecava",
		"_id": 459624,
		"coord": {
			"lon": 24.202221,
			"lat": 56.59861
		}
	},
	{
		"country": "LV",
		"name": "Iecavas Novads",
		"_id": 7628321,
		"coord": {
			"lon": 24.206671,
			"lat": 56.60944
		}
	},
	{
		"country": "RO",
		"name": "Iedera de Jos",
		"_id": 678594,
		"coord": {
			"lon": 25.633329,
			"lat": 45.033329
		}
	},
	{
		"country": "IT",
		"name": "Ielsi",
		"_id": 3175636,
		"coord": {
			"lon": 14.79873,
			"lat": 41.517929
		}
	},
	{
		"country": "BE",
		"name": "Ieper",
		"_id": 2795101,
		"coord": {
			"lon": 2.86733,
			"lat": 50.85704
		}
	},
	{
		"country": "BE",
		"name": "Ieper",
		"_id": 2795100,
		"coord": {
			"lon": 2.88569,
			"lat": 50.851139
		}
	},
	{
		"country": "RO",
		"name": "Iepuresti",
		"_id": 678555,
		"coord": {
			"lon": 25.882219,
			"lat": 44.25806
		}
	},
	{
		"country": "BR",
		"name": "Iepê",
		"_id": 3461506,
		"coord": {
			"lon": -51.076111,
			"lat": -22.660561
		}
	},
	{
		"country": "GR",
		"name": "Ierapetra",
		"_id": 261814,
		"coord": {
			"lon": 25.735279,
			"lat": 35.009998
		}
	},
	{
		"country": "RO",
		"name": "Ierbuş",
		"_id": 675732,
		"coord": {
			"lon": 24.700001,
			"lat": 46.76667
		}
	},
	{
		"country": "GR",
		"name": "Ierissos",
		"_id": 736130,
		"coord": {
			"lon": 23.883329,
			"lat": 40.400002
		}
	},
	{
		"country": "LV",
		"name": "Ieriķi",
		"_id": 459616,
		"coord": {
			"lon": 25.17363,
			"lat": 57.20385
		}
	},
	{
		"country": "RO",
		"name": "Iernut",
		"_id": 675727,
		"coord": {
			"lon": 24.25,
			"lat": 46.450001
		}
	},
	{
		"country": "IT",
		"name": "Iesolo",
		"_id": 6542178,
		"coord": {
			"lon": 12.63582,
			"lat": 45.534698
		}
	},
	{
		"country": "RO",
		"name": "Ieud",
		"_id": 675721,
		"coord": {
			"lon": 24.23399,
			"lat": 47.677959
		}
	},
	{
		"country": "ID",
		"name": "Ifaar",
		"_id": 2082612,
		"coord": {
			"lon": 140.516663,
			"lat": -2.56667
		}
	},
	{
		"country": "TZ",
		"name": "Ifakara",
		"_id": 159492,
		"coord": {
			"lon": 36.683331,
			"lat": -8.13333
		}
	},
	{
		"country": "NG",
		"name": "Ifaki",
		"_id": 2338908,
		"coord": {
			"lon": 5.24852,
			"lat": 7.78942
		}
	},
	{
		"country": "FM",
		"name": "Ifalik",
		"_id": 7645754,
		"coord": {
			"lon": 144.444504,
			"lat": 7.25
		}
	},
	{
		"country": "FM",
		"name": "Ifalik Municipality",
		"_id": 7626945,
		"coord": {
			"lon": 144.442993,
			"lat": 7.25
		}
	},
	{
		"country": "MG",
		"name": "Ifanadiana",
		"_id": 1064366,
		"coord": {
			"lon": 47.633331,
			"lat": -21.299999
		}
	},
	{
		"country": "NG",
		"name": "Ife",
		"_id": 2338900,
		"coord": {
			"lon": 4.56667,
			"lat": 7.46667
		}
	},
	{
		"country": "DE",
		"name": "Iffeldorf",
		"_id": 6556433,
		"coord": {
			"lon": 11.3167,
			"lat": 47.766701
		}
	},
	{
		"country": "DE",
		"name": "Iffeldorf",
		"_id": 2896731,
		"coord": {
			"lon": 11.31667,
			"lat": 47.76667
		}
	},
	{
		"country": "FR",
		"name": "Iffendic",
		"_id": 3012905,
		"coord": {
			"lon": -2.03486,
			"lat": 48.12981
		}
	},
	{
		"country": "DE",
		"name": "Iffezheim",
		"_id": 6555630,
		"coord": {
			"lon": 8.13333,
			"lat": 48.799999
		}
	},
	{
		"country": "DE",
		"name": "Iffezheim",
		"_id": 2896727,
		"coord": {
			"lon": 8.1431,
			"lat": 48.821671
		}
	},
	{
		"country": "CH",
		"name": "Iffigen",
		"_id": 2660278,
		"coord": {
			"lon": 7.44069,
			"lat": 46.400089
		}
	},
	{
		"country": "NG",
		"name": "Ifira",
		"_id": 2338883,
		"coord": {
			"lon": 7.29455,
			"lat": 10.70113
		}
	},
	{
		"country": "NG",
		"name": "Ifo",
		"_id": 2338876,
		"coord": {
			"lon": 3.19575,
			"lat": 6.81437
		}
	},
	{
		"country": "NG",
		"name": "Ifon",
		"_id": 2338873,
		"coord": {
			"lon": 5.77603,
			"lat": 6.92412
		}
	},
	{
		"country": "MA",
		"name": "Ifrane",
		"_id": 2546906,
		"coord": {
			"lon": -5.25,
			"lat": 33.333328
		}
	},
	{
		"country": "MA",
		"name": "Ifrane",
		"_id": 6546079,
		"coord": {
			"lon": -5.10912,
			"lat": 33.526852
		}
	},
	{
		"country": "MA",
		"name": "Ifrane",
		"_id": 2546917,
		"coord": {
			"lon": -5.11019,
			"lat": 33.526661
		}
	},
	{
		"country": "MA",
		"name": "Ifrane",
		"_id": 2543394,
		"coord": {
			"lon": -6.3494,
			"lat": 31.702169
		}
	},
	{
		"country": "FR",
		"name": "Ifs",
		"_id": 6453671,
		"coord": {
			"lon": -0.35,
			"lat": 49.133331
		}
	},
	{
		"country": "FR",
		"name": "Ifs",
		"_id": 3012903,
		"coord": {
			"lon": -0.34899,
			"lat": 49.139999
		}
	},
	{
		"country": "DE",
		"name": "Ifta",
		"_id": 6549878,
		"coord": {
			"lon": 10.1833,
			"lat": 51.0667
		}
	},
	{
		"country": "DE",
		"name": "Ifta",
		"_id": 2896724,
		"coord": {
			"lon": 10.18333,
			"lat": 51.066669
		}
	},
	{
		"country": "JP",
		"name": "Ifukugata",
		"_id": 1861903,
		"coord": {
			"lon": 131.666672,
			"lat": 32.51667
		}
	},
	{
		"country": "SI",
		"name": "Ig",
		"_id": 3199162,
		"coord": {
			"lon": 14.52889,
			"lat": 45.960281
		}
	},
	{
		"country": "JP",
		"name": "Iga",
		"_id": 1861901,
		"coord": {
			"lon": 136.130127,
			"lat": 34.768551
		}
	},
	{
		"country": "NG",
		"name": "Igabi",
		"_id": 2338863,
		"coord": {
			"lon": 7.77493,
			"lat": 10.78887
		}
	},
	{
		"country": "BR",
		"name": "Igaci",
		"_id": 3398355,
		"coord": {
			"lon": -36.63361,
			"lat": -9.53694
		}
	},
	{
		"country": "ME",
		"name": "Igalo",
		"_id": 3199161,
		"coord": {
			"lon": 18.50647,
			"lat": 42.460072
		}
	},
	{
		"country": "TZ",
		"name": "Igalula",
		"_id": 159454,
		"coord": {
			"lon": 31.033331,
			"lat": -7.25
		}
	},
	{
		"country": "PH",
		"name": "Igang",
		"_id": 1711320,
		"coord": {
			"lon": 122.638802,
			"lat": 10.916
		}
	},
	{
		"country": "UG",
		"name": "Iganga",
		"_id": 233275,
		"coord": {
			"lon": 33.468609,
			"lat": 0.60917
		}
	},
	{
		"country": "UG",
		"name": "Iganga District",
		"_id": 443334,
		"coord": {
			"lon": 33.533298,
			"lat": 0.7
		}
	},
	{
		"country": "ES",
		"name": "Igantzi",
		"_id": 6359806,
		"coord": {
			"lon": -1.68973,
			"lat": 43.220871
		}
	},
	{
		"country": "ES",
		"name": "Igantzi",
		"_id": 3104445,
		"coord": {
			"lon": -1.70048,
			"lat": 43.225262
		}
	},
	{
		"country": "ES",
		"name": "Igara",
		"_id": 6325033,
		"coord": {
			"lon": -2.0126,
			"lat": 43.301552
		}
	},
	{
		"country": "BR",
		"name": "Igaracu do Tiete",
		"_id": 3461501,
		"coord": {
			"lon": -48.557781,
			"lat": -22.509171
		}
	},
	{
		"country": "BR",
		"name": "Igarapava",
		"_id": 3461499,
		"coord": {
			"lon": -47.746941,
			"lat": -20.03833
		}
	},
	{
		"country": "BR",
		"name": "Igarape",
		"_id": 3461498,
		"coord": {
			"lon": -44.30167,
			"lat": -20.07028
		}
	},
	{
		"country": "BR",
		"name": "Igarape Acu",
		"_id": 3398350,
		"coord": {
			"lon": -47.619999,
			"lat": -1.12889
		}
	},
	{
		"country": "BR",
		"name": "Igarape Miri",
		"_id": 3398343,
		"coord": {
			"lon": -48.959721,
			"lat": -1.975
		}
	},
	{
		"country": "BR",
		"name": "Igarassu",
		"_id": 3398352,
		"coord": {
			"lon": -34.906391,
			"lat": -7.83417
		}
	},
	{
		"country": "BR",
		"name": "Igaratá",
		"_id": 3461495,
		"coord": {
			"lon": -46.156109,
			"lat": -23.204439
		}
	},
	{
		"country": "RU",
		"name": "Igarka",
		"_id": 1505991,
		"coord": {
			"lon": 86.583328,
			"lat": 67.466667
		}
	},
	{
		"country": "NG",
		"name": "Igarra",
		"_id": 2338840,
		"coord": {
			"lon": 6.0878,
			"lat": 7.2827
		}
	},
	{
		"country": "IN",
		"name": "Igatpuri",
		"_id": 1269810,
		"coord": {
			"lon": 73.550003,
			"lat": 19.700001
		}
	},
	{
		"country": "NG",
		"name": "Igbara-Odo",
		"_id": 2338810,
		"coord": {
			"lon": 5.06258,
			"lat": 7.50251
		}
	},
	{
		"country": "PH",
		"name": "Igbaras",
		"_id": 1711287,
		"coord": {
			"lon": 122.265701,
			"lat": 10.71565
		}
	},
	{
		"country": "NG",
		"name": "Igbeti",
		"_id": 2338772,
		"coord": {
			"lon": 4.13333,
			"lat": 8.75
		}
	},
	{
		"country": "NG",
		"name": "Igbo Ora",
		"_id": 2338669,
		"coord": {
			"lon": 3.28333,
			"lat": 7.43333
		}
	},
	{
		"country": "NG",
		"name": "Igbo-Ukwu",
		"_id": 2338640,
		"coord": {
			"lon": 7.02654,
			"lat": 6.01669
		}
	},
	{
		"country": "NG",
		"name": "Igboho",
		"_id": 2338711,
		"coord": {
			"lon": 3.75,
			"lat": 8.83333
		}
	},
	{
		"country": "PH",
		"name": "Igbon",
		"_id": 1711277,
		"coord": {
			"lon": 123.165497,
			"lat": 11.2142
		}
	},
	{
		"country": "NG",
		"name": "Igbor",
		"_id": 2338660,
		"coord": {
			"lon": 8.6098,
			"lat": 7.4527
		}
	},
	{
		"country": "PH",
		"name": "Igcocolo",
		"_id": 1711251,
		"coord": {
			"lon": 122.319298,
			"lat": 10.68966
		}
	},
	{
		"country": "TR",
		"name": "Igdir",
		"_id": 311665,
		"coord": {
			"lon": 44.044998,
			"lat": 39.92371
		}
	},
	{
		"country": "ES",
		"name": "Igea",
		"_id": 6359070,
		"coord": {
			"lon": -2.02636,
			"lat": 42.05283
		}
	},
	{
		"country": "ES",
		"name": "Igea",
		"_id": 3120445,
		"coord": {
			"lon": -2.01094,
			"lat": 42.067768
		}
	},
	{
		"country": "NG",
		"name": "Igede-Ekiti",
		"_id": 2338630,
		"coord": {
			"lon": 5.13205,
			"lat": 7.66676
		}
	},
	{
		"country": "DE",
		"name": "Igel",
		"_id": 6554746,
		"coord": {
			"lon": 6.55,
			"lat": 49.716702
		}
	},
	{
		"country": "DE",
		"name": "Igel",
		"_id": 2896721,
		"coord": {
			"lon": 6.55,
			"lat": 49.716671
		}
	},
	{
		"country": "ES",
		"name": "Igeldo",
		"_id": 3120430,
		"coord": {
			"lon": -2.03643,
			"lat": 43.308819
		}
	},
	{
		"country": "DE",
		"name": "Igenhausen",
		"_id": 2896690,
		"coord": {
			"lon": 11.05,
			"lat": 48.466671
		}
	},
	{
		"country": "DE",
		"name": "Igensdorf",
		"_id": 2896689,
		"coord": {
			"lon": 11.23137,
			"lat": 49.623219
		}
	},
	{
		"country": "ES",
		"name": "Igerain",
		"_id": 6325036,
		"coord": {
			"lon": -1.94706,
			"lat": 43.281139
		}
	},
	{
		"country": "DE",
		"name": "Igersheim",
		"_id": 6555564,
		"coord": {
			"lon": 9.81694,
			"lat": 49.4944
		}
	},
	{
		"country": "DE",
		"name": "Igersheim",
		"_id": 2896687,
		"coord": {
			"lon": 9.81694,
			"lat": 49.494438
		}
	},
	{
		"country": "DE",
		"name": "Iggelbach",
		"_id": 2896686,
		"coord": {
			"lon": 7.91667,
			"lat": 49.333328
		}
	},
	{
		"country": "DE",
		"name": "Iggensbach",
		"_id": 6556460,
		"coord": {
			"lon": 13.1382,
			"lat": 48.730202
		}
	},
	{
		"country": "DE",
		"name": "Iggensbach",
		"_id": 2896679,
		"coord": {
			"lon": 13.13333,
			"lat": 48.73333
		}
	},
	{
		"country": "SE",
		"name": "Iggesund",
		"_id": 2703827,
		"coord": {
			"lon": 17.083059,
			"lat": 61.64444
		}
	},
	{
		"country": "DE",
		"name": "Iggingen",
		"_id": 6555586,
		"coord": {
			"lon": 9.87843,
			"lat": 48.831791
		}
	},
	{
		"country": "DE",
		"name": "Iggingen",
		"_id": 2896677,
		"coord": {
			"lon": 9.87894,
			"lat": 48.831669
		}
	},
	{
		"country": "RO",
		"name": "Ighiu",
		"_id": 675703,
		"coord": {
			"lon": 23.51667,
			"lat": 46.150002
		}
	},
	{
		"country": "DZ",
		"name": "Ighram",
		"_id": 2493605,
		"coord": {
			"lon": 4.50532,
			"lat": 36.462952
		}
	},
	{
		"country": "ID",
		"name": "Igir-igir",
		"_id": 8180933,
		"coord": {
			"lon": 113.336098,
			"lat": -8.2834
		}
	},
	{
		"country": "RU",
		"name": "Igirma",
		"_id": 2023731,
		"coord": {
			"lon": 103.624001,
			"lat": 56.977001
		}
	},
	{
		"country": "CH",
		"name": "Igis",
		"_id": 7286132,
		"coord": {
			"lon": 9.58089,
			"lat": 46.957279
		}
	},
	{
		"country": "CH",
		"name": "Igis",
		"_id": 2660277,
		"coord": {
			"lon": 9.57218,
			"lat": 46.945309
		}
	},
	{
		"country": "RU",
		"name": "Iglakova",
		"_id": 1505984,
		"coord": {
			"lon": 84.833328,
			"lat": 56.599998
		}
	},
	{
		"country": "IN",
		"name": "Iglas",
		"_id": 1269809,
		"coord": {
			"lon": 77.933327,
			"lat": 27.716669
		}
	},
	{
		"country": "ES",
		"name": "Iglesia",
		"_id": 3120443,
		"coord": {
			"lon": -8.45437,
			"lat": 42.340672
		}
	},
	{
		"country": "ES",
		"name": "Iglesiarrubia",
		"_id": 6356468,
		"coord": {
			"lon": -3.84833,
			"lat": 41.97113
		}
	},
	{
		"country": "ES",
		"name": "Iglesiarrubia",
		"_id": 3120436,
		"coord": {
			"lon": -3.84701,
			"lat": 41.973831
		}
	},
	{
		"country": "IT",
		"name": "Iglesias",
		"_id": 6539584,
		"coord": {
			"lon": 8.53993,
			"lat": 39.305328
		}
	},
	{
		"country": "ES",
		"name": "Iglesias",
		"_id": 6356469,
		"coord": {
			"lon": -3.99053,
			"lat": 42.298141
		}
	},
	{
		"country": "IT",
		"name": "Iglesias",
		"_id": 2524533,
		"coord": {
			"lon": 8.535,
			"lat": 39.31139
		}
	},
	{
		"country": "ES",
		"name": "Iglesias",
		"_id": 3120435,
		"coord": {
			"lon": -3.98932,
			"lat": 42.298069
		}
	},
	{
		"country": "IT",
		"name": "Igliano",
		"_id": 6535465,
		"coord": {
			"lon": 8.01334,
			"lat": 44.44294
		}
	},
	{
		"country": "RU",
		"name": "Iglino",
		"_id": 557563,
		"coord": {
			"lon": 56.41264,
			"lat": 54.832439
		}
	},
	{
		"country": "CA",
		"name": "Igloolik",
		"_id": 5979345,
		"coord": {
			"lon": -81.798882,
			"lat": 69.384369
		}
	},
	{
		"country": "AT",
		"name": "Igls",
		"_id": 3319577,
		"coord": {
			"lon": 11.41667,
			"lat": 47.23333
		}
	},
	{
		"country": "RU",
		"name": "Igmas",
		"_id": 557557,
		"coord": {
			"lon": 43.772499,
			"lat": 60.168888
		}
	},
	{
		"country": "PH",
		"name": "Igmaya-an",
		"_id": 1711220,
		"coord": {
			"lon": 123.220596,
			"lat": 10.54986
		}
	},
	{
		"country": "CA",
		"name": "Ignace",
		"_id": 5979367,
		"coord": {
			"lon": -91.659019,
			"lat": 49.416328
		}
	},
	{
		"country": "MX",
		"name": "Ignacio Zaragoza",
		"_id": 3971760,
		"coord": {
			"lon": -114.183609,
			"lat": 32.296669
		}
	},
	{
		"country": "MX",
		"name": "Ignacio Zaragoza",
		"_id": 4004419,
		"coord": {
			"lon": -107.216667,
			"lat": 28.383329
		}
	},
	{
		"country": "MX",
		"name": "Ignacio de la Llave",
		"_id": 3526808,
		"coord": {
			"lon": -95.98333,
			"lat": 18.716669
		}
	},
	{
		"country": "LT",
		"name": "Ignalina",
		"_id": 598998,
		"coord": {
			"lon": 26.16667,
			"lat": 55.349998
		}
	},
	{
		"country": "RU",
		"name": "Ignatenko",
		"_id": 557544,
		"coord": {
			"lon": 41.166328,
			"lat": 48.314251
		}
	},
	{
		"country": "RU",
		"name": "Ignatovka",
		"_id": 557531,
		"coord": {
			"lon": 47.653599,
			"lat": 53.947868
		}
	},
	{
		"country": "RU",
		"name": "Ignatovka",
		"_id": 557530,
		"coord": {
			"lon": 40.466667,
			"lat": 54.849998
		}
	},
	{
		"country": "RU",
		"name": "Ignatovo",
		"_id": 873867,
		"coord": {
			"lon": 38.955555,
			"lat": 55.439999
		}
	},
	{
		"country": "RU",
		"name": "Ignat’yevo",
		"_id": 557500,
		"coord": {
			"lon": 38.065556,
			"lat": 55.099998
		}
	},
	{
		"country": "RU",
		"name": "Ignat’yevo",
		"_id": 557498,
		"coord": {
			"lon": 36.866669,
			"lat": 55.716667
		}
	},
	{
		"country": "RU",
		"name": "Ignat’yevo",
		"_id": 557486,
		"coord": {
			"lon": 38.531158,
			"lat": 55.611259
		}
	},
	{
		"country": "RU",
		"name": "Ignat’yevo",
		"_id": 2023724,
		"coord": {
			"lon": 127.416672,
			"lat": 50.450001
		}
	},
	{
		"country": "FR",
		"name": "Igney",
		"_id": 3012894,
		"coord": {
			"lon": 6.39664,
			"lat": 48.273579
		}
	},
	{
		"country": "PH",
		"name": "Ignit",
		"_id": 1711218,
		"coord": {
			"lon": 125.291939,
			"lat": 6.70083
		}
	},
	{
		"country": "FR",
		"name": "Igny",
		"_id": 3012889,
		"coord": {
			"lon": 2.22428,
			"lat": 48.74437
		}
	},
	{
		"country": "ES",
		"name": "Igoa",
		"_id": 3120434,
		"coord": {
			"lon": -1.78588,
			"lat": 43.031818
		}
	},
	{
		"country": "FR",
		"name": "Igon",
		"_id": 3012887,
		"coord": {
			"lon": -0.23333,
			"lat": 43.166672
		}
	},
	{
		"country": "GR",
		"name": "Igoumenitsa",
		"_id": 261807,
		"coord": {
			"lon": 20.26556,
			"lat": 39.503891
		}
	},
	{
		"country": "FR",
		"name": "Igoville",
		"_id": 6430448,
		"coord": {
			"lon": 1.15,
			"lat": 49.316669
		}
	},
	{
		"country": "FR",
		"name": "Igoville",
		"_id": 3012885,
		"coord": {
			"lon": 1.14832,
			"lat": 49.319901
		}
	},
	{
		"country": "PH",
		"name": "Igpit",
		"_id": 1711201,
		"coord": {
			"lon": 124.58667,
			"lat": 8.51083
		}
	},
	{
		"country": "RU",
		"name": "Igra",
		"_id": 557469,
		"coord": {
			"lon": 53.054722,
			"lat": 57.555828
		}
	},
	{
		"country": "BR",
		"name": "Igrapiúna",
		"_id": 3461488,
		"coord": {
			"lon": -39.14222,
			"lat": -13.82639
		}
	},
	{
		"country": "PT",
		"name": "Igreja Nova",
		"_id": 8012533,
		"coord": {
			"lon": -9.31756,
			"lat": 38.913239
		}
	},
	{
		"country": "PT",
		"name": "Igreja Nova",
		"_id": 2267421,
		"coord": {
			"lon": -9.31854,
			"lat": 38.917519
		}
	},
	{
		"country": "BR",
		"name": "Igreja Nova",
		"_id": 3461484,
		"coord": {
			"lon": -36.661942,
			"lat": -10.12528
		}
	},
	{
		"country": "BR",
		"name": "Igrejinha",
		"_id": 3461481,
		"coord": {
			"lon": -50.790279,
			"lat": -29.57444
		}
	},
	{
		"country": "ES",
		"name": "Igries",
		"_id": 3120432,
		"coord": {
			"lon": -0.43201,
			"lat": 42.214432
		}
	},
	{
		"country": "RU",
		"name": "Igrim",
		"_id": 1505965,
		"coord": {
			"lon": 64.416199,
			"lat": 63.190601
		}
	},
	{
		"country": "ES",
		"name": "Igriés",
		"_id": 6358354,
		"coord": {
			"lon": -0.43026,
			"lat": 42.20705
		}
	},
	{
		"country": "BR",
		"name": "Iguaba Grande",
		"_id": 3461477,
		"coord": {
			"lon": -42.228889,
			"lat": -22.83917
		}
	},
	{
		"country": "BR",
		"name": "Iguai",
		"_id": 3461469,
		"coord": {
			"lon": -40.089169,
			"lat": -14.75639
		}
	},
	{
		"country": "MX",
		"name": "Iguala de la Independencia",
		"_id": 3526798,
		"coord": {
			"lon": -99.533333,
			"lat": 18.35
		}
	},
	{
		"country": "ES",
		"name": "Igualada",
		"_id": 3120431,
		"coord": {
			"lon": 1.6172,
			"lat": 41.580978
		}
	},
	{
		"country": "ES",
		"name": "Igualeja",
		"_id": 6359465,
		"coord": {
			"lon": -5.09595,
			"lat": 36.624802
		}
	},
	{
		"country": "ES",
		"name": "Igualeja",
		"_id": 2516463,
		"coord": {
			"lon": -5.12188,
			"lat": 36.63208
		}
	},
	{
		"country": "BR",
		"name": "Iguape",
		"_id": 3461465,
		"coord": {
			"lon": -47.555279,
			"lat": -24.708059
		}
	},
	{
		"country": "BR",
		"name": "Iguatama",
		"_id": 3461458,
		"coord": {
			"lon": -45.711391,
			"lat": -20.17444
		}
	},
	{
		"country": "BR",
		"name": "Iguatemi",
		"_id": 3461455,
		"coord": {
			"lon": -54.561111,
			"lat": -23.680281
		}
	},
	{
		"country": "BR",
		"name": "Iguati",
		"_id": 3461451,
		"coord": {
			"lon": -39.450001,
			"lat": -11.61667
		}
	},
	{
		"country": "BR",
		"name": "Iguatu",
		"_id": 3398331,
		"coord": {
			"lon": -39.298611,
			"lat": -6.35944
		}
	},
	{
		"country": "ES",
		"name": "Iguena",
		"_id": 3120427,
		"coord": {
			"lon": -6.27738,
			"lat": 42.728531
		}
	},
	{
		"country": "TZ",
		"name": "Igugunu",
		"_id": 159398,
		"coord": {
			"lon": 34.633331,
			"lat": -4.56667
		}
	},
	{
		"country": "MA",
		"name": "Iguidi",
		"_id": 2546627,
		"coord": {
			"lon": -7.90294,
			"lat": 30.838261
		}
	},
	{
		"country": "PH",
		"name": "Iguig",
		"_id": 1711172,
		"coord": {
			"lon": 121.73645,
			"lat": 17.750601
		}
	},
	{
		"country": "RU",
		"name": "Igumnovo",
		"_id": 557454,
		"coord": {
			"lon": 37.777382,
			"lat": 54.892311
		}
	},
	{
		"country": "RU",
		"name": "Igumnovo",
		"_id": 7601294,
		"coord": {
			"lon": 36.305801,
			"lat": 56.397202
		}
	},
	{
		"country": "TZ",
		"name": "Igunga",
		"_id": 159386,
		"coord": {
			"lon": 33.883331,
			"lat": -4.28333
		}
	},
	{
		"country": "TZ",
		"name": "Igurubi",
		"_id": 159382,
		"coord": {
			"lon": 33.700001,
			"lat": -4
		}
	},
	{
		"country": "TZ",
		"name": "Igurusi",
		"_id": 159380,
		"coord": {
			"lon": 33.849998,
			"lat": -8.85
		}
	},
	{
		"country": "ES",
		"name": "Iguzquiza",
		"_id": 3120423,
		"coord": {
			"lon": -2.08551,
			"lat": 42.645451
		}
	},
	{
		"country": "ES",
		"name": "Igúzquiza",
		"_id": 6359673,
		"coord": {
			"lon": -2.09246,
			"lat": 42.64082
		}
	},
	{
		"country": "ES",
		"name": "Igüeña",
		"_id": 6358627,
		"coord": {
			"lon": -6.26501,
			"lat": 42.737209
		}
	},
	{
		"country": "TZ",
		"name": "Ihale",
		"_id": 159369,
		"coord": {
			"lon": 32.933331,
			"lat": -2.43333
		}
	},
	{
		"country": "DZ",
		"name": "Ihaïonnene",
		"_id": 2493569,
		"coord": {
			"lon": 4.92984,
			"lat": 36.64336
		}
	},
	{
		"country": "MN",
		"name": "Ihbulag",
		"_id": 2030251,
		"coord": {
			"lon": 107.199997,
			"lat": 43.200001
		}
	},
	{
		"country": "NG",
		"name": "Ihiala",
		"_id": 2338497,
		"coord": {
			"lon": 6.86026,
			"lat": 5.85377
		}
	},
	{
		"country": "DE",
		"name": "Ihlbrock",
		"_id": 2896659,
		"coord": {
			"lon": 8.47406,
			"lat": 52.663158
		}
	},
	{
		"country": "DE",
		"name": "Ihlenfeld",
		"_id": 2896652,
		"coord": {
			"lon": 13.33333,
			"lat": 53.583328
		}
	},
	{
		"country": "DE",
		"name": "Ihlewitz",
		"_id": 2896650,
		"coord": {
			"lon": 11.68333,
			"lat": 51.650002
		}
	},
	{
		"country": "DE",
		"name": "Ihlienworth",
		"_id": 6552591,
		"coord": {
			"lon": 8.91667,
			"lat": 53.733299
		}
	},
	{
		"country": "DE",
		"name": "Ihlienworth",
		"_id": 2896648,
		"coord": {
			"lon": 8.91667,
			"lat": 53.73333
		}
	},
	{
		"country": "DE",
		"name": "Ihlow",
		"_id": 6547726,
		"coord": {
			"lon": 13.3333,
			"lat": 51.883301
		}
	},
	{
		"country": "DE",
		"name": "Ihlow",
		"_id": 2896643,
		"coord": {
			"lon": 13.33333,
			"lat": 51.883331
		}
	},
	{
		"country": "DE",
		"name": "Ihlowerfehn",
		"_id": 2896639,
		"coord": {
			"lon": 7.43333,
			"lat": 53.400002
		}
	},
	{
		"country": "DE",
		"name": "Ihme",
		"_id": 2896634,
		"coord": {
			"lon": 9.6714,
			"lat": 52.29924
		}
	},
	{
		"country": "DE",
		"name": "Ihne",
		"_id": 2896629,
		"coord": {
			"lon": 7.78333,
			"lat": 51.099998
		}
	},
	{
		"country": "MG",
		"name": "Ihosy",
		"_id": 1064275,
		"coord": {
			"lon": 46.116669,
			"lat": -22.4
		}
	},
	{
		"country": "DE",
		"name": "Ihren",
		"_id": 2896622,
		"coord": {
			"lon": 6.2,
			"lat": 50.216671
		}
	},
	{
		"country": "DE",
		"name": "Ihringen",
		"_id": 6555749,
		"coord": {
			"lon": 7.65,
			"lat": 48.049999
		}
	},
	{
		"country": "DE",
		"name": "Ihringen",
		"_id": 2896616,
		"coord": {
			"lon": 7.65,
			"lat": 48.049999
		}
	},
	{
		"country": "DE",
		"name": "Ihringshausen",
		"_id": 2896615,
		"coord": {
			"lon": 9.52669,
			"lat": 51.351631
		}
	},
	{
		"country": "DE",
		"name": "Ihrlerstein",
		"_id": 2896614,
		"coord": {
			"lon": 11.86667,
			"lat": 48.916672
		}
	},
	{
		"country": "DE",
		"name": "Ihrlerstein",
		"_id": 2896613,
		"coord": {
			"lon": 11.86667,
			"lat": 48.933331
		}
	},
	{
		"country": "TR",
		"name": "Ihsangazi",
		"_id": 745387,
		"coord": {
			"lon": 33.55455,
			"lat": 41.204319
		}
	},
	{
		"country": "TR",
		"name": "Ihsaniye",
		"_id": 311645,
		"coord": {
			"lon": 30.416389,
			"lat": 39.02916
		}
	},
	{
		"country": "TR",
		"name": "Ihsaniye",
		"_id": 745383,
		"coord": {
			"lon": 29.834721,
			"lat": 40.690868
		}
	},
	{
		"country": "MN",
		"name": "Ihsueuej",
		"_id": 2030218,
		"coord": {
			"lon": 106.291519,
			"lat": 48.2257
		}
	},
	{
		"country": "NG",
		"name": "Ihuo",
		"_id": 2338469,
		"coord": {
			"lon": 7.1,
			"lat": 5.56667
		}
	},
	{
		"country": "FI",
		"name": "Ii",
		"_id": 656852,
		"coord": {
			"lon": 25.5,
			"lat": 65.416672
		}
	},
	{
		"country": "FI",
		"name": "Ii",
		"_id": 656851,
		"coord": {
			"lon": 25.3731,
			"lat": 65.317352
		}
	},
	{
		"country": "JP",
		"name": "Iida",
		"_id": 1861864,
		"coord": {
			"lon": 137.82074,
			"lat": 35.51965
		}
	},
	{
		"country": "JP",
		"name": "Iijima",
		"_id": 1861853,
		"coord": {
			"lon": 137.883331,
			"lat": 35.299999
		}
	},
	{
		"country": "EE",
		"name": "Iisaku",
		"_id": 592062,
		"coord": {
			"lon": 27.30806,
			"lat": 59.101391
		}
	},
	{
		"country": "EE",
		"name": "Iisaku vald",
		"_id": 7522279,
		"coord": {
			"lon": 27.341351,
			"lat": 59.078709
		}
	},
	{
		"country": "FI",
		"name": "Iisalmi",
		"_id": 656821,
		"coord": {
			"lon": 27.200001,
			"lat": 63.549999
		}
	},
	{
		"country": "FI",
		"name": "Iisalmi",
		"_id": 656820,
		"coord": {
			"lon": 27.19067,
			"lat": 63.559151
		}
	},
	{
		"country": "FI",
		"name": "Iitti",
		"_id": 656808,
		"coord": {
			"lon": 26.41667,
			"lat": 60.916672
		}
	},
	{
		"country": "FI",
		"name": "Iitti",
		"_id": 656807,
		"coord": {
			"lon": 26.33869,
			"lat": 60.894878
		}
	},
	{
		"country": "JP",
		"name": "Iiyama",
		"_id": 1861838,
		"coord": {
			"lon": 138.366669,
			"lat": 36.849998
		}
	},
	{
		"country": "JP",
		"name": "Iizuka",
		"_id": 1861835,
		"coord": {
			"lon": 130.683334,
			"lat": 33.633331
		}
	},
	{
		"country": "NG",
		"name": "Ijebu Ijesha",
		"_id": 2338401,
		"coord": {
			"lon": 4.81667,
			"lat": 7.68333
		}
	},
	{
		"country": "NG",
		"name": "Ijebu-Ife",
		"_id": 2338404,
		"coord": {
			"lon": 4.03386,
			"lat": 6.77837
		}
	},
	{
		"country": "NG",
		"name": "Ijebu-Igbo",
		"_id": 2338403,
		"coord": {
			"lon": 4.00329,
			"lat": 6.9798
		}
	},
	{
		"country": "NG",
		"name": "Ijebu-Ode",
		"_id": 2338400,
		"coord": {
			"lon": 3.91588,
			"lat": 6.81609
		}
	},
	{
		"country": "NG",
		"name": "Ijero-Ekiti",
		"_id": 2338385,
		"coord": {
			"lon": 5.0742,
			"lat": 7.8139
		}
	},
	{
		"country": "MA",
		"name": "Ijertsal",
		"_id": 2546536,
		"coord": {
			"lon": -2.48701,
			"lat": 35.092892
		}
	},
	{
		"country": "AM",
		"name": "Ijevan",
		"_id": 616627,
		"coord": {
			"lon": 45.14922,
			"lat": 40.878319
		}
	},
	{
		"country": "BR",
		"name": "Ijui",
		"_id": 3461444,
		"coord": {
			"lon": -53.914719,
			"lat": -28.387779
		}
	},
	{
		"country": "JP",
		"name": "Ijuin",
		"_id": 1861825,
		"coord": {
			"lon": 130.399994,
			"lat": 31.616671
		}
	},
	{
		"country": "FI",
		"name": "Ikaalinen",
		"_id": 656790,
		"coord": {
			"lon": 23.066669,
			"lat": 61.76667
		}
	},
	{
		"country": "FI",
		"name": "Ikaalinen",
		"_id": 656789,
		"coord": {
			"lon": 23.0658,
			"lat": 61.769508
		}
	},
	{
		"country": "MG",
		"name": "Ikalamavony",
		"_id": 1064258,
		"coord": {
			"lon": 46.583328,
			"lat": -21.15
		}
	},
	{
		"country": "NG",
		"name": "Ikang",
		"_id": 2338334,
		"coord": {
			"lon": 8.5316,
			"lat": 4.78978
		}
	},
	{
		"country": "ID",
		"name": "Ikar",
		"_id": 7921440,
		"coord": {
			"lon": 107.973503,
			"lat": -7.0204
		}
	},
	{
		"country": "JP",
		"name": "Ikaruga",
		"_id": 1861816,
		"coord": {
			"lon": 134.583328,
			"lat": 34.833328
		}
	},
	{
		"country": "DK",
		"name": "Ikast",
		"_id": 2619426,
		"coord": {
			"lon": 9.15768,
			"lat": 56.138828
		}
	},
	{
		"country": "DK",
		"name": "Ikast-Brande Kommune",
		"_id": 6543944,
		"coord": {
			"lon": 9.21667,
			"lat": 55.98333
		}
	},
	{
		"country": "IN",
		"name": "Ikauna",
		"_id": 1269805,
		"coord": {
			"lon": 81.966667,
			"lat": 27.549999
		}
	},
	{
		"country": "JP",
		"name": "Ikazaki",
		"_id": 1926136,
		"coord": {
			"lon": 132.654373,
			"lat": 33.535278
		}
	},
	{
		"country": "ES",
		"name": "Ikaztegieta",
		"_id": 6358133,
		"coord": {
			"lon": -2.12111,
			"lat": 43.092731
		}
	},
	{
		"country": "JP",
		"name": "Ikeda",
		"_id": 1861795,
		"coord": {
			"lon": 135.429794,
			"lat": 34.822079
		}
	},
	{
		"country": "JP",
		"name": "Ikeda",
		"_id": 1861799,
		"coord": {
			"lon": 133.800003,
			"lat": 34.01667
		}
	},
	{
		"country": "JP",
		"name": "Ikeda",
		"_id": 1861797,
		"coord": {
			"lon": 137.816666,
			"lat": 34.73333
		}
	},
	{
		"country": "JP",
		"name": "Ikeda",
		"_id": 1861793,
		"coord": {
			"lon": 137.883331,
			"lat": 36.416672
		}
	},
	{
		"country": "NG",
		"name": "Ikeja",
		"_id": 2338313,
		"coord": {
			"lon": 3.33748,
			"lat": 6.59422
		}
	},
	{
		"country": "NG",
		"name": "Ikem",
		"_id": 2338305,
		"coord": {
			"lon": 7.71685,
			"lat": 6.77903
		}
	},
	{
		"country": "DE",
		"name": "Ikendorf",
		"_id": 2896611,
		"coord": {
			"lon": 12.26667,
			"lat": 54.066669
		}
	},
	{
		"country": "NG",
		"name": "Ikerre",
		"_id": 2338287,
		"coord": {
			"lon": 5.23225,
			"lat": 7.49133
		}
	},
	{
		"country": "MA",
		"name": "Ikhorbane",
		"_id": 2546466,
		"coord": {
			"lon": -9.40845,
			"lat": 30.33642
		}
	},
	{
		"country": "BG",
		"name": "Ikhtiman",
		"_id": 730919,
		"coord": {
			"lon": 23.816669,
			"lat": 42.433331
		}
	},
	{
		"country": "RU",
		"name": "Iki-Burul",
		"_id": 557413,
		"coord": {
			"lon": 44.647221,
			"lat": 45.820831
		}
	},
	{
		"country": "NG",
		"name": "Ikire",
		"_id": 2338273,
		"coord": {
			"lon": 4.18333,
			"lat": 7.35
		}
	},
	{
		"country": "NG",
		"name": "Ikirun",
		"_id": 2338269,
		"coord": {
			"lon": 4.66667,
			"lat": 7.91667
		}
	},
	{
		"country": "TR",
		"name": "Ikizce",
		"_id": 311603,
		"coord": {
			"lon": 37.773331,
			"lat": 36.863892
		}
	},
	{
		"country": "TR",
		"name": "Ikizce",
		"_id": 745364,
		"coord": {
			"lon": 37.08028,
			"lat": 41.058331
		}
	},
	{
		"country": "TR",
		"name": "Ikizdere",
		"_id": 745362,
		"coord": {
			"lon": 40.55888,
			"lat": 40.779129
		}
	},
	{
		"country": "FI",
		"name": "Ikkeläjärvi",
		"_id": 656781,
		"coord": {
			"lon": 22.549999,
			"lat": 62.400002
		}
	},
	{
		"country": "HU",
		"name": "Iklad",
		"_id": 3051187,
		"coord": {
			"lon": 19.4361,
			"lat": 47.66534
		}
	},
	{
		"country": "IN",
		"name": "Iklehra",
		"_id": 1269801,
		"coord": {
			"lon": 76.383331,
			"lat": 23.15
		}
	},
	{
		"country": "NG",
		"name": "Ikom",
		"_id": 2338242,
		"coord": {
			"lon": 8.70632,
			"lat": 5.96669
		}
	},
	{
		"country": "JP",
		"name": "Ikoma",
		"_id": 1861749,
		"coord": {
			"lon": 135.699997,
			"lat": 34.683331
		}
	},
	{
		"country": "RU",
		"name": "Ikon-Khalk",
		"_id": 557399,
		"coord": {
			"lon": 41.9142,
			"lat": 44.305099
		}
	},
	{
		"country": "MG",
		"name": "Ikongo",
		"_id": 1064234,
		"coord": {
			"lon": 47.433331,
			"lat": -21.883329
		}
	},
	{
		"country": "NG",
		"name": "Ikot-Ekpene",
		"_id": 2338106,
		"coord": {
			"lon": 7.71082,
			"lat": 5.17938
		}
	},
	{
		"country": "RU",
		"name": "Ikovka",
		"_id": 1505946,
		"coord": {
			"lon": 64.9375,
			"lat": 55.608891
		}
	},
	{
		"country": "RU",
		"name": "Ikryanoye",
		"_id": 557390,
		"coord": {
			"lon": 47.730782,
			"lat": 46.093231
		}
	},
	{
		"country": "IL",
		"name": "Iksal",
		"_id": 294658,
		"coord": {
			"lon": 35.32365,
			"lat": 32.681641
		}
	},
	{
		"country": "KR",
		"name": "Iksan",
		"_id": 1843491,
		"coord": {
			"lon": 126.954437,
			"lat": 35.94389
		}
	},
	{
		"country": "RU",
		"name": "Iksha",
		"_id": 557382,
		"coord": {
			"lon": 37.516666,
			"lat": 56.166668
		}
	},
	{
		"country": "LV",
		"name": "Ikskile",
		"_id": 459598,
		"coord": {
			"lon": 24.5,
			"lat": 56.833328
		}
	},
	{
		"country": "PS",
		"name": "Iktabah",
		"_id": 283614,
		"coord": {
			"lon": 35.05262,
			"lat": 32.326599
		}
	},
	{
		"country": "GQ",
		"name": "Ikunde",
		"_id": 2308839,
		"coord": {
			"lon": 9.75,
			"lat": 1.85
		}
	},
	{
		"country": "TZ",
		"name": "Ikungi",
		"_id": 159267,
		"coord": {
			"lon": 34.76667,
			"lat": -5.13333
		}
	},
	{
		"country": "TZ",
		"name": "Ikwiriri",
		"_id": 159242,
		"coord": {
			"lon": 38.971642,
			"lat": -7.95618
		}
	},
	{
		"country": "LV",
		"name": "Ikšķiles Novads",
		"_id": 7628358,
		"coord": {
			"lon": 24.583611,
			"lat": 56.860279
		}
	},
	{
		"country": "IT",
		"name": "Il Casale",
		"_id": 3175603,
		"coord": {
			"lon": 14.35,
			"lat": 41.566669
		}
	},
	{
		"country": "IT",
		"name": "Il Pagliarone",
		"_id": 2524524,
		"coord": {
			"lon": 16.25,
			"lat": 38.900002
		}
	},
	{
		"country": "NG",
		"name": "Ila Orangun",
		"_id": 2337765,
		"coord": {
			"lon": 4.9,
			"lat": 8.01667
		}
	},
	{
		"country": "PE",
		"name": "Ilabaya",
		"_id": 3938455,
		"coord": {
			"lon": -70.513329,
			"lat": -17.42083
		}
	},
	{
		"country": "HR",
		"name": "Ilaca",
		"_id": 3199147,
		"coord": {
			"lon": 19.095831,
			"lat": 45.181389
		}
	},
	{
		"country": "PH",
		"name": "Ilagan",
		"_id": 1711146,
		"coord": {
			"lon": 121.889236,
			"lat": 17.14854
		}
	},
	{
		"country": "NP",
		"name": "Ilam",
		"_id": 1283333,
		"coord": {
			"lon": 87.928238,
			"lat": 26.90943
		}
	},
	{
		"country": "IR",
		"name": "Ilam",
		"_id": 130802,
		"coord": {
			"lon": 46.422699,
			"lat": 33.637402
		}
	},
	{
		"country": "HN",
		"name": "Ilama",
		"_id": 3608860,
		"coord": {
			"lon": -88.216667,
			"lat": 15.06667
		}
	},
	{
		"country": "IN",
		"name": "Ilampillai",
		"_id": 1269792,
		"coord": {
			"lon": 78,
			"lat": 11.6
		}
	},
	{
		"country": "RS",
		"name": "Ilandza",
		"_id": 790028,
		"coord": {
			"lon": 20.919439,
			"lat": 45.169441
		}
	},
	{
		"country": "PH",
		"name": "Ilangay",
		"_id": 1711135,
		"coord": {
			"lon": 126.050079,
			"lat": 6.91284
		}
	},
	{
		"country": "RU",
		"name": "Ilanskiy",
		"_id": 1505933,
		"coord": {
			"lon": 96.065002,
			"lat": 56.235828
		}
	},
	{
		"country": "CH",
		"name": "Ilanz",
		"_id": 2660275,
		"coord": {
			"lon": 9.20461,
			"lat": 46.774132
		}
	},
	{
		"country": "CH",
		"name": "Ilanz",
		"_id": 7286133,
		"coord": {
			"lon": 9.19255,
			"lat": 46.770672
		}
	},
	{
		"country": "NG",
		"name": "Ilare",
		"_id": 2337762,
		"coord": {
			"lon": 5.11333,
			"lat": 7.35067
		}
	},
	{
		"country": "NG",
		"name": "Ilaro",
		"_id": 2337759,
		"coord": {
			"lon": 3.0205,
			"lat": 6.88653
		}
	},
	{
		"country": "AU",
		"name": "Ilarwill",
		"_id": 2162785,
		"coord": {
			"lon": 153.183334,
			"lat": -29.48333
		}
	},
	{
		"country": "PH",
		"name": "Ilasan",
		"_id": 1711128,
		"coord": {
			"lon": 121.632782,
			"lat": 14.06306
		}
	},
	{
		"country": "RU",
		"name": "Ilaskhan-Yurt",
		"_id": 577883,
		"coord": {
			"lon": 46.103889,
			"lat": 43.279442
		}
	},
	{
		"country": "SK",
		"name": "Ilava",
		"_id": 3059796,
		"coord": {
			"lon": 18.2353,
			"lat": 48.997688
		}
	},
	{
		"country": "PE",
		"name": "Ilave",
		"_id": 3938451,
		"coord": {
			"lon": -69.666672,
			"lat": -16.08333
		}
	},
	{
		"country": "PL",
		"name": "Ilawa",
		"_id": 3097902,
		"coord": {
			"lon": 19.568489,
			"lat": 53.596008
		}
	},
	{
		"country": "PH",
		"name": "Ilaya",
		"_id": 1679476,
		"coord": {
			"lon": 125.226669,
			"lat": 5.81528
		}
	},
	{
		"country": "PH",
		"name": "Ilaya",
		"_id": 1711119,
		"coord": {
			"lon": 123.43306,
			"lat": 8.54306
		}
	},
	{
		"country": "DE",
		"name": "Ilbenstadt",
		"_id": 2896607,
		"coord": {
			"lon": 8.8,
			"lat": 50.283329
		}
	},
	{
		"country": "DE",
		"name": "Ilbersdorf",
		"_id": 2896603,
		"coord": {
			"lon": 11.8,
			"lat": 51.700001
		}
	},
	{
		"country": "DE",
		"name": "Ilberstedt",
		"_id": 6548860,
		"coord": {
			"lon": 11.6667,
			"lat": 51.799999
		}
	},
	{
		"country": "DE",
		"name": "Ilberstedt",
		"_id": 2896602,
		"coord": {
			"lon": 11.66667,
			"lat": 51.799999
		}
	},
	{
		"country": "DE",
		"name": "Ilbeshausen",
		"_id": 2896601,
		"coord": {
			"lon": 9.31667,
			"lat": 50.51667
		}
	},
	{
		"country": "DE",
		"name": "Ilbesheim",
		"_id": 2896600,
		"coord": {
			"lon": 8.055,
			"lat": 49.182499
		}
	},
	{
		"country": "DE",
		"name": "Ilbesheim",
		"_id": 6554953,
		"coord": {
			"lon": 8.07528,
			"lat": 49.689999
		}
	},
	{
		"country": "DE",
		"name": "Ilbesheim",
		"_id": 2896599,
		"coord": {
			"lon": 8.07528,
			"lat": 49.689999
		}
	},
	{
		"country": "AU",
		"name": "Ilbilbie",
		"_id": 2162783,
		"coord": {
			"lon": 149.350006,
			"lat": -21.700001
		}
	},
	{
		"country": "IT",
		"name": "Ilbono",
		"_id": 2524530,
		"coord": {
			"lon": 9.54556,
			"lat": 39.894718
		}
	},
	{
		"country": "ES",
		"name": "Ilche",
		"_id": 6358355,
		"coord": {
			"lon": 0.05112,
			"lat": 41.938251
		}
	},
	{
		"country": "ES",
		"name": "Ilche",
		"_id": 3120417,
		"coord": {
			"lon": 0.05728,
			"lat": 41.95702
		}
	},
	{
		"country": "US",
		"name": "Ilchester",
		"_id": 4358864,
		"coord": {
			"lon": -76.764687,
			"lat": 39.250938
		}
	},
	{
		"country": "GB",
		"name": "Ilchester",
		"_id": 2646279,
		"coord": {
			"lon": -2.67981,
			"lat": 51.005871
		}
	},
	{
		"country": "BR",
		"name": "Ildefonso",
		"_id": 3461440,
		"coord": {
			"lon": -57.650002,
			"lat": -14.716667
		}
	},
	{
		"country": "DE",
		"name": "Ildehausen",
		"_id": 2896594,
		"coord": {
			"lon": 10.13333,
			"lat": 51.849998
		}
	},
	{
		"country": "RO",
		"name": "Ileana",
		"_id": 675683,
		"coord": {
			"lon": 26.66667,
			"lat": 44.51667
		}
	},
	{
		"country": "RO",
		"name": "Ileanda",
		"_id": 675678,
		"coord": {
			"lon": 23.633329,
			"lat": 47.333328
		}
	},
	{
		"country": "CD",
		"name": "Ilebo",
		"_id": 215976,
		"coord": {
			"lon": 20.58333,
			"lat": -4.31667
		}
	},
	{
		"country": "RU",
		"name": "Ilek",
		"_id": 557340,
		"coord": {
			"lon": 53.38306,
			"lat": 51.527088
		}
	},
	{
		"country": "TZ",
		"name": "Ilembo",
		"_id": 159219,
		"coord": {
			"lon": 33.383331,
			"lat": -9.25
		}
	},
	{
		"country": "TZ",
		"name": "Ilembula",
		"_id": 159218,
		"coord": {
			"lon": 34.583328,
			"lat": -8.9
		}
	},
	{
		"country": "CO",
		"name": "Iles",
		"_id": 3680616,
		"coord": {
			"lon": -77.527412,
			"lat": 0.97491
		}
	},
	{
		"country": "NG",
		"name": "Ilesa",
		"_id": 2337704,
		"coord": {
			"lon": 4.73333,
			"lat": 7.61667
		}
	},
	{
		"country": "RU",
		"name": "Ileykino",
		"_id": 557304,
		"coord": {
			"lon": 38.866669,
			"lat": 56.066666
		}
	},
	{
		"country": "RU",
		"name": "Ileza",
		"_id": 829291,
		"coord": {
			"lon": 43.900211,
			"lat": 61.05328
		}
	},
	{
		"country": "DE",
		"name": "Ilfeld",
		"_id": 2896592,
		"coord": {
			"lon": 10.78333,
			"lat": 51.583328
		}
	},
	{
		"country": "DE",
		"name": "Ilfeld",
		"_id": 6549842,
		"coord": {
			"lon": 10.7833,
			"lat": 51.583302
		}
	},
	{
		"country": "GB",
		"name": "Ilford",
		"_id": 2646277,
		"coord": {
			"lon": 0.07278,
			"lat": 51.557652
		}
	},
	{
		"country": "AU",
		"name": "Ilfracombe",
		"_id": 2162781,
		"coord": {
			"lon": 144.5,
			"lat": -23.5
		}
	},
	{
		"country": "GB",
		"name": "Ilfracombe",
		"_id": 2646276,
		"coord": {
			"lon": -4.11344,
			"lat": 51.209301
		}
	},
	{
		"country": "TR",
		"name": "Ilgaz",
		"_id": 745344,
		"coord": {
			"lon": 33.625858,
			"lat": 40.92511
		}
	},
	{
		"country": "TR",
		"name": "Ilgin",
		"_id": 311553,
		"coord": {
			"lon": 31.913891,
			"lat": 38.279171
		}
	},
	{
		"country": "BR",
		"name": "Ilha Brava",
		"_id": 3461424,
		"coord": {
			"lon": -42.01667,
			"lat": -18.883329
		}
	},
	{
		"country": "BR",
		"name": "Ilha Redonda",
		"_id": 3398312,
		"coord": {
			"lon": -39.549999,
			"lat": -8.63333
		}
	},
	{
		"country": "BR",
		"name": "Ilha Solteira",
		"_id": 3461411,
		"coord": {
			"lon": -51.342499,
			"lat": -20.432779
		}
	},
	{
		"country": "MZ",
		"name": "Ilha de Mocambique",
		"_id": 1037390,
		"coord": {
			"lon": 40.735828,
			"lat": -15.03417
		}
	},
	{
		"country": "BR",
		"name": "Ilhabela",
		"_id": 6322286,
		"coord": {
			"lon": -45.265121,
			"lat": -23.843081
		}
	},
	{
		"country": "BR",
		"name": "Ilhabela",
		"_id": 3461425,
		"coord": {
			"lon": -45.358059,
			"lat": -23.778061
		}
	},
	{
		"country": "FR",
		"name": "Ilharre",
		"_id": 6440420,
		"coord": {
			"lon": -1.03333,
			"lat": 43.383331
		}
	},
	{
		"country": "FR",
		"name": "Ilharre",
		"_id": 3012858,
		"coord": {
			"lon": -1.03333,
			"lat": 43.383331
		}
	},
	{
		"country": "PT",
		"name": "Ilhavo",
		"_id": 2738707,
		"coord": {
			"lon": -8.66732,
			"lat": 40.599899
		}
	},
	{
		"country": "BR",
		"name": "Ilheus",
		"_id": 3461408,
		"coord": {
			"lon": -39.049438,
			"lat": -14.78889
		}
	},
	{
		"country": "BR",
		"name": "Ilhota",
		"_id": 3461406,
		"coord": {
			"lon": -48.827221,
			"lat": -26.899719
		}
	},
	{
		"country": "ID",
		"name": "Ili",
		"_id": 1643160,
		"coord": {
			"lon": 122.265999,
			"lat": -8.6748
		}
	},
	{
		"country": "RO",
		"name": "Ilia",
		"_id": 675670,
		"coord": {
			"lon": 22.65,
			"lat": 45.933331
		}
	},
	{
		"country": "TR",
		"name": "Ilic",
		"_id": 311547,
		"coord": {
			"lon": 38.563999,
			"lat": 39.455029
		}
	},
	{
		"country": "TR",
		"name": "Ilica",
		"_id": 311533,
		"coord": {
			"lon": 41.109058,
			"lat": 39.94627
		}
	},
	{
		"country": "RU",
		"name": "Ilich",
		"_id": 557292,
		"coord": {
			"lon": 36.774021,
			"lat": 45.424881
		}
	},
	{
		"country": "RU",
		"name": "Ilichevo",
		"_id": 1537749,
		"coord": {
			"lon": 91.840279,
			"lat": 53.278889
		}
	},
	{
		"country": "RU",
		"name": "Ilichevo",
		"_id": 557276,
		"coord": {
			"lon": 29.7523,
			"lat": 60.268082
		}
	},
	{
		"country": "BA",
		"name": "Ilici",
		"_id": 3213083,
		"coord": {
			"lon": 17.768061,
			"lat": 43.347221
		}
	},
	{
		"country": "BR",
		"name": "Ilicínea",
		"_id": 3461403,
		"coord": {
			"lon": -45.832779,
			"lat": -20.935829
		}
	},
	{
		"country": "RO",
		"name": "Ilieni",
		"_id": 675664,
		"coord": {
			"lon": 25.76667,
			"lat": 45.799999
		}
	},
	{
		"country": "PH",
		"name": "Iligan City",
		"_id": 1711082,
		"coord": {
			"lon": 124.400002,
			"lat": 8.25
		}
	},
	{
		"country": "PH",
		"name": "Ilihan",
		"_id": 1711061,
		"coord": {
			"lon": 121.075279,
			"lat": 13.62556
		}
	},
	{
		"country": "PH",
		"name": "Ilihan",
		"_id": 1711073,
		"coord": {
			"lon": 123.970398,
			"lat": 10.9054
		}
	},
	{
		"country": "BA",
		"name": "Ilijas",
		"_id": 3199142,
		"coord": {
			"lon": 18.27083,
			"lat": 43.950829
		}
	},
	{
		"country": "BG",
		"name": "Ilijno",
		"_id": 6461414,
		"coord": {
			"lon": 26.316669,
			"lat": 43.066669
		}
	},
	{
		"country": "MK",
		"name": "Ilinden",
		"_id": 833357,
		"coord": {
			"lon": 21.58222,
			"lat": 41.996109
		}
	},
	{
		"country": "BG",
		"name": "Ilinden",
		"_id": 730910,
		"coord": {
			"lon": 23.799999,
			"lat": 41.466671
		}
	},
	{
		"country": "ZA",
		"name": "Ilinge",
		"_id": 994939,
		"coord": {
			"lon": 27.042669,
			"lat": -31.976761
		}
	},
	{
		"country": "RU",
		"name": "Ilinskiy",
		"_id": 557140,
		"coord": {
			"lon": 38.118179,
			"lat": 55.619019
		}
	},
	{
		"country": "RU",
		"name": "Ilinskiy Pogost",
		"_id": 557132,
		"coord": {
			"lon": 38.911945,
			"lat": 55.477222
		}
	},
	{
		"country": "RU",
		"name": "Ilinskoye",
		"_id": 557100,
		"coord": {
			"lon": 37.183334,
			"lat": 56.966667
		}
	},
	{
		"country": "RU",
		"name": "Ilinskoye-Khovanskoye",
		"_id": 557060,
		"coord": {
			"lon": 39.768398,
			"lat": 56.971802
		}
	},
	{
		"country": "PH",
		"name": "Ilioilio",
		"_id": 1711047,
		"coord": {
			"lon": 119.7658,
			"lat": 15.9616
		}
	},
	{
		"country": "GR",
		"name": "Ilion",
		"_id": 256601,
		"coord": {
			"lon": 23.700001,
			"lat": 38.033329
		}
	},
	{
		"country": "US",
		"name": "Ilion",
		"_id": 5121765,
		"coord": {
			"lon": -75.035431,
			"lat": 43.015072
		}
	},
	{
		"country": "SI",
		"name": "Ilirska Bistrica",
		"_id": 3199131,
		"coord": {
			"lon": 14.24083,
			"lat": 45.569721
		}
	},
	{
		"country": "BG",
		"name": "Iliyno",
		"_id": 730900,
		"coord": {
			"lon": 26.316669,
			"lat": 43.066669
		}
	},
	{
		"country": "IN",
		"name": "Ilkal",
		"_id": 1269784,
		"coord": {
			"lon": 76.133331,
			"lat": 15.96667
		}
	},
	{
		"country": "GB",
		"name": "Ilkeston",
		"_id": 2646274,
		"coord": {
			"lon": -1.30951,
			"lat": 52.970551
		}
	},
	{
		"country": "GB",
		"name": "Ilkley",
		"_id": 2646272,
		"coord": {
			"lon": -1.82326,
			"lat": 53.924492
		}
	},
	{
		"country": "RU",
		"name": "Ilkodino",
		"_id": 557045,
		"coord": {
			"lon": 39.799999,
			"lat": 55.799999
		}
	},
	{
		"country": "AU",
		"name": "Illabo",
		"_id": 2162777,
		"coord": {
			"lon": 147.75,
			"lat": -34.816669
		}
	},
	{
		"country": "ES",
		"name": "Illan de Vacas",
		"_id": 2516457,
		"coord": {
			"lon": -4.55743,
			"lat": 39.970791
		}
	},
	{
		"country": "ES",
		"name": "Illana",
		"_id": 6357928,
		"coord": {
			"lon": -2.98,
			"lat": 40.195839
		}
	},
	{
		"country": "ES",
		"name": "Illana",
		"_id": 3120414,
		"coord": {
			"lon": -2.90889,
			"lat": 40.184422
		}
	},
	{
		"country": "FR",
		"name": "Illange",
		"_id": 3012854,
		"coord": {
			"lon": 6.18166,
			"lat": 49.330841
		}
	},
	{
		"country": "ES",
		"name": "Illano",
		"_id": 6359934,
		"coord": {
			"lon": -6.84777,
			"lat": 43.343712
		}
	},
	{
		"country": "ES",
		"name": "Illano",
		"_id": 3120413,
		"coord": {
			"lon": -6.8656,
			"lat": 43.333851
		}
	},
	{
		"country": "CL",
		"name": "Illapel",
		"_id": 3887344,
		"coord": {
			"lon": -71.165283,
			"lat": -31.630831
		}
	},
	{
		"country": "ES",
		"name": "Illar",
		"_id": 6355566,
		"coord": {
			"lon": -2.64056,
			"lat": 36.986881
		}
	},
	{
		"country": "ES",
		"name": "Illar",
		"_id": 2516456,
		"coord": {
			"lon": -2.63871,
			"lat": 36.985619
		}
	},
	{
		"country": "PS",
		"name": "Illar",
		"_id": 283612,
		"coord": {
			"lon": 35.107079,
			"lat": 32.370239
		}
	},
	{
		"country": "UA",
		"name": "Illarionovo",
		"_id": 707689,
		"coord": {
			"lon": 35.275391,
			"lat": 48.40657
		}
	},
	{
		"country": "ES",
		"name": "Illas",
		"_id": 6359935,
		"coord": {
			"lon": -5.96855,
			"lat": 43.498192
		}
	},
	{
		"country": "ES",
		"name": "Illas",
		"_id": 3120412,
		"coord": {
			"lon": -5.975,
			"lat": 43.497162
		}
	},
	{
		"country": "IT",
		"name": "Illasi",
		"_id": 3175584,
		"coord": {
			"lon": 11.18239,
			"lat": 45.46719
		}
	},
	{
		"country": "FR",
		"name": "Illats",
		"_id": 3012851,
		"coord": {
			"lon": -0.37238,
			"lat": 44.597141
		}
	},
	{
		"country": "AU",
		"name": "Illawarra",
		"_id": 2162772,
		"coord": {
			"lon": 142.699997,
			"lat": -37.066669
		}
	},
	{
		"country": "AU",
		"name": "Illawong",
		"_id": 2206005,
		"coord": {
			"lon": 151.033325,
			"lat": -34
		}
	},
	{
		"country": "FR",
		"name": "Ille-sur-Tet",
		"_id": 3012848,
		"coord": {
			"lon": 2.62162,
			"lat": 42.670689
		}
	},
	{
		"country": "FR",
		"name": "Ille-sur-Têt",
		"_id": 6450557,
		"coord": {
			"lon": 2.61667,
			"lat": 42.666672
		}
	},
	{
		"country": "DE",
		"name": "Illeben",
		"_id": 3207129,
		"coord": {
			"lon": 10.66667,
			"lat": 51.066669
		}
	},
	{
		"country": "NE",
		"name": "Illela",
		"_id": 2443304,
		"coord": {
			"lon": 5.2437,
			"lat": 14.4605
		}
	},
	{
		"country": "NG",
		"name": "Illela",
		"_id": 2337680,
		"coord": {
			"lon": 5.29752,
			"lat": 13.72918
		}
	},
	{
		"country": "DE",
		"name": "Illemad",
		"_id": 2896565,
		"coord": {
			"lon": 10.76667,
			"lat": 48.633331
		}
	},
	{
		"country": "DE",
		"name": "Illerbeuren",
		"_id": 2896555,
		"coord": {
			"lon": 10.12652,
			"lat": 47.901611
		}
	},
	{
		"country": "DE",
		"name": "Illerich",
		"_id": 6553693,
		"coord": {
			"lon": 7.18333,
			"lat": 50.200001
		}
	},
	{
		"country": "DE",
		"name": "Illerich",
		"_id": 2896548,
		"coord": {
			"lon": 7.18333,
			"lat": 50.200001
		}
	},
	{
		"country": "DE",
		"name": "Illerrieden",
		"_id": 6555978,
		"coord": {
			"lon": 10.05,
			"lat": 48.266701
		}
	},
	{
		"country": "DE",
		"name": "Illerrieden",
		"_id": 2896547,
		"coord": {
			"lon": 10.05155,
			"lat": 48.270168
		}
	},
	{
		"country": "DE",
		"name": "Illertissen",
		"_id": 2896546,
		"coord": {
			"lon": 10.10347,
			"lat": 48.223358
		}
	},
	{
		"country": "DE",
		"name": "Illertissen, Stadt",
		"_id": 6558414,
		"coord": {
			"lon": 10.1026,
			"lat": 48.222698
		}
	},
	{
		"country": "DE",
		"name": "Illerzell",
		"_id": 2896545,
		"coord": {
			"lon": 10.05524,
			"lat": 48.296101
		}
	},
	{
		"country": "ES",
		"name": "Illes Balears",
		"_id": 6424360,
		"coord": {
			"lon": 3.02948,
			"lat": 39.609921
		}
	},
	{
		"country": "ES",
		"name": "Illescas",
		"_id": 6361741,
		"coord": {
			"lon": -3.85713,
			"lat": 40.135811
		}
	},
	{
		"country": "ES",
		"name": "Illescas",
		"_id": 3120410,
		"coord": {
			"lon": -3.84704,
			"lat": 40.122131
		}
	},
	{
		"country": "DE",
		"name": "Illesheim",
		"_id": 6556908,
		"coord": {
			"lon": 10.3833,
			"lat": 49.466702
		}
	},
	{
		"country": "DE",
		"name": "Illesheim",
		"_id": 2896543,
		"coord": {
			"lon": 10.38333,
			"lat": 49.466671
		}
	},
	{
		"country": "FR",
		"name": "Illfurth",
		"_id": 3012845,
		"coord": {
			"lon": 7.26539,
			"lat": 47.672901
		}
	},
	{
		"country": "CH",
		"name": "Illgau",
		"_id": 2660272,
		"coord": {
			"lon": 8.72509,
			"lat": 46.98764
		}
	},
	{
		"country": "UA",
		"name": "Illichivsk",
		"_id": 707688,
		"coord": {
			"lon": 30.654779,
			"lat": 46.304951
		}
	},
	{
		"country": "FR",
		"name": "Illies",
		"_id": 3012837,
		"coord": {
			"lon": 2.83011,
			"lat": 50.56144
		}
	},
	{
		"country": "DE",
		"name": "Illingen",
		"_id": 2896538,
		"coord": {
			"lon": 7.05,
			"lat": 49.366669
		}
	},
	{
		"country": "DE",
		"name": "Illingen",
		"_id": 6555703,
		"coord": {
			"lon": 8.9156,
			"lat": 48.953701
		}
	},
	{
		"country": "DE",
		"name": "Illingen",
		"_id": 2896539,
		"coord": {
			"lon": 8.91667,
			"lat": 48.950001
		}
	},
	{
		"country": "DE",
		"name": "Illingheim",
		"_id": 2896536,
		"coord": {
			"lon": 7.95,
			"lat": 51.299999
		}
	},
	{
		"country": "US",
		"name": "Illinois",
		"_id": 4896861,
		"coord": {
			"lon": -89.250366,
			"lat": 40.00032
		}
	},
	{
		"country": "UA",
		"name": "Illintsi",
		"_id": 707695,
		"coord": {
			"lon": 29.21773,
			"lat": 49.10479
		}
	},
	{
		"country": "DZ",
		"name": "Illizi",
		"_id": 2493456,
		"coord": {
			"lon": 8.46667,
			"lat": 26.48333
		}
	},
	{
		"country": "FR",
		"name": "Illkirch-Graffenstaden",
		"_id": 6441162,
		"coord": {
			"lon": 7.71661,
			"lat": 48.529388
		}
	},
	{
		"country": "FR",
		"name": "Illkirch-Graffenstaden",
		"_id": 3012834,
		"coord": {
			"lon": 7.71523,
			"lat": 48.528938
		}
	},
	{
		"country": "DE",
		"name": "Illkofen",
		"_id": 2896533,
		"coord": {
			"lon": 12.3,
			"lat": 49.01667
		}
	},
	{
		"country": "DE",
		"name": "Illmensee",
		"_id": 6556084,
		"coord": {
			"lon": 9.38333,
			"lat": 47.866699
		}
	},
	{
		"country": "DE",
		"name": "Illmensee",
		"_id": 2896530,
		"coord": {
			"lon": 9.38333,
			"lat": 47.866669
		}
	},
	{
		"country": "AT",
		"name": "Illmitz",
		"_id": 7871587,
		"coord": {
			"lon": 16.775089,
			"lat": 47.772911
		}
	},
	{
		"country": "AT",
		"name": "Illmitz",
		"_id": 2775327,
		"coord": {
			"lon": 16.80024,
			"lat": 47.761478
		}
	},
	{
		"country": "CH",
		"name": "Illnau",
		"_id": 2660269,
		"coord": {
			"lon": 8.72125,
			"lat": 47.411301
		}
	},
	{
		"country": "CH",
		"name": "Illnau / Unter-Illnau",
		"_id": 2658249,
		"coord": {
			"lon": 8.72607,
			"lat": 47.407871
		}
	},
	{
		"country": "CH",
		"name": "Illnau-Effretikon",
		"_id": 7286135,
		"coord": {
			"lon": 8.71605,
			"lat": 47.422932
		}
	},
	{
		"country": "ES",
		"name": "Illora",
		"_id": 6357721,
		"coord": {
			"lon": -3.90395,
			"lat": 37.275532
		}
	},
	{
		"country": "ES",
		"name": "Illora",
		"_id": 2516455,
		"coord": {
			"lon": -3.88109,
			"lat": 37.287708
		}
	},
	{
		"country": "IT",
		"name": "Illorai",
		"_id": 3175575,
		"coord": {
			"lon": 9.00103,
			"lat": 40.353859
		}
	},
	{
		"country": "AU",
		"name": "Illowa",
		"_id": 2162764,
		"coord": {
			"lon": 142.416672,
			"lat": -38.333328
		}
	},
	{
		"country": "DE",
		"name": "Illschwang",
		"_id": 6556619,
		"coord": {
			"lon": 11.694,
			"lat": 49.458801
		}
	},
	{
		"country": "DE",
		"name": "Illschwang",
		"_id": 2896523,
		"coord": {
			"lon": 11.68333,
			"lat": 49.450001
		}
	},
	{
		"country": "ES",
		"name": "Illueca",
		"_id": 6362816,
		"coord": {
			"lon": -1.62591,
			"lat": 41.53558
		}
	},
	{
		"country": "ES",
		"name": "Illueca",
		"_id": 3120407,
		"coord": {
			"lon": -1.62747,
			"lat": 41.538181
		}
	},
	{
		"country": "EE",
		"name": "Illuka",
		"_id": 592055,
		"coord": {
			"lon": 27.48472,
			"lat": 59.237782
		}
	},
	{
		"country": "EE",
		"name": "Illuka vald",
		"_id": 7522280,
		"coord": {
			"lon": 27.643681,
			"lat": 59.171379
		}
	},
	{
		"country": "NG",
		"name": "Illushi",
		"_id": 2337666,
		"coord": {
			"lon": 6.63076,
			"lat": 6.6667
		}
	},
	{
		"country": "FR",
		"name": "Illzach",
		"_id": 6441484,
		"coord": {
			"lon": 7.33333,
			"lat": 47.783329
		}
	},
	{
		"country": "FR",
		"name": "Illzach",
		"_id": 3012829,
		"coord": {
			"lon": 7.34662,
			"lat": 47.78088
		}
	},
	{
		"country": "ES",
		"name": "Illán de Vacas",
		"_id": 6361740,
		"coord": {
			"lon": -4.55648,
			"lat": 39.9715
		}
	},
	{
		"country": "DE",
		"name": "Ilm-Kreis",
		"_id": 6547391,
		"coord": {
			"lon": 10.96129,
			"lat": 50.729179
		}
	},
	{
		"country": "FI",
		"name": "Ilmajoki",
		"_id": 656740,
		"coord": {
			"lon": 22.58333,
			"lat": 62.75
		}
	},
	{
		"country": "FI",
		"name": "Ilmajoki",
		"_id": 656739,
		"coord": {
			"lon": 22.566669,
			"lat": 62.73333
		}
	},
	{
		"country": "EE",
		"name": "Ilmandu",
		"_id": 592052,
		"coord": {
			"lon": 24.491671,
			"lat": 59.445278
		}
	},
	{
		"country": "DE",
		"name": "Ilmenau",
		"_id": 2896514,
		"coord": {
			"lon": 10.9,
			"lat": 50.683331
		}
	},
	{
		"country": "DE",
		"name": "Ilmendorf",
		"_id": 2896508,
		"coord": {
			"lon": 11.61667,
			"lat": 48.73333
		}
	},
	{
		"country": "GB",
		"name": "Ilminster",
		"_id": 2646265,
		"coord": {
			"lon": -2.91009,
			"lat": 50.926842
		}
	},
	{
		"country": "DE",
		"name": "Ilmmunster",
		"_id": 2896506,
		"coord": {
			"lon": 11.5,
			"lat": 48.48333
		}
	},
	{
		"country": "DE",
		"name": "Ilmmünster",
		"_id": 6556348,
		"coord": {
			"lon": 11.5,
			"lat": 48.483299
		}
	},
	{
		"country": "DE",
		"name": "Ilmspan",
		"_id": 2896503,
		"coord": {
			"lon": 9.79167,
			"lat": 49.666389
		}
	},
	{
		"country": "PE",
		"name": "Ilo",
		"_id": 3938415,
		"coord": {
			"lon": -71.337502,
			"lat": -17.639441
		}
	},
	{
		"country": "SV",
		"name": "Ilobasco",
		"_id": 3585487,
		"coord": {
			"lon": -88.849998,
			"lat": 13.85
		}
	},
	{
		"country": "NG",
		"name": "Ilobu",
		"_id": 2337659,
		"coord": {
			"lon": 4.48333,
			"lat": 7.83333
		}
	},
	{
		"country": "PH",
		"name": "Ilocos",
		"_id": 7521301,
		"coord": {
			"lon": 120.520828,
			"lat": 16.97917
		}
	},
	{
		"country": "PH",
		"name": "Ilog",
		"_id": 1711030,
		"coord": {
			"lon": 122.768402,
			"lat": 10.0266
		}
	},
	{
		"country": "PH",
		"name": "Iloilo",
		"_id": 1711005,
		"coord": {
			"lon": 122.564438,
			"lat": 10.69694
		}
	},
	{
		"country": "PH",
		"name": "Iloilo City",
		"_id": 1711003,
		"coord": {
			"lon": 122.550003,
			"lat": 10.75
		}
	},
	{
		"country": "HR",
		"name": "Ilok",
		"_id": 3199128,
		"coord": {
			"lon": 19.37694,
			"lat": 45.222221
		}
	},
	{
		"country": "FI",
		"name": "Ilomantsi",
		"_id": 656711,
		"coord": {
			"lon": 31,
			"lat": 62.833328
		}
	},
	{
		"country": "FI",
		"name": "Ilomantsi",
		"_id": 656709,
		"coord": {
			"lon": 30.93276,
			"lat": 62.671619
		}
	},
	{
		"country": "TZ",
		"name": "Ilongero",
		"_id": 159186,
		"coord": {
			"lon": 34.866669,
			"lat": -4.66667
		}
	},
	{
		"country": "SV",
		"name": "Ilopango",
		"_id": 3585484,
		"coord": {
			"lon": -89.109444,
			"lat": 13.70167
		}
	},
	{
		"country": "NG",
		"name": "Ilorin",
		"_id": 2337639,
		"coord": {
			"lon": 4.55,
			"lat": 8.5
		}
	},
	{
		"country": "UA",
		"name": "Ilovaysk",
		"_id": 707679,
		"coord": {
			"lon": 38.202358,
			"lat": 47.92498
		}
	},
	{
		"country": "MK",
		"name": "Ilovica",
		"_id": 790018,
		"coord": {
			"lon": 22.798611,
			"lat": 41.470558
		}
	},
	{
		"country": "RO",
		"name": "Ilovita",
		"_id": 675637,
		"coord": {
			"lon": 22.47278,
			"lat": 44.75639
		}
	},
	{
		"country": "RU",
		"name": "Ilovka",
		"_id": 556967,
		"coord": {
			"lon": 38.637001,
			"lat": 50.705299
		}
	},
	{
		"country": "RU",
		"name": "Ilovlya",
		"_id": 556961,
		"coord": {
			"lon": 43.979649,
			"lat": 49.303341
		}
	},
	{
		"country": "PL",
		"name": "Ilow",
		"_id": 770798,
		"coord": {
			"lon": 20.0273,
			"lat": 52.339531
		}
	},
	{
		"country": "PL",
		"name": "Ilowa",
		"_id": 3097896,
		"coord": {
			"lon": 15.1998,
			"lat": 51.500599
		}
	},
	{
		"country": "PL",
		"name": "Ilowo -Osada",
		"_id": 7534560,
		"coord": {
			"lon": 20.29295,
			"lat": 53.168079
		}
	},
	{
		"country": "DE",
		"name": "Ilse",
		"_id": 2896495,
		"coord": {
			"lon": 9.05,
			"lat": 52.400002
		}
	},
	{
		"country": "DE",
		"name": "Ilsede",
		"_id": 6552394,
		"coord": {
			"lon": 10.2116,
			"lat": 52.2617
		}
	},
	{
		"country": "DE",
		"name": "Ilsede",
		"_id": 3208606,
		"coord": {
			"lon": 10.2,
			"lat": 52.26667
		}
	},
	{
		"country": "DE",
		"name": "Ilsenburg",
		"_id": 2896483,
		"coord": {
			"lon": 10.68333,
			"lat": 51.866669
		}
	},
	{
		"country": "DE",
		"name": "Ilsfeld",
		"_id": 2896477,
		"coord": {
			"lon": 9.24598,
			"lat": 49.055481
		}
	},
	{
		"country": "DE",
		"name": "Ilsfeld",
		"_id": 6555519,
		"coord": {
			"lon": 9.2543,
			"lat": 49.0555
		}
	},
	{
		"country": "DE",
		"name": "Ilshofen",
		"_id": 2896476,
		"coord": {
			"lon": 9.91889,
			"lat": 49.169998
		}
	},
	{
		"country": "RU",
		"name": "Ilskiy",
		"_id": 556951,
		"coord": {
			"lon": 38.56686,
			"lat": 44.84222
		}
	},
	{
		"country": "GB",
		"name": "Ilston",
		"_id": 7301675,
		"coord": {
			"lon": -4.10805,
			"lat": 51.590752
		}
	},
	{
		"country": "GB",
		"name": "Ilston",
		"_id": 3345237,
		"coord": {
			"lon": -4.08364,
			"lat": 51.606911
		}
	},
	{
		"country": "DE",
		"name": "Ilten",
		"_id": 2896474,
		"coord": {
			"lon": 9.93333,
			"lat": 52.349998
		}
	},
	{
		"country": "AU",
		"name": "Iluka",
		"_id": 6697153,
		"coord": {
			"lon": 115.730583,
			"lat": -31.73554
		}
	},
	{
		"country": "LV",
		"name": "Ilukste",
		"_id": 459586,
		"coord": {
			"lon": 26.296551,
			"lat": 55.977539
		}
	},
	{
		"country": "TZ",
		"name": "Ilula",
		"_id": 159179,
		"coord": {
			"lon": 36.036579,
			"lat": -7.6766
		}
	},
	{
		"country": "GL",
		"name": "Ilulissat",
		"_id": 3423146,
		"coord": {
			"lon": -51.099998,
			"lat": 69.216667
		}
	},
	{
		"country": "IN",
		"name": "Iluppur",
		"_id": 1269782,
		"coord": {
			"lon": 78.623573,
			"lat": 10.51347
		}
	},
	{
		"country": "RO",
		"name": "Ilva Mare",
		"_id": 675632,
		"coord": {
			"lon": 24.9,
			"lat": 47.366669
		}
	},
	{
		"country": "RO",
		"name": "Ilva Mica",
		"_id": 675629,
		"coord": {
			"lon": 24.66667,
			"lat": 47.316669
		}
	},
	{
		"country": "DE",
		"name": "Ilverich",
		"_id": 2896470,
		"coord": {
			"lon": 6.7,
			"lat": 51.26667
		}
	},
	{
		"country": "DE",
		"name": "Ilvesheim",
		"_id": 6555665,
		"coord": {
			"lon": 8.5674,
			"lat": 49.473869
		}
	},
	{
		"country": "DE",
		"name": "Ilvesheim",
		"_id": 2896468,
		"coord": {
			"lon": 8.5674,
			"lat": 49.474041
		}
	},
	{
		"country": "FI",
		"name": "Ilvesjärvi",
		"_id": 656696,
		"coord": {
			"lon": 28.966669,
			"lat": 64.550003
		}
	},
	{
		"country": "BY",
		"name": "Ilya",
		"_id": 627878,
		"coord": {
			"lon": 27.29435,
			"lat": 54.416451
		}
	},
	{
		"country": "KZ",
		"name": "Ilyich",
		"_id": 1524138,
		"coord": {
			"lon": 68.506668,
			"lat": 40.84639
		}
	},
	{
		"country": "RU",
		"name": "Ilyushkino",
		"_id": 556902,
		"coord": {
			"lon": 47.104244,
			"lat": 52.594631
		}
	},
	{
		"country": "AT",
		"name": "Ilz",
		"_id": 7872317,
		"coord": {
			"lon": 15.92976,
			"lat": 47.091671
		}
	},
	{
		"country": "AT",
		"name": "Ilz",
		"_id": 2775324,
		"coord": {
			"lon": 15.91667,
			"lat": 47.083328
		}
	},
	{
		"country": "PL",
		"name": "Ilza",
		"_id": 770792,
		"coord": {
			"lon": 21.23979,
			"lat": 51.163132
		}
	},
	{
		"country": "DE",
		"name": "Ilzham",
		"_id": 2896465,
		"coord": {
			"lon": 12.38333,
			"lat": 48
		}
	},
	{
		"country": "ES",
		"name": "Ilárduya",
		"_id": 3120422,
		"coord": {
			"lon": -2.28567,
			"lat": 42.872189
		}
	},
	{
		"country": "BR",
		"name": "Ilópolis",
		"_id": 3461400,
		"coord": {
			"lon": -52.124168,
			"lat": -28.92667
		}
	},
	{
		"country": "NP",
		"name": "Ilām",
		"_id": 1283334,
		"coord": {
			"lon": 87.916672,
			"lat": 26.91667
		}
	},
	{
		"country": "LV",
		"name": "Ilūkstes Novads",
		"_id": 7628339,
		"coord": {
			"lon": 26.148331,
			"lat": 56.011669
		}
	},
	{
		"country": "UA",
		"name": "Il’icha",
		"_id": 6725459,
		"coord": {
			"lon": 36.171322,
			"lat": 50.302448
		}
	},
	{
		"country": "UA",
		"name": "Il’ichëvka",
		"_id": 707716,
		"coord": {
			"lon": 34.383331,
			"lat": 44.666668
		}
	},
	{
		"country": "UA",
		"name": "Il’ichëvskoye",
		"_id": 707711,
		"coord": {
			"lon": 34.966671,
			"lat": 44.849998
		}
	},
	{
		"country": "RU",
		"name": "Il’ina",
		"_id": 557255,
		"coord": {
			"lon": 42.283333,
			"lat": 58.266666
		}
	},
	{
		"country": "RU",
		"name": "Il’inka",
		"_id": 557226,
		"coord": {
			"lon": 37.333328,
			"lat": 52.73333
		}
	},
	{
		"country": "RU",
		"name": "Il’inka",
		"_id": 6607968,
		"coord": {
			"lon": 43.05978,
			"lat": 56.600151
		}
	},
	{
		"country": "RU",
		"name": "Il’inskaya",
		"_id": 6422675,
		"coord": {
			"lon": 41.578335,
			"lat": 56.538612
		}
	},
	{
		"country": "RU",
		"name": "Il’inskaya",
		"_id": 557161,
		"coord": {
			"lon": 40.724445,
			"lat": 45.725277
		}
	},
	{
		"country": "RU",
		"name": "Il’inskiy",
		"_id": 557138,
		"coord": {
			"lon": 55.696339,
			"lat": 58.57217
		}
	},
	{
		"country": "RU",
		"name": "Il’inskoye",
		"_id": 557110,
		"coord": {
			"lon": 37.599998,
			"lat": 56.283333
		}
	},
	{
		"country": "RU",
		"name": "Il’inskoye",
		"_id": 557111,
		"coord": {
			"lon": 36.200001,
			"lat": 56.116669
		}
	},
	{
		"country": "RU",
		"name": "Il’inskoye",
		"_id": 557115,
		"coord": {
			"lon": 37.240833,
			"lat": 55.757778
		}
	},
	{
		"country": "RU",
		"name": "Il’kov",
		"_id": 804056,
		"coord": {
			"lon": 44.689167,
			"lat": 47.994999
		}
	},
	{
		"country": "RU",
		"name": "Il’men’",
		"_id": 557024,
		"coord": {
			"lon": 48.755829,
			"lat": 52.901669
		}
	},
	{
		"country": "RU",
		"name": "Il’yevka",
		"_id": 556913,
		"coord": {
			"lon": 43.622501,
			"lat": 48.647499
		}
	},
	{
		"country": "CH",
		"name": "Im Fang",
		"_id": 2660268,
		"coord": {
			"lon": 7.23971,
			"lat": 46.60186
		}
	},
	{
		"country": "BE",
		"name": "Im Grünenthal",
		"_id": 2795074,
		"coord": {
			"lon": 6.05,
			"lat": 50.73333
		}
	},
	{
		"country": "DE",
		"name": "Im Vieh",
		"_id": 2896145,
		"coord": {
			"lon": 7.98333,
			"lat": 53.133331
		}
	},
	{
		"country": "ID",
		"name": "Imaan",
		"_id": 8140978,
		"coord": {
			"lon": 112.473701,
			"lat": -6.9849
		}
	},
	{
		"country": "BR",
		"name": "Imaculada",
		"_id": 3398299,
		"coord": {
			"lon": -37.509171,
			"lat": -7.38972
		}
	},
	{
		"country": "JP",
		"name": "Imaichi",
		"_id": 1861699,
		"coord": {
			"lon": 139.683334,
			"lat": 36.716671
		}
	},
	{
		"country": "IQ",
		"name": "Imam Qasim",
		"_id": 99010,
		"coord": {
			"lon": 44.682812,
			"lat": 32.297989
		}
	},
	{
		"country": "AF",
		"name": "Imam Sahib",
		"_id": 1142545,
		"coord": {
			"lon": 68.93644,
			"lat": 37.188969
		}
	},
	{
		"country": "TR",
		"name": "Imamoglu",
		"_id": 311453,
		"coord": {
			"lon": 35.657169,
			"lat": 37.26506
		}
	},
	{
		"country": "RU",
		"name": "Imandra",
		"_id": 556885,
		"coord": {
			"lon": 33.2603,
			"lat": 67.848869
		}
	},
	{
		"country": "JP",
		"name": "Imari",
		"_id": 1861677,
		"coord": {
			"lon": 129.883331,
			"lat": 33.26667
		}
	},
	{
		"country": "BR",
		"name": "Imaruí",
		"_id": 3461399,
		"coord": {
			"lon": -48.82,
			"lat": -28.341391
		}
	},
	{
		"country": "FI",
		"name": "Imatra",
		"_id": 656689,
		"coord": {
			"lon": 28.83333,
			"lat": 61.166672
		}
	},
	{
		"country": "FI",
		"name": "Imatra",
		"_id": 656688,
		"coord": {
			"lon": 28.75242,
			"lat": 61.171848
		}
	},
	{
		"country": "FI",
		"name": "Imatrankoski",
		"_id": 656685,
		"coord": {
			"lon": 28.76787,
			"lat": 61.169651
		}
	},
	{
		"country": "JP",
		"name": "Imazu",
		"_id": 1861661,
		"coord": {
			"lon": 133.316666,
			"lat": 36.166672
		}
	},
	{
		"country": "PH",
		"name": "Imbang",
		"_id": 1710971,
		"coord": {
			"lon": 123,
			"lat": 10.8
		}
	},
	{
		"country": "PH",
		"name": "Imbatug",
		"_id": 1710962,
		"coord": {
			"lon": 125.28389,
			"lat": 8.05444
		}
	},
	{
		"country": "IT",
		"name": "Imbersago",
		"_id": 6535352,
		"coord": {
			"lon": 9.44445,
			"lat": 45.705879
		}
	},
	{
		"country": "DO",
		"name": "Imbert",
		"_id": 3504332,
		"coord": {
			"lon": -70.829063,
			"lat": 19.75371
		}
	},
	{
		"country": "PR",
		"name": "Imbery",
		"_id": 4565540,
		"coord": {
			"lon": -66.552391,
			"lat": 18.43689
		}
	},
	{
		"country": "BR",
		"name": "Imbetiba",
		"_id": 3461376,
		"coord": {
			"lon": -41.783329,
			"lat": -22.383329
		}
	},
	{
		"country": "AU",
		"name": "Imbil",
		"_id": 2162760,
		"coord": {
			"lon": 152.683334,
			"lat": -26.450001
		}
	},
	{
		"country": "BR",
		"name": "Imbituba",
		"_id": 3461370,
		"coord": {
			"lon": -48.67028,
			"lat": -28.24
		}
	},
	{
		"country": "BR",
		"name": "Imbituva",
		"_id": 3461368,
		"coord": {
			"lon": -50.604439,
			"lat": -25.23
		}
	},
	{
		"country": "LU",
		"name": "Imbringen",
		"_id": 2960415,
		"coord": {
			"lon": 6.1975,
			"lat": 49.697498
		}
	},
	{
		"country": "PR",
		"name": "Imbéry Comunidad",
		"_id": 7275071,
		"coord": {
			"lon": -66.556503,
			"lat": 18.43705
		}
	},
	{
		"country": "MT",
		"name": "Imdina",
		"_id": 2562746,
		"coord": {
			"lon": 14.4025,
			"lat": 35.88694
		}
	},
	{
		"country": "MA",
		"name": "Imejoudene",
		"_id": 2546295,
		"coord": {
			"lon": -3.84713,
			"lat": 35.186779
		}
	},
	{
		"country": "PH",
		"name": "Imelda",
		"_id": 1710949,
		"coord": {
			"lon": 122.883331,
			"lat": 14.03333
		}
	},
	{
		"country": "PH",
		"name": "Imelda",
		"_id": 1710950,
		"coord": {
			"lon": 123.949997,
			"lat": 7.65
		}
	},
	{
		"country": "DE",
		"name": "Imelsbach",
		"_id": 2896401,
		"coord": {
			"lon": 7.08333,
			"lat": 51.099998
		}
	},
	{
		"country": "UA",
		"name": "Imeni Artëma",
		"_id": 707663,
		"coord": {
			"lon": 33.366669,
			"lat": 47.933331
		}
	},
	{
		"country": "RU",
		"name": "Imeni Babushkina",
		"_id": 556858,
		"coord": {
			"lon": 43.128471,
			"lat": 59.757271
		}
	},
	{
		"country": "RU",
		"name": "Imeni Chkalova",
		"_id": 802037,
		"coord": {
			"lon": 39.74889,
			"lat": 47.281391
		}
	},
	{
		"country": "RU",
		"name": "Imeni Fokina",
		"_id": 556792,
		"coord": {
			"lon": 34.41861,
			"lat": 53.212776
		}
	},
	{
		"country": "UA",
		"name": "Imeni Frunze",
		"_id": 806512,
		"coord": {
			"lon": 36.33852,
			"lat": 49.965851
		}
	},
	{
		"country": "KZ",
		"name": "Imeni Gazety Pravda",
		"_id": 609835,
		"coord": {
			"lon": 52.083332,
			"lat": 50.866669
		}
	},
	{
		"country": "RU",
		"name": "Imeni Gor’kogo",
		"_id": 2056885,
		"coord": {
			"lon": 104.23278,
			"lat": 52.299171
		}
	},
	{
		"country": "RU",
		"name": "Imeni Karla Marksa",
		"_id": 6422367,
		"coord": {
			"lon": 41.099445,
			"lat": 56.413334
		}
	},
	{
		"country": "KZ",
		"name": "Imeni Karla Marksa",
		"_id": 1523998,
		"coord": {
			"lon": 65.616669,
			"lat": 54.333328
		}
	},
	{
		"country": "KZ",
		"name": "Imeni Kirova",
		"_id": 1523987,
		"coord": {
			"lon": 69.466667,
			"lat": 42.349998
		}
	},
	{
		"country": "UA",
		"name": "Imeni Lenina",
		"_id": 707647,
		"coord": {
			"lon": 36.774723,
			"lat": 46.636112
		}
	},
	{
		"country": "RU",
		"name": "Imeni Lenina",
		"_id": 2056812,
		"coord": {
			"lon": 104.224167,
			"lat": 52.33889
		}
	},
	{
		"country": "RU",
		"name": "Imeni Lenina",
		"_id": 805883,
		"coord": {
			"lon": 36.14333,
			"lat": 51.057499
		}
	},
	{
		"country": "RU",
		"name": "Imeni Marata",
		"_id": 556601,
		"coord": {
			"lon": 42.954971,
			"lat": 53.087662
		}
	},
	{
		"country": "TM",
		"name": "Imeni Molotova",
		"_id": 1219264,
		"coord": {
			"lon": 63.616669,
			"lat": 39.066669
		}
	},
	{
		"country": "RU",
		"name": "Imeni Morozova",
		"_id": 556575,
		"coord": {
			"lon": 31.037621,
			"lat": 59.975719
		}
	},
	{
		"country": "RU",
		"name": "Imeni Pervogo Maya",
		"_id": 798335,
		"coord": {
			"lon": 39.5919,
			"lat": 50.889969
		}
	},
	{
		"country": "RU",
		"name": "Imeni Poliny Osipenko",
		"_id": 2023584,
		"coord": {
			"lon": 136.485306,
			"lat": 52.420101
		}
	},
	{
		"country": "RU",
		"name": "Imeni Stepana Razina",
		"_id": 556516,
		"coord": {
			"lon": 44.296268,
			"lat": 54.8932
		}
	},
	{
		"country": "RU",
		"name": "Imeni Sverdlova",
		"_id": 556511,
		"coord": {
			"lon": 30.665831,
			"lat": 59.796108
		}
	},
	{
		"country": "RU",
		"name": "Imeni Tsyurupy",
		"_id": 556483,
		"coord": {
			"lon": 38.650639,
			"lat": 55.49567
		}
	},
	{
		"country": "RU",
		"name": "Imeni Vladimira Ilicha Lenina",
		"_id": 556480,
		"coord": {
			"lon": 46.980099,
			"lat": 53.56422
		}
	},
	{
		"country": "RU",
		"name": "Imeni Voroshilova",
		"_id": 556470,
		"coord": {
			"lon": 44.333332,
			"lat": 48.683334
		}
	},
	{
		"country": "RU",
		"name": "Imeni Vorovskogo",
		"_id": 556462,
		"coord": {
			"lon": 41.118999,
			"lat": 55.723701
		}
	},
	{
		"country": "RU",
		"name": "Imeni Vorovskogo",
		"_id": 556463,
		"coord": {
			"lon": 38.341389,
			"lat": 55.723331
		}
	},
	{
		"country": "RU",
		"name": "Imeni Vorovskogo",
		"_id": 556464,
		"coord": {
			"lon": 40.666672,
			"lat": 55.616669
		}
	},
	{
		"country": "RU",
		"name": "Imeni Yermana",
		"_id": 556445,
		"coord": {
			"lon": 44.416668,
			"lat": 48.583332
		}
	},
	{
		"country": "RU",
		"name": "Imeni Zhelyabova",
		"_id": 556430,
		"coord": {
			"lon": 36.5956,
			"lat": 58.954399
		}
	},
	{
		"country": "PW",
		"name": "Imeong Hamlet",
		"_id": 1559864,
		"coord": {
			"lon": 134.52713,
			"lat": 7.53134
		}
	},
	{
		"country": "IT",
		"name": "Imer",
		"_id": 6535799,
		"coord": {
			"lon": 11.78919,
			"lat": 46.149311
		}
	},
	{
		"country": "GE",
		"name": "Imereti",
		"_id": 865539,
		"coord": {
			"lon": 42.98333,
			"lat": 42.166672
		}
	},
	{
		"country": "MT",
		"name": "Imgarr",
		"_id": 2562735,
		"coord": {
			"lon": 14.36639,
			"lat": 35.920559
		}
	},