[
	{
		"country": "US",
		"name": "J and L Trailer Court",
		"_id": 5696460,
		"coord": {
			"lon": -103.069908,
			"lat": 42.829418
		}
	},
	{
		"country": "BR",
		"name": "J. M. Péres",
		"_id": 3459872,
		"coord": {
			"lon": -51.966671,
			"lat": -18.23333
		}
	},
	{
		"country": "MP",
		"name": "JP Tinian Town pre-WW2",
		"_id": 4041558,
		"coord": {
			"lon": 145.624374,
			"lat": 14.96874
		}
	},
	{
		"country": "LK",
		"name": "Ja Ela",
		"_id": 1242835,
		"coord": {
			"lon": 79.891899,
			"lat": 7.0744
		}
	},
	{
		"country": "FI",
		"name": "Jaala",
		"_id": 656183,
		"coord": {
			"lon": 26.48333,
			"lat": 61.049999
		}
	},
	{
		"country": "YE",
		"name": "Jaar",
		"_id": 74368,
		"coord": {
			"lon": 45.30558,
			"lat": 13.223
		}
	},
	{
		"country": "PS",
		"name": "Jaba",
		"_id": 283570,
		"coord": {
			"lon": 35.221321,
			"lat": 32.324089
		}
	},
	{
		"country": "PS",
		"name": "Jaba",
		"_id": 283571,
		"coord": {
			"lon": 35.258678,
			"lat": 31.857269
		}
	},
	{
		"country": "DE",
		"name": "Jabach",
		"_id": 2895528,
		"coord": {
			"lon": 6.9,
			"lat": 49.400002
		}
	},
	{
		"country": "ID",
		"name": "Jabajero",
		"_id": 7529289,
		"coord": {
			"lon": 115.175018,
			"lat": -8.72767
		}
	},
	{
		"country": "SD",
		"name": "Jabal Mayyah",
		"_id": 373463,
		"coord": {
			"lon": 33.333328,
			"lat": 13.5
		}
	},
	{
		"country": "AF",
		"name": "Jabal os Saraj",
		"_id": 1139807,
		"coord": {
			"lon": 69.237778,
			"lat": 35.118328
		}
	},
	{
		"country": "ID",
		"name": "Jabalan",
		"_id": 7579621,
		"coord": {
			"lon": 111.966599,
			"lat": -8.0822
		}
	},
	{
		"country": "ES",
		"name": "Jabaloyas",
		"_id": 6361538,
		"coord": {
			"lon": -1.40806,
			"lat": 40.237041
		}
	},
	{
		"country": "ES",
		"name": "Jabaloyas",
		"_id": 3120215,
		"coord": {
			"lon": -1.40886,
			"lat": 40.240101
		}
	},
	{
		"country": "IN",
		"name": "Jabalpur",
		"_id": 1269633,
		"coord": {
			"lon": 79.950058,
			"lat": 23.166969
		}
	},
	{
		"country": "ES",
		"name": "Jabalquinto",
		"_id": 6358499,
		"coord": {
			"lon": -3.76009,
			"lat": 38.01757
		}
	},
	{
		"country": "ES",
		"name": "Jabalquinto",
		"_id": 2516404,
		"coord": {
			"lon": -3.72512,
			"lat": 38.019348
		}
	},
	{
		"country": "PS",
		"name": "Jabalya",
		"_id": 281129,
		"coord": {
			"lon": 34.48634,
			"lat": 31.52722
		}
	},
	{
		"country": "ES",
		"name": "Jabalí Nuevo",
		"_id": 2516406,
		"coord": {
			"lon": -1.21697,
			"lat": 37.986019
		}
	},
	{
		"country": "ES",
		"name": "Jabares de los Oteros",
		"_id": 3120214,
		"coord": {
			"lon": -5.51135,
			"lat": 42.413071
		}
	},
	{
		"country": "MH",
		"name": "Jabat",
		"_id": 7306526,
		"coord": {
			"lon": 168.975128,
			"lat": 7.75003
		}
	},
	{
		"country": "BE",
		"name": "Jabbeke",
		"_id": 2795001,
		"coord": {
			"lon": 3.09502,
			"lat": 51.18504
		}
	},
	{
		"country": "BE",
		"name": "Jabbeke",
		"_id": 2794999,
		"coord": {
			"lon": 3.08935,
			"lat": 51.18185
		}
	},
	{
		"country": "DE",
		"name": "Jabel",
		"_id": 2895525,
		"coord": {
			"lon": 12.44253,
			"lat": 53.16983
		}
	},
	{
		"country": "DE",
		"name": "Jabel",
		"_id": 6548062,
		"coord": {
			"lon": 12.55,
			"lat": 53.549999
		}
	},
	{
		"country": "DE",
		"name": "Jabel",
		"_id": 2895524,
		"coord": {
			"lon": 12.55,
			"lat": 53.549999
		}
	},
	{
		"country": "CH",
		"name": "Jaberg",
		"_id": 7286157,
		"coord": {
			"lon": 7.56586,
			"lat": 46.81942
		}
	},
	{
		"country": "CH",
		"name": "Jaberg",
		"_id": 6935404,
		"coord": {
			"lon": 7.56919,
			"lat": 46.817959
		}
	},
	{
		"country": "AT",
		"name": "Jabing",
		"_id": 7871627,
		"coord": {
			"lon": 16.27754,
			"lat": 47.237122
		}
	},
	{
		"country": "AT",
		"name": "Jabing",
		"_id": 2775163,
		"coord": {
			"lon": 16.283331,
			"lat": 47.25
		}
	},
	{
		"country": "TN",
		"name": "Jabinyanah",
		"_id": 2470260,
		"coord": {
			"lon": 10.90809,
			"lat": 35.035
		}
	},
	{
		"country": "SY",
		"name": "Jablah",
		"_id": 169304,
		"coord": {
			"lon": 35.925621,
			"lat": 35.36137
		}
	},
	{
		"country": "BA",
		"name": "Jablanica",
		"_id": 3344411,
		"coord": {
			"lon": 17.761669,
			"lat": 43.660278
		}
	},
	{
		"country": "HR",
		"name": "Jablanovec",
		"_id": 3198994,
		"coord": {
			"lon": 15.85361,
			"lat": 45.875832
		}
	},
	{
		"country": "PL",
		"name": "Jablon",
		"_id": 770731,
		"coord": {
			"lon": 23.087429,
			"lat": 51.72501
		}
	},
	{
		"country": "CZ",
		"name": "Jablonec nad Jizerou",
		"_id": 3074604,
		"coord": {
			"lon": 15.42959,
			"lat": 50.703468
		}
	},
	{
		"country": "CZ",
		"name": "Jablonec nad Nisou",
		"_id": 3074603,
		"coord": {
			"lon": 15.17108,
			"lat": 50.724312
		}
	},
	{
		"country": "PL",
		"name": "Jablonica Polska",
		"_id": 770724,
		"coord": {
			"lon": 21.899611,
			"lat": 49.697842
		}
	},
	{
		"country": "PL",
		"name": "Jablonka",
		"_id": 770721,
		"coord": {
			"lon": 22.11565,
			"lat": 49.694172
		}
	},
	{
		"country": "PL",
		"name": "Jablonka",
		"_id": 3097823,
		"coord": {
			"lon": 19.693701,
			"lat": 49.479679
		}
	},
	{
		"country": "PL",
		"name": "Jablonna",
		"_id": 770706,
		"coord": {
			"lon": 20.91745,
			"lat": 52.378849
		}
	},
	{
		"country": "PL",
		"name": "Jablonna",
		"_id": 770711,
		"coord": {
			"lon": 22.593639,
			"lat": 51.088749
		}
	},
	{
		"country": "PL",
		"name": "Jablonna",
		"_id": 3097813,
		"coord": {
			"lon": 16.207411,
			"lat": 52.205978
		}
	},
	{
		"country": "PL",
		"name": "Jablonna Lacka",
		"_id": 770705,
		"coord": {
			"lon": 22.44228,
			"lat": 52.476639
		}
	},
	{
		"country": "CZ",
		"name": "Jablonne nad Orlici",
		"_id": 3074598,
		"coord": {
			"lon": 16.60059,
			"lat": 50.02964
		}
	},
	{
		"country": "CZ",
		"name": "Jablonne v Podjestedi",
		"_id": 3074597,
		"coord": {
			"lon": 14.76052,
			"lat": 50.765282
		}
	},
	{
		"country": "PL",
		"name": "Jablonowo Pomorskie",
		"_id": 3097808,
		"coord": {
			"lon": 19.15509,
			"lat": 53.391369
		}
	},
	{
		"country": "CZ",
		"name": "Jablunka",
		"_id": 3074594,
		"coord": {
			"lon": 17.950211,
			"lat": 49.383549
		}
	},
	{
		"country": "CZ",
		"name": "Jablunkov",
		"_id": 3074593,
		"coord": {
			"lon": 18.76458,
			"lat": 49.576721
		}
	},
	{
		"country": "BR",
		"name": "Jaboatao",
		"_id": 3397838,
		"coord": {
			"lon": -35.001389,
			"lat": -8.18028
		}
	},
	{
		"country": "BR",
		"name": "Jaboatao dos Guararapes",
		"_id": 6317344,
		"coord": {
			"lon": -35.014721,
			"lat": -8.11278
		}
	},
	{
		"country": "BR",
		"name": "Jaboatão dos Guararapes",
		"_id": 6320527,
		"coord": {
			"lon": -34.973808,
			"lat": -8.14568
		}
	},
	{
		"country": "ID",
		"name": "Jabon",
		"_id": 7034573,
		"coord": {
			"lon": 111.965103,
			"lat": -8.1645
		}
	},
	{
		"country": "PH",
		"name": "Jabonga",
		"_id": 1710399,
		"coord": {
			"lon": 125.515556,
			"lat": 9.34306
		}
	},
	{
		"country": "MH",
		"name": "Jabor",
		"_id": 2080422,
		"coord": {
			"lon": 169.643356,
			"lat": 5.92098
		}
	},
	{
		"country": "BR",
		"name": "Jaborandi",
		"_id": 3460471,
		"coord": {
			"lon": -48.412498,
			"lat": -20.688061
		}
	},
	{
		"country": "BR",
		"name": "Jaborá",
		"_id": 3460472,
		"coord": {
			"lon": -51.733608,
			"lat": -27.175831
		}
	},
	{
		"country": "BR",
		"name": "Jaboticabal",
		"_id": 3460441,
		"coord": {
			"lon": -48.32222,
			"lat": -21.254721
		}
	},
	{
		"country": "BR",
		"name": "Jaboticatubas",
		"_id": 3460450,
		"coord": {
			"lon": -43.744999,
			"lat": -19.513611
		}
	},
	{
		"country": "ID",
		"name": "Jabranti",
		"_id": 8073894,
		"coord": {
			"lon": 108.678001,
			"lat": -7.1198
		}
	},
	{
		"country": "FR",
		"name": "Jabreilles-les-Bordes",
		"_id": 6451734,
		"coord": {
			"lon": 1.53333,
			"lat": 46.01667
		}
	},
	{
		"country": "FR",
		"name": "Jabreilles-les-Bordes",
		"_id": 3012585,
		"coord": {
			"lon": 1.53333,
			"lat": 46.01667
		}
	},
	{
		"country": "ES",
		"name": "Jabugo",
		"_id": 6358219,
		"coord": {
			"lon": -6.74575,
			"lat": 37.912521
		}
	},
	{
		"country": "ES",
		"name": "Jabugo",
		"_id": 2516401,
		"coord": {
			"lon": -6.72968,
			"lat": 37.916222
		}
	},
	{
		"country": "AU",
		"name": "Jabuk",
		"_id": 2162532,
		"coord": {
			"lon": 140.066666,
			"lat": -35.400002
		}
	},
	{
		"country": "ID",
		"name": "Jabung",
		"_id": 1642954,
		"coord": {
			"lon": 105.667519,
			"lat": -5.46314
		}
	},
	{
		"country": "ID",
		"name": "Jabung",
		"_id": 7375185,
		"coord": {
			"lon": 112.264603,
			"lat": -8.1343
		}
	},
	{
		"country": "ID",
		"name": "Jabung",
		"_id": 8079935,
		"coord": {
			"lon": 112.2295,
			"lat": -6.9963
		}
	},
	{
		"country": "PL",
		"name": "Jabłonka",
		"_id": 7531173,
		"coord": {
			"lon": 19.67219,
			"lat": 49.505051
		}
	},
	{
		"country": "PL",
		"name": "Jabłonna",
		"_id": 7531479,
		"coord": {
			"lon": 20.870701,
			"lat": 52.39362
		}
	},
	{
		"country": "ES",
		"name": "Jaca",
		"_id": 6358357,
		"coord": {
			"lon": -0.54094,
			"lat": 42.57605
		}
	},
	{
		"country": "ES",
		"name": "Jaca",
		"_id": 3120211,
		"coord": {
			"lon": -0.54987,
			"lat": 42.568981
		}
	},
	{
		"country": "MX",
		"name": "Jacala",
		"_id": 3526646,
		"coord": {
			"lon": -99.183327,
			"lat": 21.01667
		}
	},
	{
		"country": "HN",
		"name": "Jacaleapa",
		"_id": 3608798,
		"coord": {
			"lon": -86.666672,
			"lat": 14.01667
		}
	},
	{
		"country": "GT",
		"name": "Jacaltenango",
		"_id": 3595248,
		"coord": {
			"lon": -91.73333,
			"lat": 15.66667
		}
	},
	{
		"country": "BR",
		"name": "Jacaraci",
		"_id": 3460434,
		"coord": {
			"lon": -42.433331,
			"lat": -14.84972
		}
	},
	{
		"country": "BR",
		"name": "Jacarau",
		"_id": 3397800,
		"coord": {
			"lon": -35.292782,
			"lat": -6.61222
		}
	},
	{
		"country": "BR",
		"name": "Jacareacanga",
		"_id": 3397763,
		"coord": {
			"lon": -57.752781,
			"lat": -6.22222
		}
	},
	{
		"country": "BR",
		"name": "Jacarei",
		"_id": 3460370,
		"coord": {
			"lon": -45.965832,
			"lat": -23.305281
		}
	},
	{
		"country": "BR",
		"name": "Jacarezinho",
		"_id": 3460362,
		"coord": {
			"lon": -49.96944,
			"lat": -23.160561
		}
	},
	{
		"country": "ES",
		"name": "Jacarilla",
		"_id": 6355456,
		"coord": {
			"lon": -0.86443,
			"lat": 38.060799
		}
	},
	{
		"country": "ES",
		"name": "Jacarilla",
		"_id": 2516399,
		"coord": {
			"lon": -0.86822,
			"lat": 38.062469
		}
	},
	{
		"country": "BR",
		"name": "Jacaré Mirim",
		"_id": 3397758,
		"coord": {
			"lon": -35.349998,
			"lat": -5.78333
		}
	},
	{
		"country": "BR",
		"name": "Jacaré dos Homens",
		"_id": 3397761,
		"coord": {
			"lon": -37.20472,
			"lat": -9.63556
		}
	},
	{
		"country": "DE",
		"name": "Jachenau",
		"_id": 6556125,
		"coord": {
			"lon": 11.4333,
			"lat": 47.599998
		}
	},
	{
		"country": "DE",
		"name": "Jachenau",
		"_id": 2895517,
		"coord": {
			"lon": 11.43381,
			"lat": 47.60574
		}
	},
	{
		"country": "DE",
		"name": "Jachenhausen",
		"_id": 2895515,
		"coord": {
			"lon": 11.7,
			"lat": 48.98333
		}
	},
	{
		"country": "CZ",
		"name": "Jachymov",
		"_id": 3074587,
		"coord": {
			"lon": 12.93465,
			"lat": 50.358459
		}
	},
	{
		"country": "BR",
		"name": "Jaci",
		"_id": 3460358,
		"coord": {
			"lon": -49.57,
			"lat": -20.882219
		}
	},
	{
		"country": "BR",
		"name": "Jaciara",
		"_id": 3460355,
		"coord": {
			"lon": -54.96833,
			"lat": -15.96528
		}
	},
	{
		"country": "US",
		"name": "Jacinto",
		"_id": 5696463,
		"coord": {
			"lon": -103.404099,
			"lat": 41.225811
		}
	},
	{
		"country": "AR",
		"name": "Jacinto Arauz",
		"_id": 3853592,
		"coord": {
			"lon": -63.43169,
			"lat": -38.08606
		}
	},
	{
		"country": "US",
		"name": "Jacinto City",
		"_id": 4700401,
		"coord": {
			"lon": -95.233818,
			"lat": 29.76745
		}
	},
	{
		"country": "BR",
		"name": "Jacinto Machado",
		"_id": 3460351,
		"coord": {
			"lon": -49.763611,
			"lat": -28.997499
		}
	},
	{
		"country": "US",
		"name": "Jack",
		"_id": 4046760,
		"coord": {
			"lon": -77.509148,
			"lat": 37.196541
		}
	},
	{
		"country": "US",
		"name": "Jack Pine",
		"_id": 5828620,
		"coord": {
			"lon": -110.434067,
			"lat": 43.32605
		}
	},
	{
		"country": "DE",
		"name": "Jackerath",
		"_id": 2895502,
		"coord": {
			"lon": 6.45,
			"lat": 51.033329
		}
	},
	{
		"country": "AU",
		"name": "Jackeys Marsh",
		"_id": 2162513,
		"coord": {
			"lon": 146.649994,
			"lat": -41.666672
		}
	},
	{
		"country": "US",
		"name": "Jackpot",
		"_id": 5705218,
		"coord": {
			"lon": -114.674759,
			"lat": 41.983238
		}
	},
	{
		"country": "US",
		"name": "Jacksboro",
		"_id": 4632591,
		"coord": {
			"lon": -84.183823,
			"lat": 36.330078
		}
	},
	{
		"country": "US",
		"name": "Jacksboro",
		"_id": 4700455,
		"coord": {
			"lon": -98.158661,
			"lat": 33.218449
		}
	},
	{
		"country": "US",
		"name": "Jackson",
		"_id": 4241691,
		"coord": {
			"lon": -87.650299,
			"lat": 38.721161
		}
	},
	{
		"country": "AU",
		"name": "Jackson",
		"_id": 2162488,
		"coord": {
			"lon": 149.616669,
			"lat": -26.65
		}
	},
	{
		"country": "BB",
		"name": "Jackson",
		"_id": 3373768,
		"coord": {
			"lon": -59.599998,
			"lat": 13.15
		}
	},
	{
		"country": "US",
		"name": "Jackson",
		"_id": 5031678,
		"coord": {
			"lon": -94.988602,
			"lat": 43.620789
		}
	},
	{
		"country": "US",
		"name": "Jackson",
		"_id": 4431410,
		"coord": {
			"lon": -90.184807,
			"lat": 32.298759
		}
	},
	{
		"country": "US",
		"name": "Jackson",
		"_id": 4502434,
		"coord": {
			"lon": -74.862381,
			"lat": 39.776501
		}
	},
	{
		"country": "US",
		"name": "Jackson",
		"_id": 4632595,
		"coord": {
			"lon": -88.81395,
			"lat": 35.614521
		}
	},
	{
		"country": "US",
		"name": "Jackson",
		"_id": 4997384,
		"coord": {
			"lon": -84.401352,
			"lat": 42.245869
		}
	},
	{
		"country": "US",
		"name": "Jackson",
		"_id": 4069458,
		"coord": {
			"lon": -87.89444,
			"lat": 31.50905
		}
	},
	{
		"country": "US",
		"name": "Jackson",
		"_id": 4202426,
		"coord": {
			"lon": -83.966019,
			"lat": 33.294571
		}
	},
	{
		"country": "US",
		"name": "Jackson",
		"_id": 4296081,
		"coord": {
			"lon": -83.383507,
			"lat": 37.55315
		}
	},
	{
		"country": "US",
		"name": "Jackson",
		"_id": 4296082,
		"coord": {
			"lon": -84.870789,
			"lat": 37.825081
		}
	},
	{
		"country": "US",
		"name": "Jackson",
		"_id": 4328824,
		"coord": {
			"lon": -91.217613,
			"lat": 30.8374
		}
	},
	{
		"country": "US",
		"name": "Jackson",
		"_id": 4392163,
		"coord": {
			"lon": -89.666206,
			"lat": 37.382271
		}
	},
	{
		"country": "US",
		"name": "Jackson",
		"_id": 4473017,
		"coord": {
			"lon": -77.421356,
			"lat": 36.389599
		}
	},
	{
		"country": "US",
		"name": "Jackson",
		"_id": 4515318,
		"coord": {
			"lon": -82.636551,
			"lat": 39.052021
		}
	},
	{
		"country": "US",
		"name": "Jackson",
		"_id": 4583213,
		"coord": {
			"lon": -81.787888,
			"lat": 33.32542
		}
	},
	{
		"country": "US",
		"name": "Jackson",
		"_id": 5257669,
		"coord": {
			"lon": -88.166763,
			"lat": 43.323891
		}
	},
	{
		"country": "US",
		"name": "Jackson",
		"_id": 5360160,
		"coord": {
			"lon": -120.774101,
			"lat": 38.348801
		}
	},
	{
		"country": "US",
		"name": "Jackson",
		"_id": 5828648,
		"coord": {
			"lon": -110.762428,
			"lat": 43.479931
		}
	},
	{
		"country": "US",
		"name": "Jackson Center",
		"_id": 5158960,
		"coord": {
			"lon": -84.040222,
			"lat": 40.439491
		}
	},
	{
		"country": "US",
		"name": "Jackson County",
		"_id": 4431425,
		"coord": {
			"lon": -88.6278,
			"lat": 30.42325
		}
	},
	{
		"country": "US",
		"name": "Jackson County",
		"_id": 4539499,
		"coord": {
			"lon": -99.383698,
			"lat": 34.616741
		}
	},
	{
		"country": "US",
		"name": "Jackson County",
		"_id": 4116263,
		"coord": {
			"lon": -91.200127,
			"lat": 35.600079
		}
	},
	{
		"country": "US",
		"name": "Jackson County",
		"_id": 4392183,
		"coord": {
			"lon": -94.350227,
			"lat": 39.01667
		}
	},
	{
		"country": "US",
		"name": "Jackson County",
		"_id": 5578418,
		"coord": {
			"lon": -106.333923,
			"lat": 40.666641
		}
	},
	{
		"country": "US",
		"name": "Jackson County",
		"_id": 4997389,
		"coord": {
			"lon": -84.416618,
			"lat": 42.250591
		}
	},
	{
		"country": "US",
		"name": "Jackson County",
		"_id": 5765964,
		"coord": {
			"lon": -101.675423,
			"lat": 43.686111
		}
	},
	{
		"country": "US",
		"name": "Jackson County",
		"_id": 4259572,
		"coord": {
			"lon": -86.041924,
			"lat": 38.878941
		}
	},
	{
		"country": "US",
		"name": "Jackson County",
		"_id": 5733351,
		"coord": {
			"lon": -122.83448,
			"lat": 42.416512
		}
	},
	{
		"country": "US",
		"name": "Jackson County",
		"_id": 4069472,
		"coord": {
			"lon": -86.000259,
			"lat": 34.76675
		}
	},
	{
		"country": "US",
		"name": "Jackson County",
		"_id": 4241687,
		"coord": {
			"lon": -89.35009,
			"lat": 37.76672
		}
	},
	{
		"country": "US",
		"name": "Jackson County",
		"_id": 4862320,
		"coord": {
			"lon": -90.583458,
			"lat": 42.166679
		}
	},
	{
		"country": "US",
		"name": "Jackson County",
		"_id": 4159990,
		"coord": {
			"lon": -85.166603,
			"lat": 30.791861
		}
	},
	{
		"country": "US",
		"name": "Jackson County",
		"_id": 4296106,
		"coord": {
			"lon": -84.000481,
			"lat": 37.416752
		}
	},
	{
		"country": "US",
		"name": "Jackson County",
		"_id": 5031682,
		"coord": {
			"lon": -94.87471,
			"lat": 43.625511
		}
	},
	{
		"country": "US",
		"name": "Jackson Parish",
		"_id": 4328854,
		"coord": {
			"lon": -92.550148,
			"lat": 32.333488
		}
	},
	{
		"country": "US",
		"name": "Jacksonburg",
		"_id": 5099767,
		"coord": {
			"lon": -74.980453,
			"lat": 40.99176
		}
	},
	{
		"country": "US",
		"name": "Jacksonville",
		"_id": 4241704,
		"coord": {
			"lon": -90.229012,
			"lat": 39.73394
		}
	},
	{
		"country": "US",
		"name": "Jacksonville",
		"_id": 4116315,
		"coord": {
			"lon": -92.110153,
			"lat": 34.866199
		}
	},
	{
		"country": "US",
		"name": "Jacksonville",
		"_id": 4160021,
		"coord": {
			"lon": -81.655647,
			"lat": 30.33218
		}
	},
	{
		"country": "US",
		"name": "Jacksonville",
		"_id": 4473083,
		"coord": {
			"lon": -77.430237,
			"lat": 34.754051
		}
	},
	{
		"country": "US",
		"name": "Jacksonville",
		"_id": 4069553,
		"coord": {
			"lon": -85.761353,
			"lat": 33.813709
		}
	},
	{
		"country": "US",
		"name": "Jacksonville",
		"_id": 4700550,
		"coord": {
			"lon": -95.2705,
			"lat": 31.963779
		}
	},
	{
		"country": "US",
		"name": "Jacksonville",
		"_id": 5733409,
		"coord": {
			"lon": -122.966988,
			"lat": 42.313461
		}
	},
	{
		"country": "US",
		"name": "Jacksonville Beach",
		"_id": 4160023,
		"coord": {
			"lon": -81.393143,
			"lat": 30.294689
		}
	},
	{
		"country": "US",
		"name": "Jacksonwald",
		"_id": 5195186,
		"coord": {
			"lon": -75.849648,
			"lat": 40.324539
		}
	},
	{
		"country": "ZA",
		"name": "Jackson’s Drift",
		"_id": 994334,
		"coord": {
			"lon": 27.98901,
			"lat": -26.33201
		}
	},
	{
		"country": "PH",
		"name": "Jaclupan",
		"_id": 1710395,
		"coord": {
			"lon": 123.816673,
			"lat": 10.3
		}
	},
	{
		"country": "HT",
		"name": "Jacmel",
		"_id": 3723779,
		"coord": {
			"lon": -72.534721,
			"lat": 18.234171
		}
	},
	{
		"country": "CR",
		"name": "Jaco",
		"_id": 3623369,
		"coord": {
			"lon": -84.629753,
			"lat": 9.61497
		}
	},
	{
		"country": "FR",
		"name": "Jacob-Bellecombette",
		"_id": 3012577,
		"coord": {
			"lon": 5.9116,
			"lat": 45.55275
		}
	},
	{
		"country": "PK",
		"name": "Jacobabad",
		"_id": 1176515,
		"coord": {
			"lon": 68.438759,
			"lat": 28.281
		}
	},
	{
		"country": "BR",
		"name": "Jacobina",
		"_id": 3460344,
		"coord": {
			"lon": -40.51833,
			"lat": -11.18056
		}
	},
	{
		"country": "ZA",
		"name": "Jacobs",
		"_id": 994321,
		"coord": {
			"lon": 30.98333,
			"lat": -29.91667
		}
	},
	{
		"country": "DE",
		"name": "Jacobsdorf",
		"_id": 6551093,
		"coord": {
			"lon": 14.3667,
			"lat": 52.354198
		}
	},
	{
		"country": "DE",
		"name": "Jacobsdorf",
		"_id": 2895248,
		"coord": {
			"lon": 14.35,
			"lat": 52.333328
		}
	},
	{
		"country": "GB",
		"name": "Jacobstow",
		"_id": 7300012,
		"coord": {
			"lon": -4.5478,
			"lat": 50.732971
		}
	},
	{
		"country": "GB",
		"name": "Jacobstow",
		"_id": 2645979,
		"coord": {
			"lon": -4.55,
			"lat": 50.73333
		}
	},
	{
		"country": "GB",
		"name": "Jacobstowe",
		"_id": 2645978,
		"coord": {
			"lon": -4.00637,
			"lat": 50.796459
		}
	},
	{
		"country": "US",
		"name": "Jacobus",
		"_id": 4558838,
		"coord": {
			"lon": -76.710518,
			"lat": 39.88316
		}
	},
	{
		"country": "FR",
		"name": "Jacou",
		"_id": 3012576,
		"coord": {
			"lon": 3.91222,
			"lat": 43.661388
		}
	},
	{
		"country": "CI",
		"name": "Jacqueville",
		"_id": 2287778,
		"coord": {
			"lon": -4.4146,
			"lat": 5.20515
		}
	},
	{
		"country": "BR",
		"name": "Jacupiranga",
		"_id": 3460281,
		"coord": {
			"lon": -48.00222,
			"lat": -24.692499
		}
	},
	{
		"country": "VE",
		"name": "Jacura",
		"_id": 3639282,
		"coord": {
			"lon": -68.856041,
			"lat": 11.07417
		}
	},
	{
		"country": "IT",
		"name": "Jacurso",
		"_id": 6535317,
		"coord": {
			"lon": 16.379801,
			"lat": 38.846489
		}
	},
	{
		"country": "BR",
		"name": "Jacutinga",
		"_id": 3460267,
		"coord": {
			"lon": -46.612221,
			"lat": -22.285561
		}
	},
	{
		"country": "DE",
		"name": "Jaderberg",
		"_id": 2895474,
		"coord": {
			"lon": 8.18717,
			"lat": 53.338249
		}
	},
	{
		"country": "ID",
		"name": "Jadho",
		"_id": 7569959,
		"coord": {
			"lon": 121.051102,
			"lat": -8.8428
		}
	},
	{
		"country": "ID",
		"name": "Jadi",
		"_id": 8061009,
		"coord": {
			"lon": 111.271698,
			"lat": -6.7772
		}
	},
	{
		"country": "ID",
		"name": "Jadi",
		"_id": 8076549,
		"coord": {
			"lon": 111.991798,
			"lat": -6.9603
		}
	},
	{
		"country": "ID",
		"name": "Jadikrajan",
		"_id": 8078533,
		"coord": {
			"lon": 112.003601,
			"lat": -6.9292
		}
	},
	{
		"country": "PL",
		"name": "Jadow",
		"_id": 770662,
		"coord": {
			"lon": 21.63199,
			"lat": 52.478489
		}
	},
	{
		"country": "PL",
		"name": "Jadowniki",
		"_id": 770661,
		"coord": {
			"lon": 20.644341,
			"lat": 49.958839
		}
	},
	{
		"country": "PL",
		"name": "Jadowniki Mokre",
		"_id": 770659,
		"coord": {
			"lon": 20.728451,
			"lat": 50.165459
		}
	},
	{
		"country": "HR",
		"name": "Jadranovo",
		"_id": 3198964,
		"coord": {
			"lon": 14.61833,
			"lat": 45.23111
		}
	},
	{
		"country": "RS",
		"name": "Jadranska Lesnica",
		"_id": 3198963,
		"coord": {
			"lon": 19.353609,
			"lat": 44.599171
		}
	},
	{
		"country": "ES",
		"name": "Jadraque",
		"_id": 6357932,
		"coord": {
			"lon": -2.92923,
			"lat": 40.922531
		}
	},
	{
		"country": "ES",
		"name": "Jadraque",
		"_id": 3120209,
		"coord": {
			"lon": -2.92468,
			"lat": 40.924541
		}
	},
	{
		"country": "DK",
		"name": "Jaegerspris",
		"_id": 2619287,
		"coord": {
			"lon": 11.96786,
			"lat": 55.855438
		}
	},
	{
		"country": "PE",
		"name": "Jaen",
		"_id": 3696150,
		"coord": {
			"lon": -78.804718,
			"lat": -5.70806
		}
	},
	{
		"country": "ES",
		"name": "Jaen",
		"_id": 2516395,
		"coord": {
			"lon": -3.78333,
			"lat": 37.76667
		}
	},
	{
		"country": "PH",
		"name": "Jaen",
		"_id": 1710390,
		"coord": {
			"lon": 120.900002,
			"lat": 15.36667
		}
	},
	{
		"country": "PH",
		"name": "Jaen",
		"_id": 1710389,
		"coord": {
			"lon": 120.919197,
			"lat": 15.3275
		}
	},
	{
		"country": "PH",
		"name": "Jaena",
		"_id": 1710387,
		"coord": {
			"lon": 122.400002,
			"lat": 11.41667
		}
	},
	{
		"country": "SE",
		"name": "Jaervsoe",
		"_id": 2703145,
		"coord": {
			"lon": 16.16667,
			"lat": 61.716671
		}
	},
	{
		"country": "IN",
		"name": "Jafarpur",
		"_id": 1348944,
		"coord": {
			"lon": 88.23056,
			"lat": 22.320829
		}
	},
	{
		"country": "LK",
		"name": "Jaffna",
		"_id": 1242833,
		"coord": {
			"lon": 80.007423,
			"lat": 9.66845
		}
	},
	{
		"country": "US",
		"name": "Jaffrey",
		"_id": 5088061,
		"coord": {
			"lon": -72.02314,
			"lat": 42.813969
		}
	},
	{
		"country": "ES",
		"name": "Jafre",
		"_id": 6534070,
		"coord": {
			"lon": 3.01121,
			"lat": 42.073528
		}
	},
	{
		"country": "ES",
		"name": "Jafre",
		"_id": 3120206,
		"coord": {
			"lon": 3.01062,
			"lat": 42.07254
		}
	},
	{
		"country": "ID",
		"name": "Jaga",
		"_id": 8052152,
		"coord": {
			"lon": 108.268997,
			"lat": -7.0451
		}
	},
	{
		"country": "ID",
		"name": "Jagabaya Dua",
		"_id": 8054316,
		"coord": {
			"lon": 108.3946,
			"lat": -7.1053
		}
	},
	{
		"country": "IN",
		"name": "Jagadhri",
		"_id": 1269605,
		"coord": {
			"lon": 77.300003,
			"lat": 30.16667
		}
	},
	{
		"country": "ID",
		"name": "Jagakarsa",
		"_id": 1642941,
		"coord": {
			"lon": 106.821404,
			"lat": -6.3341
		}
	},
	{
		"country": "IN",
		"name": "Jagalur",
		"_id": 1269602,
		"coord": {
			"lon": 76.349998,
			"lat": 14.53333
		}
	},
	{
		"country": "IN",
		"name": "Jagannathpur",
		"_id": 1269592,
		"coord": {
			"lon": 85.650002,
			"lat": 22.23333
		}
	},
	{
		"country": "ID",
		"name": "Jagara",
		"_id": 8054155,
		"coord": {
			"lon": 108.417297,
			"lat": -7.0092
		}
	},
	{
		"country": "ID",
		"name": "Jagasari",
		"_id": 8052178,
		"coord": {
			"lon": 108.367599,
			"lat": -7.0065
		}
	},
	{
		"country": "IN",
		"name": "Jagatpura",
		"_id": 8030622,
		"coord": {
			"lon": 75.825577,
			"lat": 26.837749
		}
	},
	{
		"country": "IN",
		"name": "Jagatsinghapur",
		"_id": 1269581,
		"coord": {
			"lon": 86.166672,
			"lat": 20.26667
		}
	},
	{
		"country": "IN",
		"name": "Jagdalpur",
		"_id": 1269578,
		"coord": {
			"lon": 82.033333,
			"lat": 19.066669
		}
	},
	{
		"country": "CN",
		"name": "Jagdaqi",
		"_id": 2036597,
		"coord": {
			"lon": 124.116669,
			"lat": 50.416672
		}
	},
	{
		"country": "IN",
		"name": "Jagdispur",
		"_id": 1269573,
		"coord": {
			"lon": 84.416672,
			"lat": 25.48333
		}
	},
	{
		"country": "DE",
		"name": "Jagdshof",
		"_id": 2895448,
		"coord": {
			"lon": 11.23333,
			"lat": 50.366669
		}
	},
	{
		"country": "DE",
		"name": "Jagel",
		"_id": 6551968,
		"coord": {
			"lon": 9.5371,
			"lat": 54.452202
		}
	},
	{
		"country": "DE",
		"name": "Jagel",
		"_id": 2895445,
		"coord": {
			"lon": 9.53759,
			"lat": 54.45652
		}
	},
	{
		"country": "ID",
		"name": "Jager",
		"_id": 1642932,
		"coord": {
			"lon": 107.944603,
			"lat": -7.177
		}
	},
	{
		"country": "AT",
		"name": "Jagerberg",
		"_id": 7872292,
		"coord": {
			"lon": 15.73491,
			"lat": 46.855049
		}
	},
	{
		"country": "AT",
		"name": "Jagerberg",
		"_id": 2775155,
		"coord": {
			"lon": 15.73806,
			"lat": 46.853611
		}
	},
	{
		"country": "ZA",
		"name": "Jagersfontein",
		"_id": 994257,
		"coord": {
			"lon": 25.427059,
			"lat": -29.761259
		}
	},
	{
		"country": "IN",
		"name": "Jaggayyapeta",
		"_id": 1269570,
		"coord": {
			"lon": 80.099998,
			"lat": 16.9
		}
	},
	{
		"country": "PL",
		"name": "Jagiella",
		"_id": 770647,
		"coord": {
			"lon": 22.572611,
			"lat": 50.094601
		}
	},
	{
		"country": "ID",
		"name": "Jagirsidosermo",
		"_id": 1985537,
		"coord": {
			"lon": 112.754532,
			"lat": -7.30678
		}
	},
	{
		"country": "AT",
		"name": "Jagleck",
		"_id": 2775143,
		"coord": {
			"lon": 13.33333,
			"lat": 48.099998
		}
	},
	{
		"country": "PH",
		"name": "Jagna",
		"_id": 1710378,
		"coord": {
			"lon": 124.369698,
			"lat": 9.6531
		}
	},
	{
		"country": "IN",
		"name": "Jagnair",
		"_id": 1269567,
		"coord": {
			"lon": 77.599998,
			"lat": 26.866671
		}
	},
	{
		"country": "RS",
		"name": "Jagodina",
		"_id": 789923,
		"coord": {
			"lon": 21.26222,
			"lat": 43.981392
		}
	},
	{
		"country": "BG",
		"name": "Jagodina",
		"_id": 6461265,
		"coord": {
			"lon": 24.35,
			"lat": 41.633331
		}
	},
	{
		"country": "SI",
		"name": "Jagodje",
		"_id": 3343518,
		"coord": {
			"lon": 13.655,
			"lat": 45.532219
		}
	},
	{
		"country": "HR",
		"name": "Jagodnjak",
		"_id": 3198943,
		"coord": {
			"lon": 18.576941,
			"lat": 45.699169
		}
	},
	{
		"country": "ID",
		"name": "Jagong",
		"_id": 7375440,
		"coord": {
			"lon": 111.253403,
			"lat": -7.0481
		}
	},
	{
		"country": "ID",
		"name": "Jagran",
		"_id": 8080538,
		"coord": {
			"lon": 112.353897,
			"lat": -6.9987
		}
	},
	{
		"country": "IN",
		"name": "Jagraon",
		"_id": 1269564,
		"coord": {
			"lon": 75.48333,
			"lat": 30.783331
		}
	},
	{
		"country": "DE",
		"name": "Jagstfeld",
		"_id": 2895311,
		"coord": {
			"lon": 9.19472,
			"lat": 49.236111
		}
	},
	{
		"country": "DE",
		"name": "Jagsthausen",
		"_id": 2895310,
		"coord": {
			"lon": 10.17199,
			"lat": 48.89922
		}
	},
	{
		"country": "DE",
		"name": "Jagsthausen",
		"_id": 6555521,
		"coord": {
			"lon": 9.46833,
			"lat": 49.3106
		}
	},
	{
		"country": "DE",
		"name": "Jagsthausen",
		"_id": 2895309,
		"coord": {
			"lon": 9.46833,
			"lat": 49.310558
		}
	},
	{
		"country": "DE",
		"name": "Jagstzell",
		"_id": 6555587,
		"coord": {
			"lon": 10.09747,
			"lat": 49.030472
		}
	},
	{
		"country": "DE",
		"name": "Jagstzell",
		"_id": 2895304,
		"coord": {
			"lon": 10.09751,
			"lat": 49.030548
		}
	},
	{
		"country": "IN",
		"name": "Jagtial",
		"_id": 1269562,
		"coord": {
			"lon": 78.933327,
			"lat": 18.799999
		}
	},
	{
		"country": "PR",
		"name": "Jagual",
		"_id": 4565621,
		"coord": {
			"lon": -65.995438,
			"lat": 18.161631
		}
	},
	{
		"country": "BR",
		"name": "Jaguapitã",
		"_id": 3460243,
		"coord": {
			"lon": -51.53194,
			"lat": -23.11278
		}
	},
	{
		"country": "BR",
		"name": "Jaguaquara",
		"_id": 3460242,
		"coord": {
			"lon": -39.970829,
			"lat": -13.53056
		}
	},
	{
		"country": "BR",
		"name": "Jaguarao",
		"_id": 3460232,
		"coord": {
			"lon": -53.375832,
			"lat": -32.566109
		}
	},
	{
		"country": "BR",
		"name": "Jaguarari",
		"_id": 3460225,
		"coord": {
			"lon": -40.195831,
			"lat": -10.26389
		}
	},
	{
		"country": "BR",
		"name": "Jaguaraçu",
		"_id": 3460235,
		"coord": {
			"lon": -42.749722,
			"lat": -19.64917
		}
	},
	{
		"country": "BR",
		"name": "Jaguaretama",
		"_id": 3397680,
		"coord": {
			"lon": -38.766941,
			"lat": -5.61278
		}
	},
	{
		"country": "BR",
		"name": "Jaguari",
		"_id": 3460221,
		"coord": {
			"lon": -54.689999,
			"lat": -29.497499
		}
	},
	{
		"country": "BR",
		"name": "Jaguariaiva",
		"_id": 3460214,
		"coord": {
			"lon": -49.70583,
			"lat": -24.25111
		}
	},
	{
		"country": "BR",
		"name": "Jaguaribara",
		"_id": 3397678,
		"coord": {
			"lon": -38.619999,
			"lat": -5.65806
		}
	},
	{
		"country": "BR",
		"name": "Jaguaribe",
		"_id": 3397675,
		"coord": {
			"lon": -38.621941,
			"lat": -5.89056
		}
	},
	{
		"country": "BR",
		"name": "Jaguaripe",
		"_id": 3460205,
		"coord": {
			"lon": -39.166672,
			"lat": -12.91667
		}
	},
	{
		"country": "BR",
		"name": "Jaguariuna",
		"_id": 3460200,
		"coord": {
			"lon": -46.985828,
			"lat": -22.705561
		}
	},
	{
		"country": "BR",
		"name": "Jaguariúna",
		"_id": 6322331,
		"coord": {
			"lon": -47.017281,
			"lat": -22.694731
		}
	},
	{
		"country": "BR",
		"name": "Jaguaruana",
		"_id": 3397665,
		"coord": {
			"lon": -37.781109,
			"lat": -4.83389
		}
	},
	{
		"country": "BR",
		"name": "Jaguaruna",
		"_id": 3460197,
		"coord": {
			"lon": -49.025558,
			"lat": -28.615
		}
	},
	{
		"country": "CU",
		"name": "Jaguey Grande",
		"_id": 3556437,
		"coord": {
			"lon": -81.128609,
			"lat": 22.526939
		}
	},
	{
		"country": "PH",
		"name": "Jaguimitan",
		"_id": 1710363,
		"coord": {
			"lon": 122.723602,
			"lat": 11.14
		}
	},
	{
		"country": "NG",
		"name": "Jagun Elesin",
		"_id": 2336648,
		"coord": {
			"lon": 3.98333,
			"lat": 7.35472
		}
	},
	{
		"country": "PH",
		"name": "Jagupit",
		"_id": 1710362,
		"coord": {
			"lon": 125.55806,
			"lat": 9.24222
		}
	},
	{
		"country": "ID",
		"name": "Jaha",
		"_id": 7844386,
		"coord": {
			"lon": 106.410797,
			"lat": -6.5869
		}
	},
	{
		"country": "IN",
		"name": "Jahanabad",
		"_id": 1269557,
		"coord": {
			"lon": 84.98333,
			"lat": 25.216669
		}
	},
	{
		"country": "IN",
		"name": "Jahanabad",
		"_id": 1269555,
		"coord": {
			"lon": 79.716667,
			"lat": 28.633329
		}
	},
	{
		"country": "IN",
		"name": "Jahangirabad",
		"_id": 1269551,
		"coord": {
			"lon": 78.099998,
			"lat": 28.41667
		}
	},
	{
		"country": "IN",
		"name": "Jahangirpur",
		"_id": 1269548,
		"coord": {
			"lon": 77.716667,
			"lat": 28.183331
		}
	},
	{
		"country": "PK",
		"name": "Jahanian Shah",
		"_id": 1176444,
		"coord": {
			"lon": 72.277107,
			"lat": 31.805519
		}
	},
	{
		"country": "IN",
		"name": "Jahazpur",
		"_id": 1269545,
		"coord": {
			"lon": 75.283333,
			"lat": 25.616671
		}
	},
	{
		"country": "IR",
		"name": "Jahlīār",
		"_id": 1160915,
		"coord": {
			"lon": 60.361401,
			"lat": 25.4758
		}
	},
	{
		"country": "DE",
		"name": "Jahnberge",
		"_id": 2895293,
		"coord": {
			"lon": 12.71101,
			"lat": 52.72163
		}
	},
	{
		"country": "DE",
		"name": "Jahnsdorf",
		"_id": 2895285,
		"coord": {
			"lon": 13.18333,
			"lat": 50.716671
		}
	},
	{
		"country": "DE",
		"name": "Jahnsdorf",
		"_id": 2895284,
		"coord": {
			"lon": 12.85,
			"lat": 50.75
		}
	},
	{
		"country": "DE",
		"name": "Jahnsfelde",
		"_id": 2895283,
		"coord": {
			"lon": 14.23333,
			"lat": 52.51667
		}
	},
	{
		"country": "DE",
		"name": "Jahrsdorf",
		"_id": 6551864,
		"coord": {
			"lon": 9.63333,
			"lat": 54.0667
		}
	},
	{
		"country": "DE",
		"name": "Jahrsdorf",
		"_id": 2895271,
		"coord": {
			"lon": 9.63333,
			"lat": 54.066669
		}
	},
	{
		"country": "DE",
		"name": "Jahrstedt",
		"_id": 2895269,
		"coord": {
			"lon": 10.97672,
			"lat": 52.56007
		}
	},
	{
		"country": "ID",
		"name": "Jahulu",
		"_id": 8074711,
		"coord": {
			"lon": 111.745903,
			"lat": -6.8106
		}
	},
	{
		"country": "IN",
		"name": "Jahāngīrābād",
		"_id": 1269552,
		"coord": {
			"lon": 81.866669,
			"lat": 25.433332
		}
	},
	{
		"country": "DO",
		"name": "Jaibon",
		"_id": 3504193,
		"coord": {
			"lon": -71.148468,
			"lat": 19.611691
		}
	},
	{
		"country": "BR",
		"name": "Jaicos",
		"_id": 3397660,
		"coord": {
			"lon": -41.137779,
			"lat": -7.35917
		}
	},
	{
		"country": "AT",
		"name": "Jaidhof",
		"_id": 7872916,
		"coord": {
			"lon": 15.50348,
			"lat": 48.549992
		}
	},
	{
		"country": "AT",
		"name": "Jaidhof",
		"_id": 2775138,
		"coord": {
			"lon": 15.48333,
			"lat": 48.533329
		}
	},
	{
		"country": "IN",
		"name": "Jaigaon",
		"_id": 7284820,
		"coord": {
			"lon": 89.37558,
			"lat": 26.84766
		}
	},
	{
		"country": "IN",
		"name": "Jainpur",
		"_id": 1269525,
		"coord": {
			"lon": 83.334717,
			"lat": 26.15333
		}
	},
	{
		"country": "AT",
		"name": "Jainzen",
		"_id": 2775137,
		"coord": {
			"lon": 13.61667,
			"lat": 47.716671
		}
	},
	{
		"country": "IN",
		"name": "Jaipur",
		"_id": 1269515,
		"coord": {
			"lon": 75.816666,
			"lat": 26.916668
		}
	},
	{
		"country": "IN",
		"name": "Jaipur",
		"_id": 1269519,
		"coord": {
			"lon": 76,
			"lat": 27
		}
	},
	{
		"country": "IN",
		"name": "Jaipur",
		"_id": 1269517,
		"coord": {
			"lon": 86.133331,
			"lat": 23.433331
		}
	},
	{
		"country": "IN",
		"name": "Jais",
		"_id": 1269509,
		"coord": {
			"lon": 81.533333,
			"lat": 26.25
		}
	},
	{
		"country": "IN",
		"name": "Jaisalmer",
		"_id": 1269507,
		"coord": {
			"lon": 70.918076,
			"lat": 26.914684
		}
	},
	{
		"country": "IN",
		"name": "Jaisinghnagar",
		"_id": 1269503,
		"coord": {
			"lon": 81.383331,
			"lat": 23.700001
		}
	},
	{
		"country": "IN",
		"name": "Jaisingpur",
		"_id": 1269502,
		"coord": {
			"lon": 74.566673,
			"lat": 16.799999
		}
	},
	{
		"country": "IN",
		"name": "Jait",
		"_id": 1269501,
		"coord": {
			"lon": 77.599998,
			"lat": 27.6
		}
	},
	{
		"country": "IN",
		"name": "Jaitaran",
		"_id": 1269498,
		"coord": {
			"lon": 73.936394,
			"lat": 26.20306
		}
	},
	{
		"country": "IN",
		"name": "Jaithari",
		"_id": 1269495,
		"coord": {
			"lon": 78.616669,
			"lat": 23.23333
		}
	},
	{
		"country": "IN",
		"name": "Jaito",
		"_id": 1269488,
		"coord": {
			"lon": 74.883331,
			"lat": 30.466669
		}
	},
	{
		"country": "ID",
		"name": "Jajar",
		"_id": 7035291,
		"coord": {
			"lon": 112.295601,
			"lat": -8.0727
		}
	},
	{
		"country": "ID",
		"name": "Jajawai",
		"_id": 1642913,
		"coord": {
			"lon": 108.478104,
			"lat": -7.5682
		}
	},
	{
		"country": "ID",
		"name": "Jajaway",
		"_id": 7847537,
		"coord": {
			"lon": 106.757896,
			"lat": -7.2652
		}
	},
	{
		"country": "BA",
		"name": "Jajce",
		"_id": 3198934,
		"coord": {
			"lon": 17.26556,
			"lat": 44.34222
		}
	},
	{
		"country": "NG",
		"name": "Jajere",
		"_id": 2336624,
		"coord": {
			"lon": 11.44426,
			"lat": 11.97969
		}
	},
	{
		"country": "IN",
		"name": "Jajpur",
		"_id": 1269477,
		"coord": {
			"lon": 86.333328,
			"lat": 20.85
		}
	},
	{
		"country": "HU",
		"name": "Jak",
		"_id": 3051001,
		"coord": {
			"lon": 16.58148,
			"lat": 47.142502
		}
	},
	{
		"country": "HU",
		"name": "Jakabtanya",
		"_id": 719700,
		"coord": {
			"lon": 20.933331,
			"lat": 48.200001
		}
	},
	{
		"country": "BT",
		"name": "Jakar",
		"_id": 1337301,
		"coord": {
			"lon": 90.752502,
			"lat": 27.549179
		}
	},
	{
		"country": "ID",
		"name": "Jakarta",
		"_id": 1642911,
		"coord": {
			"lon": 106.845131,
			"lat": -6.21462
		}
	},
	{
		"country": "CZ",
		"name": "Jakartovice",
		"_id": 3074577,
		"coord": {
			"lon": 17.684,
			"lat": 49.9151
		}
	},
	{
		"country": "ID",
		"name": "Jaken",
		"_id": 1642902,
		"coord": {
			"lon": 111.242897,
			"lat": -6.7803
		}
	},
	{
		"country": "ID",
		"name": "Jakenan",
		"_id": 1642901,
		"coord": {
			"lon": 111.164299,
			"lat": -6.762
		}
	},
	{
		"country": "US",
		"name": "Jakes Colony",
		"_id": 4700591,
		"coord": {
			"lon": -97.97139,
			"lat": 29.44079
		}
	},
	{
		"country": "IN",
		"name": "Jakhal",
		"_id": 1269470,
		"coord": {
			"lon": 75.833328,
			"lat": 29.799999
		}
	},
	{
		"country": "GM",
		"name": "Jakhaly",
		"_id": 2413365,
		"coord": {
			"lon": -14.96667,
			"lat": 13.55
		}
	},
	{
		"country": "CM",
		"name": "Jakiri",
		"_id": 2230641,
		"coord": {
			"lon": 10.65,
			"lat": 6.1
		}
	},
	{
		"country": "SE",
		"name": "Jakobsberg",
		"_id": 2703396,
		"coord": {
			"lon": 17.835079,
			"lat": 59.42268
		}
	},
	{
		"country": "DE",
		"name": "Jakobsdorf",
		"_id": 6548122,
		"coord": {
			"lon": 12.9333,
			"lat": 54.233299
		}
	},
	{
		"country": "DE",
		"name": "Jakobsdorf",
		"_id": 2895246,
		"coord": {
			"lon": 12.93333,
			"lat": 54.23333
		}
	},
	{
		"country": "FI",
		"name": "Jakobstad",
		"_id": 656131,
		"coord": {
			"lon": 22.700001,
			"lat": 63.666672
		}
	},
	{
		"country": "FI",
		"name": "Jakobstad",
		"_id": 656130,
		"coord": {
			"lon": 22.70256,
			"lat": 63.674858
		}
	},
	{
		"country": "DE",
		"name": "Jakobsthal",
		"_id": 2895235,
		"coord": {
			"lon": 9.31667,
			"lat": 50.049999
		}
	},
	{
		"country": "DE",
		"name": "Jakobsweiler",
		"_id": 6554957,
		"coord": {
			"lon": 7.95,
			"lat": 49.616699
		}
	},
	{
		"country": "DE",
		"name": "Jakobsweiler",
		"_id": 2895234,
		"coord": {
			"lon": 7.95,
			"lat": 49.616669
		}
	},
	{
		"country": "DE",
		"name": "Jakobwüllesheim",
		"_id": 2895233,
		"coord": {
			"lon": 6.56667,
			"lat": 50.76667
		}
	},
	{
		"country": "FI",
		"name": "Jakomäki",
		"_id": 847519,
		"coord": {
			"lon": 25.078011,
			"lat": 60.259399
		}
	},
	{
		"country": "HR",
		"name": "Jakovlje",
		"_id": 3198924,
		"coord": {
			"lon": 15.85611,
			"lat": 45.951389
		}
	},
	{
		"country": "HR",
		"name": "Jaksic",
		"_id": 3198922,
		"coord": {
			"lon": 17.763889,
			"lat": 45.358059
		}
	},
	{
		"country": "PL",
		"name": "Jakubow",
		"_id": 770609,
		"coord": {
			"lon": 21.680321,
			"lat": 52.21965
		}
	},
	{
		"country": "PL",
		"name": "Jakubowice Murowane",
		"_id": 770602,
		"coord": {
			"lon": 22.63415,
			"lat": 51.26992
		}
	},
	{
		"country": "PL",
		"name": "Jakubów",
		"_id": 7531413,
		"coord": {
			"lon": 21.681141,
			"lat": 52.23954
		}
	},
	{
		"country": "US",
		"name": "Jal",
		"_id": 5473083,
		"coord": {
			"lon": -103.193512,
			"lat": 32.113178
		}
	},
	{
		"country": "MX",
		"name": "Jala",
		"_id": 4004170,
		"coord": {
			"lon": -104.433327,
			"lat": 21.08333
		}
	},
	{
		"country": "MX",
		"name": "Jalacingo",
		"_id": 3526625,
		"coord": {
			"lon": -97.300003,
			"lat": 19.799999
		}
	},
	{
		"country": "CN",
		"name": "Jalai Nur",
		"_id": 2036595,
		"coord": {
			"lon": 117.699997,
			"lat": 49.450001
		}
	},
	{
		"country": "PH",
		"name": "Jalajala",
		"_id": 1710358,
		"coord": {
			"lon": 121.333328,
			"lat": 14.33333
		}
	},
	{
		"country": "PH",
		"name": "Jalajala",
		"_id": 1710357,
		"coord": {
			"lon": 121.322502,
			"lat": 14.353
		}
	},
	{
		"country": "IN",
		"name": "Jalakandapuram",
		"_id": 1269449,
		"coord": {
			"lon": 77.872978,
			"lat": 11.69779
		}
	},
	{
		"country": "KG",
		"name": "Jalal-Abad",
		"_id": 1528249,
		"coord": {
			"lon": 73,
			"lat": 40.933331
		}
	},
	{
		"country": "KG",
		"name": "Jalal-Abad Oblasty",
		"_id": 1529778,
		"coord": {
			"lon": 72.5,
			"lat": 41.5
		}
	},
	{
		"country": "IN",
		"name": "Jalalabad",
		"_id": 1269447,
		"coord": {
			"lon": 79.666664,
			"lat": 27.716667
		}
	},
	{
		"country": "AF",
		"name": "Jalalabad",
		"_id": 1139715,
		"coord": {
			"lon": 70.45153,
			"lat": 34.426472
		}
	},
	{
		"country": "IN",
		"name": "Jalalabad",
		"_id": 1269445,
		"coord": {
			"lon": 74.25,
			"lat": 30.616671
		}
	},
	{
		"country": "IN",
		"name": "Jalalabad",
		"_id": 1269446,
		"coord": {
			"lon": 77.438332,
			"lat": 29.61861
		}
	},
	{
		"country": "SO",
		"name": "Jalalaqsi",
		"_id": 56414,
		"coord": {
			"lon": 45.599602,
			"lat": 3.3766
		}
	},
	{
		"country": "IN",
		"name": "Jalali",
		"_id": 1269441,
		"coord": {
			"lon": 78.26667,
			"lat": 27.866671
		}
	},
	{
		"country": "IN",
		"name": "Jalalpur",
		"_id": 1269439,
		"coord": {
			"lon": 72.900002,
			"lat": 20.966669
		}
	},
	{
		"country": "IN",
		"name": "Jalalpur",
		"_id": 1269435,
		"coord": {
			"lon": 82.73333,
			"lat": 26.316669
		}
	},
	{
		"country": "PK",
		"name": "Jalalpur",
		"_id": 1176368,
		"coord": {
			"lon": 74.218292,
			"lat": 32.63744
		}
	},
	{
		"country": "PK",
		"name": "Jalalpur Pirwala",
		"_id": 1176358,
		"coord": {
			"lon": 71.21917,
			"lat": 29.50687
		}
	},
	{
		"country": "ID",
		"name": "Jalanbaru",
		"_id": 7780078,
		"coord": {
			"lon": 106.1203,
			"lat": -6.2612
		}
	},
	{
		"country": "ES",
		"name": "Jalance",
		"_id": 6362007,
		"coord": {
			"lon": -1.11527,
			"lat": 39.208721
		}
	},
	{
		"country": "ES",
		"name": "Jalance",
		"_id": 2516390,
		"coord": {
			"lon": -1.06667,
			"lat": 39.200001
		}
	},
	{
		"country": "IN",
		"name": "Jalandhar",
		"_id": 1268782,
		"coord": {
			"lon": 75.57917,
			"lat": 31.32556
		}
	},
	{
		"country": "ID",
		"name": "Jalang",
		"_id": 1642892,
		"coord": {
			"lon": 120.321602,
			"lat": -4.0383
		}
	},
	{
		"country": "MX",
		"name": "Jalapa",
		"_id": 3526621,
		"coord": {
			"lon": -95.466667,
			"lat": 16.5
		}
	},
	{
		"country": "GT",
		"name": "Jalapa",
		"_id": 3595237,
		"coord": {
			"lon": -89.98333,
			"lat": 14.63333
		}
	},
	{
		"country": "NI",
		"name": "Jalapa",
		"_id": 3618954,
		"coord": {
			"lon": -86.123459,
			"lat": 13.92222
		}
	},
	{
		"country": "MX",
		"name": "Jalapa",
		"_id": 3803064,
		"coord": {
			"lon": -92.808327,
			"lat": 17.725
		}
	},
	{
		"country": "MX",
		"name": "Jalapilla",
		"_id": 3526613,
		"coord": {
			"lon": -97.083328,
			"lat": 18.83333
		}
	},
	{
		"country": "ID",
		"name": "Jalasenga",
		"_id": 7338330,
		"coord": {
			"lon": 121.805099,
			"lat": -8.5302
		}
	},
	{
		"country": "FI",
		"name": "Jalasjarvi",
		"_id": 656117,
		"coord": {
			"lon": 22.75,
			"lat": 62.5
		}
	},
	{
		"country": "FI",
		"name": "Jalasjärvi",
		"_id": 656118,
		"coord": {
			"lon": 22.83333,
			"lat": 62.5
		}
	},
	{
		"country": "MX",
		"name": "Jalatlaco",
		"_id": 3526611,
		"coord": {
			"lon": -99.417503,
			"lat": 19.17889
		}
	},
	{
		"country": "ID",
		"name": "Jalatrang",
		"_id": 1642890,
		"coord": {
			"lon": 108.348297,
			"lat": -7.2373
		}
	},
	{
		"country": "PH",
		"name": "Jalaud",
		"_id": 1710347,
		"coord": {
			"lon": 122.747498,
			"lat": 10.89333
		}
	},
	{
		"country": "PH",
		"name": "Jalaud",
		"_id": 1710348,
		"coord": {
			"lon": 122.640404,
			"lat": 10.8436
		}
	},
	{
		"country": "IN",
		"name": "Jalaun",
		"_id": 1269422,
		"coord": {
			"lon": 79.336601,
			"lat": 26.1451
		}
	},
	{
		"country": "PS",
		"name": "Jalbun",
		"_id": 283540,
		"coord": {
			"lon": 35.415161,
			"lat": 32.459572
		}
	},
	{
		"country": "MX",
		"name": "Jalcocotan",
		"_id": 4004161,
		"coord": {
			"lon": -105.116669,
			"lat": 21.466669
		}
	},
	{
		"country": "MX",
		"name": "Jalcomulco",
		"_id": 3526610,
		"coord": {
			"lon": -96.75,
			"lat": 19.33333
		}
	},
	{
		"country": "BR",
		"name": "Jales",
		"_id": 3460186,
		"coord": {
			"lon": -50.54583,
			"lat": -20.26889
		}
	},
	{
		"country": "IN",
		"name": "Jalesar",
		"_id": 1269415,
		"coord": {
			"lon": 78.316673,
			"lat": 27.48333
		}
	},
	{
		"country": "IN",
		"name": "Jaleshwar",
		"_id": 1269413,
		"coord": {
			"lon": 87.216667,
			"lat": 21.816669
		}
	},
	{
		"country": "NP",
		"name": "Jaleswar",
		"_id": 1283323,
		"coord": {
			"lon": 85.800812,
			"lat": 26.64711
		}
	},
	{
		"country": "IN",
		"name": "Jalgaon",
		"_id": 1269406,
		"coord": {
			"lon": 76.534439,
			"lat": 21.048611
		}
	},
	{
		"country": "IN",
		"name": "Jalgaon",
		"_id": 1269407,
		"coord": {
			"lon": 75.566673,
			"lat": 21.01667
		}
	},
	{
		"country": "IN",
		"name": "Jalgaon",
		"_id": 1269410,
		"coord": {
			"lon": 73.183327,
			"lat": 17.75
		}
	},
	{
		"country": "BE",
		"name": "Jalhay",
		"_id": 2794990,
		"coord": {
			"lon": 5.96841,
			"lat": 50.559799
		}
	},
	{
		"country": "BE",
		"name": "Jalhay",
		"_id": 2794989,
		"coord": {
			"lon": 5.96764,
			"lat": 50.558762
		}
	},
	{
		"country": "GM",
		"name": "Jali",
		"_id": 2413344,
		"coord": {
			"lon": -15.96667,
			"lat": 13.35
		}
	},
	{
		"country": "AZ",
		"name": "Jalilabad Rayon",
		"_id": 148155,
		"coord": {
			"lon": 48.5,
			"lat": 39.25
		}
	},
	{
		"country": "ID",
		"name": "Jalinan",
		"_id": 7037542,
		"coord": {
			"lon": 113.819099,
			"lat": -8.2542
		}
	},
	{
		"country": "NG",
		"name": "Jalingo",
		"_id": 2336589,
		"coord": {
			"lon": 11.36667,
			"lat": 8.88333
		}
	},
	{
		"country": "CO",
		"name": "Jalisco",
		"_id": 3764011,
		"coord": {
			"lon": -76.543457,
			"lat": 3.25413
		}
	},
	{
		"country": "IL",
		"name": "Jaljulya",
		"_id": 294634,
		"coord": {
			"lon": 34.952782,
			"lat": 32.15583
		}
	},
	{
		"country": "HR",
		"name": "Jalkovec",
		"_id": 3198918,
		"coord": {
			"lon": 16.319719,
			"lat": 46.28083
		}
	},
	{
		"country": "FR",
		"name": "Jallais",
		"_id": 3012549,
		"coord": {
			"lon": -0.86738,
			"lat": 47.196911
		}
	},
	{
		"country": "IN",
		"name": "Jalna",
		"_id": 1269395,
		"coord": {
			"lon": 75.883331,
			"lat": 19.83333
		}
	},
	{
		"country": "ES",
		"name": "Jalon",
		"_id": 2516389,
		"coord": {
			"lon": -0.01129,
			"lat": 38.740631
		}
	},
	{
		"country": "ES",
		"name": "Jalon de Cameros",
		"_id": 3120196,
		"coord": {
			"lon": -2.49004,
			"lat": 42.21804
		}
	},
	{
		"country": "IN",
		"name": "Jalor",
		"_id": 1269392,
		"coord": {
			"lon": 72.616669,
			"lat": 25.35
		}
	},
	{
		"country": "MX",
		"name": "Jalostotitlan",
		"_id": 4004153,
		"coord": {
			"lon": -102.466667,
			"lat": 21.200001
		}
	},
	{
		"country": "MX",
		"name": "Jaloxtoc",
		"_id": 3526607,
		"coord": {
			"lon": -98.900002,
			"lat": 18.716669
		}
	},
	{
		"country": "MX",
		"name": "Jalpa",
		"_id": 3526606,
		"coord": {
			"lon": -99.183327,
			"lat": 19.816669
		}
	},
	{
		"country": "MX",
		"name": "Jalpa",
		"_id": 4004148,
		"coord": {
			"lon": -102.966667,
			"lat": 21.633329
		}
	},
	{
		"country": "MX",
		"name": "Jalpa de Mendez",
		"_id": 3526603,
		"coord": {
			"lon": -93.083328,
			"lat": 18.133329
		}
	},
	{
		"country": "IN",
		"name": "Jalpaiguri",
		"_id": 1269388,
		"coord": {
			"lon": 88.73333,
			"lat": 26.51667
		}
	},
	{
		"country": "MX",
		"name": "Jalpan",
		"_id": 3526601,
		"coord": {
			"lon": -99.48333,
			"lat": 21.23333
		}
	},
	{
		"country": "GT",
		"name": "Jalpatagua",
		"_id": 3595232,
		"coord": {
			"lon": -90.008614,
			"lat": 14.14167
		}
	},
	{
		"country": "PS",
		"name": "Jalqamus",
		"_id": 283536,
		"coord": {
			"lon": 35.364208,
			"lat": 32.424641
		}
	},
	{
		"country": "SD",
		"name": "Jalqani",
		"_id": 375192,
		"coord": {
			"lon": 34.218601,
			"lat": 12.4486
		}
	},
	{
		"country": "AF",
		"name": "Jalrez",
		"_id": 1139683,
		"coord": {
			"lon": 68.643333,
			"lat": 34.473061
		}
	},
	{
		"country": "MX",
		"name": "Jaltenco",
		"_id": 3526600,
		"coord": {
			"lon": -99.095558,
			"lat": 19.750561
		}
	},
	{
		"country": "MX",
		"name": "Jaltepec",
		"_id": 3526599,
		"coord": {
			"lon": -98.633331,
			"lat": 19.73333
		}
	},
	{
		"country": "MX",
		"name": "Jaltocan",
		"_id": 3526591,
		"coord": {
			"lon": -98.533333,
			"lat": 21.15
		}
	},
	{
		"country": "CZ",
		"name": "Jalubi",
		"_id": 3074558,
		"coord": {
			"lon": 17.427879,
			"lat": 49.116261
		}
	},
	{
		"country": "ID",
		"name": "Jalupang Dua",
		"_id": 7765694,
		"coord": {
			"lon": 105.996201,
			"lat": -6.5415
		}
	},
	{
		"country": "HR",
		"name": "Jalzabet",
		"_id": 3198913,
		"coord": {
			"lon": 16.475,
			"lat": 46.26083
		}
	},
	{
		"country": "ES",
		"name": "Jalón de Cameros",
		"_id": 6359071,
		"coord": {
			"lon": -2.49268,
			"lat": 42.213551
		}
	},
	{
		"country": "ES",
		"name": "Jalón/Xaló",
		"_id": 6355457,
		"coord": {
			"lon": -0.0366,
			"lat": 38.721588
		}
	},
	{
		"country": "IQ",
		"name": "Jalīb Shihāb",
		"_id": 95308,
		"coord": {
			"lon": 46.183331,
			"lat": 30.41667
		}
	},
	{
		"country": "PK",
		"name": "Jam Sahib",
		"_id": 1403734,
		"coord": {
			"lon": 68.629173,
			"lat": 26.29583
		}
	},
	{
		"country": "SO",
		"name": "Jamaame",
		"_id": 56399,
		"coord": {
			"lon": 42.744968,
			"lat": 0.06968
		}
	},
	{
		"country": "PH",
		"name": "Jamabalod",
		"_id": 1710336,
		"coord": {
			"lon": 122.621201,
			"lat": 10.8788
		}
	},
	{
		"country": "IN",
		"name": "Jamadoba",
		"_id": 1269379,
		"coord": {
			"lon": 86.400002,
			"lat": 23.716669
		}
	},
	{
		"country": "IN",
		"name": "Jamai",
		"_id": 1269377,
		"coord": {
			"lon": 78.583328,
			"lat": 22.200001
		}
	},
	{
		"country": "JM",
		"name": "Jamaica",
		"_id": 3489940,
		"coord": {
			"lon": -77.5,
			"lat": 18.25
		}
	},
	{
		"country": "CU",
		"name": "Jamaica",
		"_id": 3556406,
		"coord": {
			"lon": -82.17028,
			"lat": 22.97917
		}
	},
	{
		"country": "US",
		"name": "Jamaica Plain",
		"_id": 4940764,
		"coord": {
			"lon": -71.120331,
			"lat": 42.309818
		}
	},
	{
		"country": "PK",
		"name": "Jamak",
		"_id": 1176303,
		"coord": {
			"lon": 63.393055,
			"lat": 25.845833
		}
	},
	{
		"country": "BD",
		"name": "Jamalpur",
		"_id": 1185106,
		"coord": {
			"lon": 89.933327,
			"lat": 24.91667
		}
	},
	{
		"country": "IN",
		"name": "Jamalpur",
		"_id": 1269374,
		"coord": {
			"lon": 86.5,
			"lat": 25.299999
		}
	},
	{
		"country": "HN",
		"name": "Jamalteca",
		"_id": 3608743,
		"coord": {
			"lon": -87.583328,
			"lat": 14.7
		}
	},
	{
		"country": "ID",
		"name": "Jamanis",
		"_id": 8025880,
		"coord": {
			"lon": 108.183601,
			"lat": -7.1894
		}
	},
	{
		"country": "DO",
		"name": "Jamao al Norte",
		"_id": 3504175,
		"coord": {
			"lon": -70.44664,
			"lat": 19.635521
		}
	},
	{
		"country": "MX",
		"name": "Jamapa",
		"_id": 3526588,
		"coord": {
			"lon": -96.23333,
			"lat": 19.033331
		}
	},
	{
		"country": "MX",
		"name": "Jamay",
		"_id": 4004126,
		"coord": {
			"lon": -102.716667,
			"lat": 20.299999
		}
	},
	{
		"country": "CO",
		"name": "Jambalo",
		"_id": 3680393,
		"coord": {
			"lon": -76.322578,
			"lat": 2.79225
		}
	},
	{
		"country": "ID",
		"name": "Jamban",
		"_id": 8070155,
		"coord": {
			"lon": 108.695099,
			"lat": -7.4204
		}
	},
	{
		"country": "ID",
		"name": "Jambangan",
		"_id": 1965671,
		"coord": {
			"lon": 112.738213,
			"lat": -8.16225
		}
	},
	{
		"country": "ID",
		"name": "Jambearum",
		"_id": 7350818,
		"coord": {
			"lon": 113.923897,
			"lat": -8.0493
		}
	},
	{
		"country": "BR",
		"name": "Jambeiro",
		"_id": 3460180,
		"coord": {
			"lon": -45.687778,
			"lat": -23.253611
		}
	},
	{
		"country": "ID",
		"name": "Jambekumbu",
		"_id": 7037147,
		"coord": {
			"lon": 113.067398,
			"lat": -8.1006
		}
	},
	{
		"country": "AU",
		"name": "Jamberoo",
		"_id": 2162446,
		"coord": {
			"lon": 150.783325,
			"lat": -34.650002
		}
	},
	{
		"country": "ID",
		"name": "Jambesari",
		"_id": 7350321,
		"coord": {
			"lon": 113.384003,
			"lat": -8.0161
		}
	},
	{
		"country": "ID",
		"name": "Jambeyan",
		"_id": 8068759,
		"coord": {
			"lon": 111.580803,
			"lat": -6.729
		}
	},
	{
		"country": "ID",
		"name": "Jambi",
		"_id": 1642858,
		"coord": {
			"lon": 103.616669,
			"lat": -1.6
		}
	},
	{
		"country": "AU",
		"name": "Jambin",
		"_id": 2162445,
		"coord": {
			"lon": 150.366669,
			"lat": -24.216669
		}
	},
	{
		"country": "ES",
		"name": "Jambrina",
		"_id": 6362534,
		"coord": {
			"lon": -5.64832,
			"lat": 41.385921
		}
	},
	{
		"country": "ES",
		"name": "Jambrina",
		"_id": 3120195,
		"coord": {
			"lon": -5.66411,
			"lat": 41.39196
		}
	},
	{
		"country": "ID",
		"name": "Jambuandap",
		"_id": 6385783,
		"coord": {
			"lon": 109.027496,
			"lat": -7.56722
		}
	},
	{
		"country": "ID",
		"name": "Jambubol",
		"_id": 7764766,
		"coord": {
			"lon": 105.872803,
			"lat": -6.5465
		}
	},
	{
		"country": "ID",
		"name": "Jambuluwuk",
		"_id": 6387918,
		"coord": {
			"lon": 108.870201,
			"lat": -7.3135
		}
	},
	{
		"country": "IN",
		"name": "Jambusar",
		"_id": 1269350,
		"coord": {
			"lon": 72.800003,
			"lat": 22.049999
		}
	},
	{
		"country": "ID",
		"name": "Jambuwerkrajan",
		"_id": 7035576,
		"coord": {
			"lon": 112.462997,
			"lat": -8.0934
		}
	},
	{
		"country": "DE",
		"name": "Jameln",
		"_id": 6558466,
		"coord": {
			"lon": 11.0471,
			"lat": 53.041302
		}
	},
	{
		"country": "DE",
		"name": "Jameln",
		"_id": 2895226,
		"coord": {
			"lon": 11.08333,
			"lat": 53.049999
		}
	},
	{
		"country": "RS",
		"name": "Jamena",
		"_id": 3198908,
		"coord": {
			"lon": 19.0625,
			"lat": 44.885281
		}
	},
	{
		"country": "US",
		"name": "James City",
		"_id": 4473137,
		"coord": {
			"lon": -77.03495,
			"lat": 35.088772
		}
	},
	{
		"country": "US",
		"name": "James City County",
		"_id": 4766447,
		"coord": {
			"lon": -76.76635,
			"lat": 37.300152
		}
	},
	{
		"country": "AR",
		"name": "James Craik",
		"_id": 3853562,
		"coord": {
			"lon": -63.466881,
			"lat": -32.161201
		}
	},
	{
		"country": "US",
		"name": "Jamesburg",
		"_id": 5099795,
		"coord": {
			"lon": -74.440147,
			"lat": 40.352612
		}
	},
	{
		"country": "US",
		"name": "Jamesport",
		"_id": 5122533,
		"coord": {
			"lon": -72.581482,
			"lat": 40.949539
		}
	},
	{
		"country": "US",
		"name": "Jamestown",
		"_id": 5122534,
		"coord": {
			"lon": -79.235329,
			"lat": 42.097
		}
	},
	{
		"country": "US",
		"name": "Jamestown",
		"_id": 5059836,
		"coord": {
			"lon": -98.708443,
			"lat": 46.910542
		}
	},
	{
		"country": "AU",
		"name": "Jamestown",
		"_id": 2069194,
		"coord": {
			"lon": 138.600006,
			"lat": -33.200001
		}
	},
	{
		"country": "SH",
		"name": "Jamestown",
		"_id": 3370903,
		"coord": {
			"lon": -5.71675,
			"lat": -15.93872
		}
	},
	{
		"country": "US",
		"name": "Jamestown",
		"_id": 4296173,
		"coord": {
			"lon": -85.063011,
			"lat": 36.984791
		}
	},
	{
		"country": "US",
		"name": "Jamestown",
		"_id": 4473158,
		"coord": {
			"lon": -79.93531,
			"lat": 35.994301
		}
	},
	{
		"country": "US",
		"name": "Jamestown",
		"_id": 4515427,
		"coord": {
			"lon": -83.734917,
			"lat": 39.658119
		}
	},
	{
		"country": "US",
		"name": "Jamestown",
		"_id": 4632852,
		"coord": {
			"lon": -84.931892,
			"lat": 36.42757
		}
	},
	{
		"country": "US",
		"name": "Jamestown",
		"_id": 5222866,
		"coord": {
			"lon": -71.367279,
			"lat": 41.497051
		}
	},
	{
		"country": "US",
		"name": "Jamestown",
		"_id": 5360382,
		"coord": {
			"lon": -120.422699,
			"lat": 37.953259
		}
	},
	{
		"country": "US",
		"name": "Jamestown West",
		"_id": 7258777,
		"coord": {
			"lon": -79.281097,
			"lat": 42.088509
		}
	},
	{
		"country": "ID",
		"name": "Jami",
		"_id": 7780929,
		"coord": {
			"lon": 105.882599,
			"lat": -6.3681
		}
	},
	{
		"country": "AU",
		"name": "Jamieson",
		"_id": 2162440,
		"coord": {
			"lon": 146.133331,
			"lat": -37.316669
		}
	},
	{
		"country": "FI",
		"name": "Jamijarvi",
		"_id": 656090,
		"coord": {
			"lon": 22.700001,
			"lat": 61.816669
		}
	},
	{
		"country": "ES",
		"name": "Jamilena",
		"_id": 6358501,
		"coord": {
			"lon": -3.91638,
			"lat": 37.737869
		}
	},
	{
		"country": "ES",
		"name": "Jamilena",
		"_id": 2516386,
		"coord": {
			"lon": -3.91434,
			"lat": 37.747162
		}
	},
	{
		"country": "PH",
		"name": "Jamindan",
		"_id": 1710325,
		"coord": {
			"lon": 122.509499,
			"lat": 11.4089
		}
	},
	{
		"country": "DE",
		"name": "Jamitzow",
		"_id": 2895223,
		"coord": {
			"lon": 13.86667,
			"lat": 53.916672
		}
	},
	{
		"country": "SE",
		"name": "Jamjo",
		"_id": 2703348,
		"coord": {
			"lon": 16.683331,
			"lat": 56.799999
		}
	},
	{
		"country": "IN",
		"name": "Jamkhandi",
		"_id": 1269328,
		"coord": {
			"lon": 75.300003,
			"lat": 16.51667
		}
	},
	{
		"country": "DE",
		"name": "Jamlitz",
		"_id": 6547565,
		"coord": {
			"lon": 14.3667,
			"lat": 52
		}
	},
	{
		"country": "DE",
		"name": "Jamlitz",
		"_id": 2895221,
		"coord": {
			"lon": 14.36667,
			"lat": 52
		}
	},
	{
		"country": "PS",
		"name": "Jammain",
		"_id": 283521,
		"coord": {
			"lon": 35.204041,
			"lat": 32.131641
		}
	},
	{
		"country": "TN",
		"name": "Jammal",
		"_id": 2470191,
		"coord": {
			"lon": 10.75696,
			"lat": 35.622311
		}
	},
	{
		"country": "IN",
		"name": "Jammalamadugu",
		"_id": 1269323,
		"coord": {
			"lon": 78.400002,
			"lat": 14.83333
		}
	},
	{
		"country": "DK",
		"name": "Jammerbugt Kommune",
		"_id": 6543926,
		"coord": {
			"lon": 9.5625,
			"lat": 57.145828
		}
	},
	{
		"country": "IN",
		"name": "Jammu",
		"_id": 1269321,
		"coord": {
			"lon": 74.866669,
			"lat": 32.73333
		}
	},
	{
		"country": "PK",
		"name": "Jammun",
		"_id": 1339510,
		"coord": {
			"lon": 72.617722,
			"lat": 33.99263
		}
	},
	{
		"country": "IN",
		"name": "Jamnagar",
		"_id": 1269317,
		"coord": {
			"lon": 70.066673,
			"lat": 22.466669
		}
	},
	{
		"country": "ID",
		"name": "Jamong",
		"_id": 8075931,
		"coord": {
			"lon": 111.855202,
			"lat": -6.8016
		}
	},
	{
		"country": "PH",
		"name": "Jampang",
		"_id": 1710318,
		"coord": {
			"lon": 123.600151,
			"lat": 9.9076
		}
	},
	{
		"country": "ID",
		"name": "Jampang Kulon",
		"_id": 1642834,
		"coord": {
			"lon": 106.625603,
			"lat": -7.2579
		}
	},
	{
		"country": "ID",
		"name": "Jampang Tengah",
		"_id": 1642832,
		"coord": {
			"lon": 106.801399,
			"lat": -7.0568
		}
	},
	{
		"country": "BR",
		"name": "Jampruca",
		"_id": 3460176,
		"coord": {
			"lon": -41.80389,
			"lat": -18.46278
		}
	},
	{
		"country": "PK",
		"name": "Jampur",
		"_id": 1176241,
		"coord": {
			"lon": 70.595444,
			"lat": 29.64414
		}
	},
	{
		"country": "FI",
		"name": "Jamsa",
		"_id": 656083,
		"coord": {
			"lon": 25.19002,
			"lat": 61.864201
		}
	},
	{
		"country": "FI",
		"name": "Jamsankoski",
		"_id": 656076,
		"coord": {
			"lon": 25.170111,
			"lat": 61.918999
		}
	},
	{
		"country": "IN",
		"name": "Jamshedpur",
		"_id": 1269300,
		"coord": {
			"lon": 86.183327,
			"lat": 22.799999
		}
	},
	{
		"country": "SE",
		"name": "Jamshog",
		"_id": 2703339,
		"coord": {
			"lon": 14.51667,
			"lat": 56.23333
		}
	},
	{
		"country": "PK",
		"name": "Jamshoro",
		"_id": 1176229,
		"coord": {
			"lon": 68.290268,
			"lat": 25.43939
		}
	},
	{
		"country": "IN",
		"name": "Jamtara",
		"_id": 1269298,
		"coord": {
			"lon": 86.800003,
			"lat": 23.950001
		}
	},
	{
		"country": "RO",
		"name": "Jamu Mare",
		"_id": 675295,
		"coord": {
			"lon": 21.416941,
			"lat": 45.254169
		}
	},
	{
		"country": "IN",
		"name": "Jamui",
		"_id": 1269291,
		"coord": {
			"lon": 86.216667,
			"lat": 24.91667
		}
	},
	{
		"country": "US",
		"name": "Jamul",
		"_id": 5360403,
		"coord": {
			"lon": -116.876129,
			"lat": 32.716999
		}
	},
	{
		"country": "CO",
		"name": "Jamundi",
		"_id": 3680387,
		"coord": {
			"lon": -76.534988,
			"lat": 3.26074
		}
	},
	{
		"country": "ID",
		"name": "Jamupu",
		"_id": 8045282,
		"coord": {
			"lon": 108.252502,
			"lat": -7.4931
		}
	},
	{
		"country": "IN",
		"name": "Jamuria",
		"_id": 1269280,
		"coord": {
			"lon": 87.083328,
			"lat": 23.700001
		}
	},
	{
		"country": "IN",
		"name": "Jamālpur",
		"_id": 1269372,
		"coord": {
			"lon": 75.966667,
			"lat": 28.966667
		}
	},
	{
		"country": "AF",
		"name": "Jam‘eh ‘Olyā",
		"_id": 1447259,
		"coord": {
			"lon": 68.426109,
			"lat": 33.553059
		}
	},
	{
		"country": "ZA",
		"name": "Jan Kempdorp",
		"_id": 994023,
		"coord": {
			"lon": 24.830521,
			"lat": -27.922461
		}
	},
	{
		"country": "US",
		"name": "Jan-Phyl Village",
		"_id": 4160086,
		"coord": {
			"lon": -81.771751,
			"lat": 28.01474
		}
	},
	{
		"country": "PH",
		"name": "Janagdong",
		"_id": 1710311,
		"coord": {
			"lon": 121.508057,
			"lat": 13.90139
		}
	},
	{
		"country": "ID",
		"name": "Janaka",
		"_id": 1642822,
		"coord": {
			"lon": 105.881371,
			"lat": -6.31671
		}
	},
	{
		"country": "FI",
		"name": "Janakkala",
		"_id": 656073,
		"coord": {
			"lon": 24.6,
			"lat": 60.900002
		}
	},
	{
		"country": "FI",
		"name": "Janakkala",
		"_id": 656074,
		"coord": {
			"lon": 24.66667,
			"lat": 60.833328
		}
	},
	{
		"country": "NP",
		"name": "Janakpur",
		"_id": 1283318,
		"coord": {
			"lon": 85.906464,
			"lat": 26.718281
		}
	},
	{
		"country": "NP",
		"name": "Janakpur Zone",
		"_id": 1283316,
		"coord": {
			"lon": 86,
			"lat": 27.33333
		}
	},
	{
		"country": "ID",
		"name": "Janapria",
		"_id": 7410248,
		"coord": {
			"lon": 116.401497,
			"lat": -8.6952
		}
	},
	{
		"country": "BR",
		"name": "Janauba",
		"_id": 3460174,
		"coord": {
			"lon": -43.308891,
			"lat": -15.8025
		}
	},
	{
		"country": "AU",
		"name": "Jancourt",
		"_id": 2162434,
		"coord": {
			"lon": 143.100006,
			"lat": -38.366669
		}
	},
	{
		"country": "PK",
		"name": "Jand",
		"_id": 1176218,
		"coord": {
			"lon": 72.019279,
			"lat": 33.429852
		}
	},
	{
		"country": "BR",
		"name": "Jandaia",
		"_id": 3460173,
		"coord": {
			"lon": -50.146111,
			"lat": -17.048611
		}
	},
	{
		"country": "BR",
		"name": "Jandaia do Sul",
		"_id": 3460172,
		"coord": {
			"lon": -51.64333,
			"lat": -23.60306
		}
	},
	{
		"country": "PH",
		"name": "Jandayan",
		"_id": 1710303,
		"coord": {
			"lon": 124.183327,
			"lat": 10.16667
		}
	},
	{
		"country": "SY",
		"name": "Jandayris",
		"_id": 169190,
		"coord": {
			"lon": 36.689621,
			"lat": 36.39296
		}
	},
	{
		"country": "DE",
		"name": "Jandelsbrunn",
		"_id": 6556476,
		"coord": {
			"lon": 13.7,
			"lat": 48.733299
		}
	},
	{
		"country": "DE",
		"name": "Jandelsbrunn",
		"_id": 2895213,
		"coord": {
			"lon": 13.7,
			"lat": 48.73333
		}
	},
	{
		"country": "IN",
		"name": "Jandiala",
		"_id": 1269269,
		"coord": {
			"lon": 75.616669,
			"lat": 31.16667
		}
	},
	{
		"country": "IN",
		"name": "Jandiala Guru",
		"_id": 1269267,
		"coord": {
			"lon": 75.026672,
			"lat": 31.56139
		}
	},
	{
		"country": "PK",
		"name": "Jandiala Sher Khan",
		"_id": 1176206,
		"coord": {
			"lon": 73.918121,
			"lat": 31.81986
		}
	},
	{
		"country": "BR",
		"name": "Jandira",
		"_id": 3460170,
		"coord": {
			"lon": -46.9025,
			"lat": -23.5275
		}
	},
	{
		"country": "AU",
		"name": "Jandowae",
		"_id": 2162433,
		"coord": {
			"lon": 151.100006,
			"lat": -26.783331
		}
	},
	{
		"country": "BR",
		"name": "Janduís",
		"_id": 3397643,
		"coord": {
			"lon": -37.40889,
			"lat": -6.01556
		}
	},
	{
		"country": "PT",
		"name": "Janeiro de Cima",
		"_id": 8014340,
		"coord": {
			"lon": -7.77923,
			"lat": 40.067471
		}
	},
	{
		"country": "PT",
		"name": "Janeiro de Cima",
		"_id": 2738666,
		"coord": {
			"lon": -7.80112,
			"lat": 40.067982
		}
	},
	{
		"country": "BW",
		"name": "Janeng",
		"_id": 933719,
		"coord": {
			"lon": 25.549999,
			"lat": -25.41667
		}
	},
	{
		"country": "US",
		"name": "Janesville",
		"_id": 5257754,
		"coord": {
			"lon": -89.018723,
			"lat": 42.682789
		}
	},
	{
		"country": "US",
		"name": "Janesville",
		"_id": 5031749,
		"coord": {
			"lon": -93.708,
			"lat": 44.116081
		}
	},
	{
		"country": "US",
		"name": "Janesville",
		"_id": 5565862,
		"coord": {
			"lon": -120.524109,
			"lat": 40.296558
		}
	},
	{
		"country": "AM",
		"name": "Janfida",
		"_id": 616735,
		"coord": {
			"lon": 44.023338,
			"lat": 40.043911
		}
	},
	{
		"country": "IN",
		"name": "Jangaon",
		"_id": 1269256,
		"coord": {
			"lon": 79.183327,
			"lat": 17.716669
		}
	},
	{
		"country": "IN",
		"name": "Jangipur",
		"_id": 1269247,
		"coord": {
			"lon": 88.066673,
			"lat": 24.466669
		}
	},
	{
		"country": "ID",
		"name": "Jangkungkusumo",
		"_id": 8080451,
		"coord": {
			"lon": 112.284599,
			"lat": -6.9873
		}
	},
	{
		"country": "ID",
		"name": "Jangkurang Kidul",
		"_id": 7920901,
		"coord": {
			"lon": 107.908699,
			"lat": -7.2072
		}
	},
	{
		"country": "ID",
		"name": "Janglapa",
		"_id": 8059662,
		"coord": {
			"lon": 108.505302,
			"lat": -7.1437
		}
	},
	{
		"country": "ID",
		"name": "Jangraga",
		"_id": 8070233,
		"coord": {
			"lon": 108.670799,
			"lat": -7.4872
		}
	},
	{
		"country": "AF",
		"name": "Jani Khel",
		"_id": 1139500,
		"coord": {
			"lon": 68.397217,
			"lat": 32.763149
		}
	},
	{
		"country": "PL",
		"name": "Janikowo",
		"_id": 7533087,
		"coord": {
			"lon": 18.111601,
			"lat": 52.756699
		}
	},
	{
		"country": "PL",
		"name": "Janikowo",
		"_id": 3097688,
		"coord": {
			"lon": 18.113279,
			"lat": 52.753281
		}
	},
	{
		"country": "PS",
		"name": "Janin",
		"_id": 283506,
		"coord": {
			"lon": 35.295101,
			"lat": 32.458839
		}
	},
	{
		"country": "PH",
		"name": "Janiuay",
		"_id": 1710286,
		"coord": {
			"lon": 122.506104,
			"lat": 10.9493
		}
	},
	{
		"country": "BA",
		"name": "Janja",
		"_id": 3198895,
		"coord": {
			"lon": 19.24778,
			"lat": 44.665279
		}
	},
	{
		"country": "HR",
		"name": "Janjina",
		"_id": 3198884,
		"coord": {
			"lon": 17.428329,
			"lat": 42.925282
		}
	},
	{
		"country": "MK",
		"name": "Jankovec",
		"_id": 789893,
		"coord": {
			"lon": 21.011391,
			"lat": 41.110279
		}
	},
	{
		"country": "PL",
		"name": "Jankow Przygodzki",
		"_id": 3097638,
		"coord": {
			"lon": 17.78824,
			"lat": 51.59808
		}
	},
	{
		"country": "PL",
		"name": "Jankowice",
		"_id": 3097660,
		"coord": {
			"lon": 18.98901,
			"lat": 50.0009
		}
	},
	{
		"country": "PL",
		"name": "Jankowice Rybnickie",
		"_id": 3097651,
		"coord": {
			"lon": 18.54707,
			"lat": 50.044788
		}
	},
	{
		"country": "AU",
		"name": "Jannali",
		"_id": 2162419,
		"coord": {
			"lon": 151.066666,
			"lat": -34.01667
		}
	},
	{
		"country": "PS",
		"name": "Jannatah",
		"_id": 283133,
		"coord": {
			"lon": 35.219608,
			"lat": 31.66958
		}
	},
	{
		"country": "DE",
		"name": "Janneby",
		"_id": 6552029,
		"coord": {
			"lon": 9.3,
			"lat": 54.633301
		}
	},
	{
		"country": "DE",
		"name": "Janneby",
		"_id": 2895200,
		"coord": {
			"lon": 9.3,
			"lat": 54.633331
		}
	},
	{
		"country": "SE",
		"name": "Jannelund",
		"_id": 2703321,
		"coord": {
			"lon": 14.43333,
			"lat": 59.23333
		}
	},
	{
		"country": "FR",
		"name": "Janneyrias",
		"_id": 3012508,
		"coord": {
			"lon": 5.11027,
			"lat": 45.75346
		}
	},
	{
		"country": "DE",
		"name": "Jannowitz",
		"_id": 2895193,
		"coord": {
			"lon": 14.31667,
			"lat": 51.183331
		}
	},
	{
		"country": "DE",
		"name": "Jannowitz",
		"_id": 2895192,
		"coord": {
			"lon": 13.85127,
			"lat": 51.399471
		}
	},
	{
		"country": "PH",
		"name": "Janopol",
		"_id": 1710279,
		"coord": {
			"lon": 121.094887,
			"lat": 14.08586
		}
	},
	{
		"country": "HU",
		"name": "Janoshalma",
		"_id": 3050967,
		"coord": {
			"lon": 19.32583,
			"lat": 46.298611
		}
	},
	{
		"country": "HU",
		"name": "Janoshaza",
		"_id": 3050964,
		"coord": {
			"lon": 17.16503,
			"lat": 47.11937
		}
	},
	{
		"country": "HU",
		"name": "Janoshida",
		"_id": 719678,
		"coord": {
			"lon": 20.066669,
			"lat": 47.383331
		}
	},
	{
		"country": "RS",
		"name": "Janosik",
		"_id": 789888,
		"coord": {
			"lon": 21.008329,
			"lat": 45.173611
		}
	},
	{
		"country": "HU",
		"name": "Janossomorja",
		"_id": 3050927,
		"coord": {
			"lon": 17.13603,
			"lat": 47.786209
		}
	},
	{
		"country": "CZ",
		"name": "Janov",
		"_id": 3074512,
		"coord": {
			"lon": 13.56368,
			"lat": 50.585079
		}
	},
	{
		"country": "CZ",
		"name": "Janov nad Nisou",
		"_id": 3074482,
		"coord": {
			"lon": 15.16913,
			"lat": 50.772041
		}
	},
	{
		"country": "CZ",
		"name": "Janovice",
		"_id": 3074500,
		"coord": {
			"lon": 18.406019,
			"lat": 49.62141
		}
	},
	{
		"country": "CZ",
		"name": "Janovice nad Uhlavou",
		"_id": 3074491,
		"coord": {
			"lon": 13.21813,
			"lat": 49.34515
		}
	},
	{
		"country": "PL",
		"name": "Janow",
		"_id": 770473,
		"coord": {
			"lon": 23.23052,
			"lat": 53.467468
		}
	},
	{
		"country": "PL",
		"name": "Janow Lubelski",
		"_id": 770425,
		"coord": {
			"lon": 22.410391,
			"lat": 50.706951
		}
	},
	{
		"country": "PL",
		"name": "Janow Podlaski",
		"_id": 770413,
		"coord": {
			"lon": 23.212179,
			"lat": 52.193981
		}
	},
	{
		"country": "PL",
		"name": "Janowice",
		"_id": 770456,
		"coord": {
			"lon": 20.860809,
			"lat": 49.891541
		}
	},
	{
		"country": "PL",
		"name": "Janowice Wielkie",
		"_id": 3097599,
		"coord": {
			"lon": 15.92322,
			"lat": 50.87569
		}
	},
	{
		"country": "PL",
		"name": "Janowiec",
		"_id": 770441,
		"coord": {
			"lon": 21.8894,
			"lat": 51.323589
		}
	},
	{
		"country": "PL",
		"name": "Janowiec Wielkopolski",
		"_id": 3097594,
		"coord": {
			"lon": 17.489811,
			"lat": 52.755829
		}
	},
	{
		"country": "FR",
		"name": "Jans",
		"_id": 3012506,
		"coord": {
			"lon": -1.61438,
			"lat": 47.620281
		}
	},
	{
		"country": "IN",
		"name": "Jansath",
		"_id": 1269227,
		"coord": {
			"lon": 77.849998,
			"lat": 29.33333
		}
	},
	{
		"country": "DE",
		"name": "Janschwalde",
		"_id": 2895189,
		"coord": {
			"lon": 14.49813,
			"lat": 51.860661
		}
	},
	{
		"country": "CA",
		"name": "Jansen",
		"_id": 5985770,
		"coord": {
			"lon": -104.717796,
			"lat": 51.783352
		}
	},
	{
		"country": "HU",
		"name": "Jansentanya",
		"_id": 3050922,
		"coord": {
			"lon": 18.91667,
			"lat": 47.616669
		}
	},
	{
		"country": "ID",
		"name": "Jantake",
		"_id": 8026120,
		"coord": {
			"lon": 108.156303,
			"lat": -7.2475
		}
	},
	{
		"country": "MX",
		"name": "Jantetelco",
		"_id": 3526584,
		"coord": {
			"lon": -98.76667,
			"lat": 18.700001
		}
	},
	{
		"country": "PH",
		"name": "Jantianon",
		"_id": 1710276,
		"coord": {
			"lon": 123.165703,
			"lat": 9.4442
		}
	},
	{
		"country": "BR",
		"name": "Januaria",
		"_id": 3460148,
		"coord": {
			"lon": -44.366669,
			"lat": -15.48333
		}
	},
	{
		"country": "KW",
		"name": "Janub as Surrah",
		"_id": 285603,
		"coord": {
			"lon": 47.978062,
			"lat": 29.269171
		}
	},
	{
		"country": "PL",
		"name": "Januszkowice",
		"_id": 3097561,
		"coord": {
			"lon": 18.136801,
			"lat": 50.391891
		}
	},
	{
		"country": "ID",
		"name": "Januti",
		"_id": 8022879,
		"coord": {
			"lon": 108.129097,
			"lat": -7.4709
		}
	},
	{
		"country": "FR",
		"name": "Janville",
		"_id": 6427270,
		"coord": {
			"lon": -0.15,
			"lat": 49.166672
		}
	},
	{
		"country": "FR",
		"name": "Janville",
		"_id": 3012501,
		"coord": {
			"lon": -0.16699,
			"lat": 49.167912
		}
	},
	{
		"country": "FR",
		"name": "Janville",
		"_id": 3012502,
		"coord": {
			"lon": 1.8802,
			"lat": 48.202839
		}
	},
	{
		"country": "FR",
		"name": "Janville-sur-Juine",
		"_id": 3012499,
		"coord": {
			"lon": 2.27064,
			"lat": 48.513519
		}
	},
	{
		"country": "FR",
		"name": "Janze",
		"_id": 3012495,
		"coord": {
			"lon": -1.49829,
			"lat": 47.959148
		}
	},
	{
		"country": "PL",
		"name": "Janów Lubelski",
		"_id": 7533529,
		"coord": {
			"lon": 22.413601,
			"lat": 50.7006
		}
	},
	{
		"country": "IN",
		"name": "Jaora",
		"_id": 1269217,
		"coord": {
			"lon": 75.133331,
			"lat": 23.633329
		}
	},
	{
		"country": "ID",
		"name": "Japah",
		"_id": 1642775,
		"coord": {
			"lon": 111.290298,
			"lat": -6.9423
		}
	},
	{
		"country": "JP",
		"name": "Japan",
		"_id": 1861060,
		"coord": {
			"lon": 139.753098,
			"lat": 35.68536
		}
	},
	{
		"country": "BR",
		"name": "Japaratuba",
		"_id": 3460136,
		"coord": {
			"lon": -36.940281,
			"lat": -10.59333
		}
	},
	{
		"country": "BR",
		"name": "Japaraíba",
		"_id": 3460137,
		"coord": {
			"lon": -45.50333,
			"lat": -20.14139
		}
	},
	{
		"country": "ID",
		"name": "Japeledok",
		"_id": 8068238,
		"coord": {
			"lon": 111.441101,
			"lat": -6.7443
		}
	},
	{
		"country": "ID",
		"name": "Japerejo",
		"_id": 1642776,
		"coord": {
			"lon": 111.449501,
			"lat": -6.7495
		}
	},
	{
		"country": "BR",
		"name": "Japeri",
		"_id": 3460132,
		"coord": {
			"lon": -43.653332,
			"lat": -22.643061
		}
	},
	{
		"country": "PH",
		"name": "Japitan",
		"_id": 1710269,
		"coord": {
			"lon": 123.54361,
			"lat": 10.76111
		}
	},
	{
		"country": "PH",
		"name": "Japitan",
		"_id": 1710270,
		"coord": {
			"lon": 123.503502,
			"lat": 10.1279
		}
	},
	{
		"country": "BR",
		"name": "Japoata",
		"_id": 3460127,
		"coord": {
			"lon": -36.801109,
			"lat": -10.34667
		}
	},
	{
		"country": "AT",
		"name": "Japons",
		"_id": 7871777,
		"coord": {
			"lon": 15.5639,
			"lat": 48.801331
		}
	},
	{
		"country": "AT",
		"name": "Japons",
		"_id": 2775125,
		"coord": {
			"lon": 15.56831,
			"lat": 48.7925
		}
	},
	{
		"country": "FI",
		"name": "Jappila",
		"_id": 656015,
		"coord": {
			"lon": 27.43372,
			"lat": 62.37899
		}
	},
	{
		"country": "ID",
		"name": "Japura",
		"_id": 1642773,
		"coord": {
			"lon": 102.349998,
			"lat": -0.31667
		}
	},
	{
		"country": "PA",
		"name": "Jaque",
		"_id": 3708432,
		"coord": {
			"lon": -78.17028,
			"lat": 7.5175
		}
	},
	{
		"country": "DO",
		"name": "Jaquimeyes",
		"_id": 3504160,
		"coord": {
			"lon": -71.161453,
			"lat": 18.311729
		}
	},
	{
		"country": "AF",
		"name": "Jar-e Qūdūq",
		"_id": 1139362,
		"coord": {
			"lon": 65.484169,
			"lat": 36.30389
		}
	},
	{
		"country": "ES",
		"name": "Jaraba",
		"_id": 6362818,
		"coord": {
			"lon": -1.89822,
			"lat": 41.199619
		}
	},
	{
		"country": "ES",
		"name": "Jaraba",
		"_id": 3120188,
		"coord": {
			"lon": -1.8844,
			"lat": 41.19083
		}
	},
	{
		"country": "DO",
		"name": "Jarabacoa",
		"_id": 3504158,
		"coord": {
			"lon": -70.642181,
			"lat": 19.12178
		}
	},
	{
		"country": "SY",
		"name": "Jarabulus",
		"_id": 169179,
		"coord": {
			"lon": 38.011108,
			"lat": 36.817501
		}
	},
	{
		"country": "PL",
		"name": "Jaraczewo",
		"_id": 3097553,
		"coord": {
			"lon": 17.29707,
			"lat": 51.96854
		}
	},
	{
		"country": "ES",
		"name": "Jarafuel",
		"_id": 6362009,
		"coord": {
			"lon": -1.0824,
			"lat": 39.147209
		}
	},
	{
		"country": "ES",
		"name": "Jarafuel",
		"_id": 2516369,
		"coord": {
			"lon": -1.07306,
			"lat": 39.140129
		}
	},
	{
		"country": "BR",
		"name": "Jaragua",
		"_id": 3460107,
		"coord": {
			"lon": -49.334438,
			"lat": -15.75694
		}
	},
	{
		"country": "BR",
		"name": "Jaragua do Sul",
		"_id": 3460102,
		"coord": {
			"lon": -49.066669,
			"lat": -26.486111
		}
	},
	{
		"country": "ES",
		"name": "Jaraicejo",
		"_id": 6356799,
		"coord": {
			"lon": -5.85403,
			"lat": 39.695068
		}
	},
	{
		"country": "ES",
		"name": "Jaraicejo",
		"_id": 2516367,
		"coord": {
			"lon": -5.81308,
			"lat": 39.666241
		}
	},
	{
		"country": "ES",
		"name": "Jaraiz de la Vera",
		"_id": 3120186,
		"coord": {
			"lon": -5.75426,
			"lat": 40.060051
		}
	},
	{
		"country": "RS",
		"name": "Jarak",
		"_id": 3198868,
		"coord": {
			"lon": 19.757219,
			"lat": 44.916672
		}
	},
	{
		"country": "MX",
		"name": "Jaral del Progreso",
		"_id": 4004092,
		"coord": {
			"lon": -101.066673,
			"lat": 20.366671
		}
	},
	{
		"country": "US",
		"name": "Jarales",
		"_id": 5473163,
		"coord": {
			"lon": -106.763641,
			"lat": 34.613121
		}
	},
	{
		"country": "ES",
		"name": "Jaramillo Quemado",
		"_id": 6356473,
		"coord": {
			"lon": -3.35946,
			"lat": 42.099049
		}
	},
	{
		"country": "ES",
		"name": "Jaramillo Quemado",
		"_id": 3120181,
		"coord": {
			"lon": -3.35868,
			"lat": 42.085678
		}
	},
	{
		"country": "ES",
		"name": "Jaramillo de la Fuente",
		"_id": 6356472,
		"coord": {
			"lon": -3.31747,
			"lat": 42.124039
		}
	},
	{
		"country": "ES",
		"name": "Jaramillo de la Fuente",
		"_id": 3120182,
		"coord": {
			"lon": -3.31239,
			"lat": 42.114719
		}
	},
	{
		"country": "ES",
		"name": "Jarandilla de la Vera",
		"_id": 6356801,
		"coord": {
			"lon": -5.62446,
			"lat": 40.093472
		}
	},
	{
		"country": "ES",
		"name": "Jarandilla de la Vera",
		"_id": 3120179,
		"coord": {
			"lon": -5.66079,
			"lat": 40.12915
		}
	},
	{
		"country": "ID",
		"name": "Jarangan",
		"_id": 1642765,
		"coord": {
			"lon": 112.446297,
			"lat": -8.1078
		}
	},
	{
		"country": "PK",
		"name": "Jaranwala",
		"_id": 1176106,
		"coord": {
			"lon": 73.433327,
			"lat": 31.33333
		}
	},
	{
		"country": "JO",
		"name": "Jarash",
		"_id": 248875,
		"coord": {
			"lon": 35.899288,
			"lat": 32.280819
		}
	},
	{
		"country": "ES",
		"name": "Jaraíz de la Vera",
		"_id": 6356800,
		"coord": {
			"lon": -5.75231,
			"lat": 40.034069
		}
	},
	{
		"country": "NO",
		"name": "Jarbakken",
		"_id": 6693020,
		"coord": {
			"lon": 10.6553,
			"lat": 59.953602
		}
	},
	{
		"country": "SE",
		"name": "Jarbo",
		"_id": 2703300,
		"coord": {
			"lon": 16.6,
			"lat": 60.716671
		}
	},
	{
		"country": "DE",
		"name": "Jarchau",
		"_id": 2895177,
		"coord": {
			"lon": 11.89579,
			"lat": 52.65535
		}
	},
	{
		"country": "PL",
		"name": "Jarczow",
		"_id": 770395,
		"coord": {
			"lon": 23.58576,
			"lat": 50.424381
		}
	},
	{
		"country": "FR",
		"name": "Jard-sur-Mer",
		"_id": 3012484,
		"coord": {
			"lon": -1.5764,
			"lat": 46.414509
		}
	},
	{
		"country": "HU",
		"name": "Jardanhaza",
		"_id": 719668,
		"coord": {
			"lon": 20.25,
			"lat": 48.150002
		}
	},
	{
		"country": "AU",
		"name": "Jardee",
		"_id": 2069168,
		"coord": {
			"lon": 116.116669,
			"lat": -34.283329
		}
	},
	{
		"country": "DE",
		"name": "Jardelund",
		"_id": 6552030,
		"coord": {
			"lon": 9.2,
			"lat": 54.833302
		}
	},
	{
		"country": "DE",
		"name": "Jardelund",
		"_id": 2895174,
		"coord": {
			"lon": 9.2,
			"lat": 54.833328
		}
	},
	{
		"country": "BR",
		"name": "Jardim",
		"_id": 3460087,
		"coord": {
			"lon": -56.138062,
			"lat": -21.48028
		}
	},
	{
		"country": "BR",
		"name": "Jardim",
		"_id": 3397590,
		"coord": {
			"lon": -39.056671,
			"lat": -3.46444
		}
	},
	{
		"country": "BR",
		"name": "Jardim Alegre",
		"_id": 3460076,
		"coord": {
			"lon": -51.692219,
			"lat": -24.179171
		}
	},
	{
		"country": "BR",
		"name": "Jardim Eldorado",
		"_id": 7874557,
		"coord": {
			"lon": -48.66428,
			"lat": -27.62932
		}
	},
	{
		"country": "PT",
		"name": "Jardim Pelado",
		"_id": 2267364,
		"coord": {
			"lon": -17.200001,
			"lat": 32.73333
		}
	},
	{
		"country": "BR",
		"name": "Jardim São Nicolau",
		"_id": 3475310,
		"coord": {
			"lon": -46.548889,
			"lat": -23.125
		}
	},
	{
		"country": "BR",
		"name": "Jardim de Piranhas",
		"_id": 3397562,
		"coord": {
			"lon": -37.35194,
			"lat": -6.37861
		}
	},
	{
		"country": "BR",
		"name": "Jardim do Serido",
		"_id": 3397560,
		"coord": {
			"lon": -36.774441,
			"lat": -6.58444
		}
	},
	{
		"country": "CO",
		"name": "Jardin",
		"_id": 3680366,
		"coord": {
			"lon": -75.819763,
			"lat": 5.59902
		}
	},
	{
		"country": "FR",
		"name": "Jardin",
		"_id": 3012487,
		"coord": {
			"lon": 4.90641,
			"lat": 45.49617
		}
	},
	{
		"country": "AR",
		"name": "Jardin America",
		"_id": 3433349,
		"coord": {
			"lon": -55.226978,
			"lat": -27.043461
		}
	},
	{
		"country": "HK",
		"name": "Jardines Lookout",
		"_id": 1819706,
		"coord": {
			"lon": 114.183327,
			"lat": 22.26667
		}
	},
	{
		"country": "PR",
		"name": "Jardines de Anasco",
		"_id": 4565636,
		"coord": {
			"lon": -67.136848,
			"lat": 18.288839
		}
	},
	{
		"country": "MX",
		"name": "Jardines de San Mateo",
		"_id": 3827446,
		"coord": {
			"lon": -99.270279,
			"lat": 19.49333
		}
	},
	{
		"country": "BR",
		"name": "Jardinopolis",
		"_id": 3460071,
		"coord": {
			"lon": -47.763889,
			"lat": -21.01778
		}
	},
	{
		"country": "BG",
		"name": "Jarebica",
		"_id": 6459740,
		"coord": {
			"lon": 27,
			"lat": 43.849998
		}
	},
	{
		"country": "RS",
		"name": "Jarebice",
		"_id": 3198859,
		"coord": {
			"lon": 19.42417,
			"lat": 44.538891
		}
	},
	{
		"country": "NO",
		"name": "Jaren",
		"_id": 3150911,
		"coord": {
			"lon": 10.56155,
			"lat": 60.392731
		}
	},
	{
		"country": "SI",
		"name": "Jareninski Vrh",
		"_id": 3198856,
		"coord": {
			"lon": 15.68333,
			"lat": 46.616669
		}
	},
	{
		"country": "MN",
		"name": "Jargalant",
		"_id": 1515577,
		"coord": {
			"lon": 95.447853,
			"lat": 49.30677
		}
	},
	{
		"country": "MN",
		"name": "Jargalant",
		"_id": 1515578,
		"coord": {
			"lon": 99.633331,
			"lat": 47.150002
		}
	},
	{
		"country": "MN",
		"name": "Jargalant",
		"_id": 1515579,
		"coord": {
			"lon": 91.087822,
			"lat": 46.926701
		}
	},
	{
		"country": "MN",
		"name": "Jargalant",
		"_id": 1515580,
		"coord": {
			"lon": 97.175957,
			"lat": 45.709541
		}
	},
	{
		"country": "MN",
		"name": "Jargalant",
		"_id": 2030170,
		"coord": {
			"lon": 105.880562,
			"lat": 50.067501
		}
	},
	{
		"country": "MN",
		"name": "Jargalant",
		"_id": 2030171,
		"coord": {
			"lon": 106.333328,
			"lat": 49.666672
		}
	},
	{
		"country": "MN",
		"name": "Jargalant",
		"_id": 2030172,
		"coord": {
			"lon": 100.257111,
			"lat": 49.29591
		}
	},
	{
		"country": "MN",
		"name": "Jargalant",
		"_id": 2030173,
		"coord": {
			"lon": 105.868332,
			"lat": 48.520561
		}
	},
	{
		"country": "MN",
		"name": "Jargalant",
		"_id": 2030175,
		"coord": {
			"lon": 101.972351,
			"lat": 47.793091
		}
	},
	{
		"country": "MN",
		"name": "Jargalant",
		"_id": 2030176,
		"coord": {
			"lon": 100.216667,
			"lat": 47.533329
		}
	},
	{
		"country": "MN",
		"name": "Jargalant",
		"_id": 6997333,
		"coord": {
			"lon": 104.408028,
			"lat": 49.12915
		}
	},
	{
		"country": "FR",
		"name": "Jargeau",
		"_id": 3012483,
		"coord": {
			"lon": 2.12648,
			"lat": 47.863159
		}
	},
	{
		"country": "PH",
		"name": "Jarigue",
		"_id": 1711866,
		"coord": {
			"lon": 121.440407,
			"lat": 11.86538
		}
	},
	{
		"country": "ES",
		"name": "Jarilla",
		"_id": 6355238,
		"coord": {
			"lon": -6.00806,
			"lat": 40.169331
		}
	},
	{
		"country": "ES",
		"name": "Jarilla",
		"_id": 3120171,
		"coord": {
			"lon": -6.00281,
			"lat": 40.171558
		}
	},
	{
		"country": "BR",
		"name": "Jarinu",
		"_id": 3460068,
		"coord": {
			"lon": -46.728329,
			"lat": -23.101391
		}
	},
	{
		"country": "MX",
		"name": "Jaripeo",
		"_id": 4025193,
		"coord": {
			"lon": -101.086113,
			"lat": 19.674999
		}
	},
	{
		"country": "RO",
		"name": "Jaristea",
		"_id": 675293,
		"coord": {
			"lon": 27.066669,
			"lat": 45.783329
		}
	},
	{
		"country": "AU",
		"name": "Jarklin",
		"_id": 2162407,
		"coord": {
			"lon": 143.966675,
			"lat": -36.26667
		}
	},
	{
		"country": "RS",
		"name": "Jarkovac",
		"_id": 789880,
		"coord": {
			"lon": 20.758329,
			"lat": 45.26889
		}
	},
	{
		"country": "RS",
		"name": "Jarkovci",
		"_id": 789879,
		"coord": {
			"lon": 20.025,
			"lat": 45.054169
		}
	},
	{
		"country": "BG",
		"name": "Jarlovo",
		"_id": 6461674,
		"coord": {
			"lon": 23.258329,
			"lat": 42.441669
		}
	},
	{
		"country": "DE",
		"name": "Jarmen",
		"_id": 2895162,
		"coord": {
			"lon": 13.34032,
			"lat": 53.923851
		}
	},
	{
		"country": "HR",
		"name": "Jarmina",
		"_id": 3198852,
		"coord": {
			"lon": 18.72917,
			"lat": 45.318062
		}
	},
	{
		"country": "DE",
		"name": "Jarmshagen",
		"_id": 2895161,
		"coord": {
			"lon": 13.25578,
			"lat": 54.11356
		}
	},
	{
		"country": "SE",
		"name": "Jarna",
		"_id": 2703268,
		"coord": {
			"lon": 14.36667,
			"lat": 60.533329
		}
	},
	{
		"country": "FR",
		"name": "Jarnac",
		"_id": 3012477,
		"coord": {
			"lon": -0.17329,
			"lat": 45.681599
		}
	},
	{
		"country": "DE",
		"name": "Jarnsen",
		"_id": 2895158,
		"coord": {
			"lon": 10.3,
			"lat": 52.650002
		}
	},
	{
		"country": "FR",
		"name": "Jarny",
		"_id": 3012467,
		"coord": {
			"lon": 5.87877,
			"lat": 49.15736
		}
	},
	{
		"country": "NP",
		"name": "Jaro",
		"_id": 7996816,
		"coord": {
			"lon": 86.713219,
			"lat": 27.81604
		}
	},
	{
		"country": "PH",
		"name": "Jaro",
		"_id": 1710262,
		"coord": {
			"lon": 124.782501,
			"lat": 11.18833
		}
	},
	{
		"country": "PL",
		"name": "Jarocin",
		"_id": 7533024,
		"coord": {
			"lon": 17.5075,
			"lat": 51.961498
		}
	},
	{
		"country": "PL",
		"name": "Jarocin",
		"_id": 3097528,
		"coord": {
			"lon": 17.50256,
			"lat": 51.97266
		}
	},
	{
		"country": "PL",
		"name": "Jarocin",
		"_id": 770383,
		"coord": {
			"lon": 22.321211,
			"lat": 50.56459
		}
	},
	{
		"country": "CZ",
		"name": "Jaromer",
		"_id": 3074462,
		"coord": {
			"lon": 15.92136,
			"lat": 50.356201
		}
	},
	{
		"country": "CZ",
		"name": "Jaromerice",
		"_id": 3074461,
		"coord": {
			"lon": 16.75185,
			"lat": 49.625561
		}
	},
	{
		"country": "CZ",
		"name": "Jaromerice nad Rokytnou",
		"_id": 3074459,
		"coord": {
			"lon": 15.89331,
			"lat": 49.094082
		}
	},
	{
		"country": "CZ",
		"name": "Jaroslavice",
		"_id": 3074452,
		"coord": {
			"lon": 16.233509,
			"lat": 48.756569
		}
	},
	{
		"country": "PL",
		"name": "Jaroslaw",
		"_id": 770380,
		"coord": {
			"lon": 22.677759,
			"lat": 50.016232
		}
	},
	{
		"country": "CZ",
		"name": "Jarosov nad Nezarkou",
		"_id": 3074444,
		"coord": {
			"lon": 15.06734,
			"lat": 49.189892
		}
	},
	{
		"country": "PL",
		"name": "Jaroszowice",
		"_id": 3097504,
		"coord": {
			"lon": 19.519621,
			"lat": 49.862671
		}
	},
	{
		"country": "PL",
		"name": "Jarosław",
		"_id": 7532223,
		"coord": {
			"lon": 22.670401,
			"lat": 50.040001
		}
	},
	{
		"country": "CZ",
		"name": "Jarov",
		"_id": 3074440,
		"coord": {
			"lon": 14.07234,
			"lat": 49.953781
		}
	},
	{
		"country": "SE",
		"name": "Jarpen",
		"_id": 2703212,
		"coord": {
			"lon": 13.48333,
			"lat": 63.349998
		}
	},
	{
		"country": "DE",
		"name": "Jarplund",
		"_id": 2895155,
		"coord": {
			"lon": 9.41667,
			"lat": 54.73333
		}
	},
	{
		"country": "DE",
		"name": "Jarplund-Weding",
		"_id": 3208552,
		"coord": {
			"lon": 9.41667,
			"lat": 54.73333
		}
	},
	{
		"country": "ES",
		"name": "Jarque",
		"_id": 6362819,
		"coord": {
			"lon": -1.69391,
			"lat": 41.56673
		}
	},
	{
		"country": "ES",
		"name": "Jarque",
		"_id": 3120169,
		"coord": {
			"lon": -1.67563,
			"lat": 41.556129
		}
	},
	{
		"country": "ES",
		"name": "Jarque de la Val",
		"_id": 6361539,
		"coord": {
			"lon": -0.79543,
			"lat": 40.709949
		}
	},
	{
		"country": "ES",
		"name": "Jarque de la Val",
		"_id": 3120168,
		"coord": {
			"lon": -0.80083,
			"lat": 40.702831
		}
	},
	{
		"country": "AU",
		"name": "Jarrahdale",
		"_id": 2069163,
		"coord": {
			"lon": 116.066673,
			"lat": -32.349998
		}
	},
	{
		"country": "GM",
		"name": "Jarreng",
		"_id": 2413265,
		"coord": {
			"lon": -15.18333,
			"lat": 13.61667
		}
	},
	{
		"country": "MX",
		"name": "Jarretadera",
		"_id": 4004060,
		"coord": {
			"lon": -105.26667,
			"lat": 20.683331
		}
	},
	{
		"country": "US",
		"name": "Jarrettsville",
		"_id": 4359359,
		"coord": {
			"lon": -76.477737,
			"lat": 39.604549
		}
	},
	{
		"country": "FR",
		"name": "Jarrie",
		"_id": 3012465,
		"coord": {
			"lon": 5.75957,
			"lat": 45.117321
		}
	},
	{
		"country": "GB",
		"name": "Jarrow",
		"_id": 2645972,
		"coord": {
			"lon": -1.48423,
			"lat": 54.980358
		}
	},
	{
		"country": "BR",
		"name": "Jaru",
		"_id": 3925040,
		"coord": {
			"lon": -62.466389,
			"lat": -10.43889
		}
	},
	{
		"country": "CU",
		"name": "Jaruco",
		"_id": 3556351,
		"coord": {
			"lon": -82.010834,
			"lat": 23.04306
		}
	},
	{
		"country": "ID",
		"name": "Jarurejo",
		"_id": 1642760,
		"coord": {
			"lon": 111.885201,
			"lat": -6.9
		}
	},
	{
		"country": "EE",
		"name": "Jarva-Jaani",
		"_id": 591968,
		"coord": {
			"lon": 25.886391,
			"lat": 59.038609
		}
	},
	{
		"country": "EE",
		"name": "Jarvakandi",
		"_id": 591965,
		"coord": {
			"lon": 24.82583,
			"lat": 58.778889
		}
	},
	{
		"country": "FI",
		"name": "Jarvenpaa",
		"_id": 655958,
		"coord": {
			"lon": 25.08992,
			"lat": 60.47369
		}
	},
	{
		"country": "CA",
		"name": "Jarvie",
		"_id": 5985869,
		"coord": {
			"lon": -113.985397,
			"lat": 54.45015
		}
	},
	{
		"country": "FR",
		"name": "Jarville-la-Malgrange",
		"_id": 3012449,
		"coord": {
			"lon": 6.20636,
			"lat": 48.669071
		}
	},
	{
		"country": "IN",
		"name": "Jarwal",
		"_id": 1269183,
		"coord": {
			"lon": 81.550003,
			"lat": 27.16667
		}
	},
	{
		"country": "FR",
		"name": "Jarze",
		"_id": 3012447,
		"coord": {
			"lon": -0.23182,
			"lat": 47.55563
		}
	},
	{
		"country": "DE",
		"name": "Jarzt",
		"_id": 2895148,
		"coord": {
			"lon": 11.56311,
			"lat": 48.362068
		}
	},
	{
		"country": "ES",
		"name": "Jarén",
		"_id": 3120175,
		"coord": {
			"lon": -6.90106,
			"lat": 43.502899
		}
	},
	{
		"country": "ES",
		"name": "Jasa",
		"_id": 6358358,
		"coord": {
			"lon": -0.64931,
			"lat": 42.703308
		}
	},
	{
		"country": "ES",
		"name": "Jasa",
		"_id": 3120164,
		"coord": {
			"lon": -0.66605,
			"lat": 42.694801
		}
	},
	{
		"country": "RS",
		"name": "Jasa Tomic",
		"_id": 789875,
		"coord": {
			"lon": 20.85528,
			"lat": 45.446941
		}
	},
	{
		"country": "PH",
		"name": "Jasaan",
		"_id": 1710259,
		"coord": {
			"lon": 124.783333,
			"lat": 8.65
		}
	},
	{
		"country": "PH",
		"name": "Jasaan",
		"_id": 1710258,
		"coord": {
			"lon": 124.755562,
			"lat": 8.65417
		}
	},
	{
		"country": "IN",
		"name": "Jasdan",
		"_id": 1269179,
		"coord": {
			"lon": 71.199997,
			"lat": 22.033331
		}
	},
	{
		"country": "HR",
		"name": "Jasenice",
		"_id": 3198826,
		"coord": {
			"lon": 18.269171,
			"lat": 42.592781
		}
	},
	{
		"country": "IN",
		"name": "Jashpurnagar",
		"_id": 1269177,
		"coord": {
			"lon": 84.150002,
			"lat": 22.9
		}
	},
	{
		"country": "IN",
		"name": "Jasidih",
		"_id": 1269175,
		"coord": {
			"lon": 86.650002,
			"lat": 24.51667
		}
	},
	{
		"country": "PL",
		"name": "Jasien",
		"_id": 770357,
		"coord": {
			"lon": 20.571899,
			"lat": 49.969879
		}
	},
	{
		"country": "PL",
		"name": "Jasien",
		"_id": 3097480,
		"coord": {
			"lon": 15.01419,
			"lat": 51.751419
		}
	},
	{
		"country": "PL",
		"name": "Jasienica",
		"_id": 770348,
		"coord": {
			"lon": 21.411501,
			"lat": 52.41415
		}
	},
	{
		"country": "PL",
		"name": "Jasienica",
		"_id": 3097471,
		"coord": {
			"lon": 19.841909,
			"lat": 49.822811
		}
	},
	{
		"country": "PL",
		"name": "Jasienica",
		"_id": 3097472,
		"coord": {
			"lon": 18.921551,
			"lat": 49.813122
		}
	},
	{
		"country": "PL",
		"name": "Jasienica Rosielna",
		"_id": 770346,
		"coord": {
			"lon": 21.941759,
			"lat": 49.751438
		}
	},
	{
		"country": "PL",
		"name": "Jasieniec",
		"_id": 770341,
		"coord": {
			"lon": 20.94099,
			"lat": 51.821041
		}
	},
	{
		"country": "SY",
		"name": "Jasim",
		"_id": 165997,
		"coord": {
			"lon": 36.060181,
			"lat": 32.992329
		}
	},
	{
		"country": "PL",
		"name": "Jasionow",
		"_id": 770316,
		"coord": {
			"lon": 21.97678,
			"lat": 49.658409
		}
	},
	{
		"country": "PL",
		"name": "Jasliska",
		"_id": 770295,
		"coord": {
			"lon": 21.807949,
			"lat": 49.442291
		}
	},
	{
		"country": "PL",
		"name": "Jaslo",
		"_id": 770293,
		"coord": {
			"lon": 21.472521,
			"lat": 49.74506
		}
	},
	{
		"country": "US",
		"name": "Jasmine Estates",
		"_id": 4160100,
		"coord": {
			"lon": -82.690102,
			"lat": 28.29306
		}
	},
	{
		"country": "DE",
		"name": "Jasnitz",
		"_id": 2895139,
		"coord": {
			"lon": 11.36667,
			"lat": 53.400002
		}
	},
	{
		"country": "IN",
		"name": "Jaso",
		"_id": 1269172,
		"coord": {
			"lon": 80.48333,
			"lat": 24.5
		}
	},
	{
		"country": "US",
		"name": "Jasonville",
		"_id": 4259639,
		"coord": {
			"lon": -87.199181,
			"lat": 39.163101
		}
	},
	{
		"country": "US",
		"name": "Jasper",
		"_id": 4259640,
		"coord": {
			"lon": -86.931107,
			"lat": 38.391441
		}
	},
	{
		"country": "CA",
		"name": "Jasper",
		"_id": 5985918,
		"coord": {
			"lon": -118.08567,
			"lat": 52.88332
		}
	},
	{
		"country": "US",
		"name": "Jasper",
		"_id": 4069659,
		"coord": {
			"lon": -87.277512,
			"lat": 33.831219
		}
	},
	{
		"country": "US",
		"name": "Jasper",
		"_id": 4116400,
		"coord": {
			"lon": -93.186569,
			"lat": 36.008129
		}
	},
	{
		"country": "US",
		"name": "Jasper",
		"_id": 4160102,
		"coord": {
			"lon": -82.948189,
			"lat": 30.51827
		}
	},
	{
		"country": "US",
		"name": "Jasper",
		"_id": 4202634,
		"coord": {
			"lon": -84.429092,
			"lat": 34.467869
		}
	},
	{
		"country": "US",
		"name": "Jasper",
		"_id": 4632892,
		"coord": {
			"lon": -85.626083,
			"lat": 35.074242
		}
	},
	{
		"country": "US",
		"name": "Jasper",
		"_id": 4700731,
		"coord": {
			"lon": -93.996582,
			"lat": 30.9202
		}
	},
	{
		"country": "US",
		"name": "Jasper County",
		"_id": 4700729,
		"coord": {
			"lon": -94.016853,
			"lat": 30.73354
		}
	},
	{
		"country": "US",
		"name": "Jasper County",
		"_id": 4202638,
		"coord": {
			"lon": -83.683228,
			"lat": 33.333462
		}
	},
	{
		"country": "US",
		"name": "Jasper County",
		"_id": 4392354,
		"coord": {
			"lon": -94.35022,
			"lat": 37.200062
		}
	},
	{
		"country": "US",
		"name": "Jasper County",
		"_id": 4922007,
		"coord": {
			"lon": -87.151413,
			"lat": 41.041431
		}
	},
	{
		"country": "US",
		"name": "Jasper County",
		"_id": 4862456,
		"coord": {
			"lon": -93.050201,
			"lat": 41.683319
		}
	},
	{
		"country": "US",
		"name": "Jasper Heights",
		"_id": 4700744,
		"coord": {
			"lon": -94.324081,
			"lat": 32.545712
		}
	},
	{
		"country": "CA",
		"name": "Jasper Park Lodge",
		"_id": 5985934,
		"coord": {
			"lon": -118.057152,
			"lat": 52.885761
		}
	},
	{
		"country": "AU",
		"name": "Jaspers Brush",
		"_id": 2162402,
		"coord": {
			"lon": 150.666672,
			"lat": -34.816669
		}
	},
	{
		"country": "IN",
		"name": "Jaspur",
		"_id": 1269168,
		"coord": {
			"lon": 78.816673,
			"lat": 29.283331
		}
	},
	{
		"country": "IN",
		"name": "Jasrana",
		"_id": 1269165,
		"coord": {
			"lon": 78.683327,
			"lat": 27.25
		}
	},
	{
		"country": "FR",
		"name": "Jassans-Riottier",
		"_id": 3012444,
		"coord": {
			"lon": 4.76004,
			"lat": 45.983521
		}
	},
	{
		"country": "FR",
		"name": "Jasseron",
		"_id": 3012441,
		"coord": {
			"lon": 5.32579,
			"lat": 46.213161
		}
	},
	{
		"country": "PL",
		"name": "Jastarnia",
		"_id": 7531426,
		"coord": {
			"lon": 18.628441,
			"lat": 54.714771
		}
	},
	{
		"country": "PL",
		"name": "Jastarnia",
		"_id": 3097421,
		"coord": {
			"lon": 18.67873,
			"lat": 54.69606
		}
	},
	{
		"country": "PL",
		"name": "Jastkow",
		"_id": 770288,
		"coord": {
			"lon": 22.435459,
			"lat": 51.304111
		}
	},
	{
		"country": "HR",
		"name": "Jastrebarsko",
		"_id": 3198799,
		"coord": {
			"lon": 15.64861,
			"lat": 45.668331
		}
	},
	{
		"country": "PL",
		"name": "Jastrowie",
		"_id": 7533179,
		"coord": {
			"lon": 16.7887,
			"lat": 53.4076
		}
	},
	{
		"country": "PL",
		"name": "Jastrowie",
		"_id": 3097420,
		"coord": {
			"lon": 16.81756,
			"lat": 53.420479
		}
	},
	{
		"country": "PL",
		"name": "Jastrzab",
		"_id": 770286,
		"coord": {
			"lon": 20.94758,
			"lat": 51.24725
		}
	},
	{
		"country": "PL",
		"name": "Jastrzab",
		"_id": 3097416,
		"coord": {
			"lon": 19.1817,
			"lat": 50.670189
		}
	},
	{
		"country": "PL",
		"name": "Jastrzebia",
		"_id": 770269,
		"coord": {
			"lon": 21.237089,
			"lat": 51.497421
		}
	},
	{
		"country": "PL",
		"name": "Jastrzebia",
		"_id": 770271,
		"coord": {
			"lon": 20.88089,
			"lat": 49.797329
		}
	},
	{
		"country": "PL",
		"name": "Jastrzebia Gora",
		"_id": 3097409,
		"coord": {
			"lon": 18.313009,
			"lat": 54.831348
		}
	},
	{
		"country": "PL",
		"name": "Jastrzebie Zdroj",
		"_id": 3097391,
		"coord": {
			"lon": 18.574789,
			"lat": 49.955421
		}
	},
	{
		"country": "PL",
		"name": "Jastrzębie",
		"_id": 3097405,
		"coord": {
			"lon": 18.0989,
			"lat": 50.172699
		}
	},
	{
		"country": "PL",
		"name": "Jastrzębie Dolne",
		"_id": 3097395,
		"coord": {
			"lon": 18.58333,
			"lat": 49.950001
		}
	},
	{
		"country": "PL",
		"name": "Jastrzębie-Zdrój",
		"_id": 7530961,
		"coord": {
			"lon": 18.600531,
			"lat": 49.960629
		}
	},
	{
		"country": "PL",
		"name": "Jastrzębie-Zdrój",
		"_id": 7531863,
		"coord": {
			"lon": 18.6005,
			"lat": 49.960602
		}
	},
	{
		"country": "ID",
		"name": "Jasugih Selatan",
		"_id": 7846042,
		"coord": {
			"lon": 106.001503,
			"lat": -6.4347
		}
	},
	{
		"country": "IN",
		"name": "Jaswantnagar",
		"_id": 1269158,
		"coord": {
			"lon": 78.902779,
			"lat": 26.878611
		}
	},
	{
		"country": "HU",
		"name": "Jaszalsoszentgyorgy",
		"_id": 719656,
		"coord": {
			"lon": 20.1,
			"lat": 47.366669
		}
	},
	{
		"country": "HU",
		"name": "Jaszapati",
		"_id": 719655,
		"coord": {
			"lon": 20.15,
			"lat": 47.51667
		}
	},
	{
		"country": "HU",
		"name": "Jaszarokszallas",
		"_id": 3050909,
		"coord": {
			"lon": 19.980379,
			"lat": 47.64238
		}
	},
	{
		"country": "HU",
		"name": "Jaszbereny",
		"_id": 3050907,
		"coord": {
			"lon": 19.91667,
			"lat": 47.5
		}
	},
	{
		"country": "HU",
		"name": "Jaszdozsa",
		"_id": 719649,
		"coord": {
			"lon": 20.015341,
			"lat": 47.566101
		}
	},
	{
		"country": "HU",
		"name": "Jaszjakohalma",
		"_id": 719645,
		"coord": {
			"lon": 19.99086,
			"lat": 47.520378
		}
	},
	{
		"country": "HU",
		"name": "Jaszkarajeno",
		"_id": 719644,
		"coord": {
			"lon": 20.066669,
			"lat": 47.049999
		}
	},
	{
		"country": "HU",
		"name": "Jaszkiser",
		"_id": 719643,
		"coord": {
			"lon": 20.216669,
			"lat": 47.450001
		}
	},
	{
		"country": "HU",
		"name": "Jaszladany",
		"_id": 719640,
		"coord": {
			"lon": 20.16667,
			"lat": 47.366669
		}
	},
	{
		"country": "HU",
		"name": "Jaszszentandras",
		"_id": 719635,
		"coord": {
			"lon": 20.183331,
			"lat": 47.583328
		}
	},
	{
		"country": "HU",
		"name": "Jaszszentlaszlo",
		"_id": 3050901,
		"coord": {
			"lon": 19.760651,
			"lat": 46.566849
		}
	},
	{
		"country": "PL",
		"name": "Jasło",
		"_id": 7532613,
		"coord": {
			"lon": 21.471701,
			"lat": 49.747002
		}
	},
	{
		"country": "BR",
		"name": "Jatai",
		"_id": 3460064,
		"coord": {
			"lon": -51.714439,
			"lat": -17.88139
		}
	},
	{
		"country": "BR",
		"name": "Jataizinho",
		"_id": 3460048,
		"coord": {
			"lon": -50.98,
			"lat": -23.254169
		}
	},
	{
		"country": "ID",
		"name": "Jatake",
		"_id": 1642755,
		"coord": {
			"lon": 106.256401,
			"lat": -6.8727
		}
	},
	{
		"country": "IN",
		"name": "Jatani",
		"_id": 1269154,
		"coord": {
			"lon": 85.699997,
			"lat": 20.16667
		}
	},
	{
		"country": "IN",
		"name": "Jatara",
		"_id": 1269153,
		"coord": {
			"lon": 79.050003,
			"lat": 25.01667
		}
	},
	{
		"country": "BR",
		"name": "Jataúba",
		"_id": 3397546,
		"coord": {
			"lon": -36.496391,
			"lat": -7.99
		}
	},
	{
		"country": "ID",
		"name": "Jaten",
		"_id": 1642754,
		"coord": {
			"lon": 110.897499,
			"lat": -7.57722
		}
	},
	{
		"country": "ID",
		"name": "Jati",
		"_id": 7766873,
		"coord": {
			"lon": 106.195801,
			"lat": -6.5153
		}
	},
	{
		"country": "ID",
		"name": "Jati",
		"_id": 7920567,
		"coord": {
			"lon": 107.966904,
			"lat": -7.1959
		}
	},