[
	{
		"country": "FM",
		"name": "Ta",
		"_id": 7645381,
		"coord": {
			"lon": 153.647995,
			"lat": 5.2842
		}
	},
	{
		"country": "KH",
		"name": "Ta Khmau",
		"_id": 1821935,
		"coord": {
			"lon": 104.949997,
			"lat": 11.48333
		}
	},
	{
		"country": "FM",
		"name": "Ta Municipality",
		"_id": 7626984,
		"coord": {
			"lon": 153.6465,
			"lat": 5.2842
		}
	},
	{
		"country": "TH",
		"name": "Ta Phraya",
		"_id": 1605742,
		"coord": {
			"lon": 102.805412,
			"lat": 14.00308
		}
	},
	{
		"country": "MT",
		"name": "Ta Xbiex",
		"_id": 2562320,
		"coord": {
			"lon": 14.49444,
			"lat": 35.89917
		}
	},
	{
		"country": "CN",
		"name": "Ta-pa-hu-t’un",
		"_id": 2045548,
		"coord": {
			"lon": 124.023888,
			"lat": 47.261669
		}
	},
	{
		"country": "ID",
		"name": "Taa",
		"_id": 7378284,
		"coord": {
			"lon": 118.841103,
			"lat": -8.5184
		}
	},
	{
		"country": "AU",
		"name": "Taabinga",
		"_id": 2147692,
		"coord": {
			"lon": 151.833328,
			"lat": -26.58333
		}
	},
	{
		"country": "DE",
		"name": "Taaken",
		"_id": 2824442,
		"coord": {
			"lon": 9.2,
			"lat": 53.150002
		}
	},
	{
		"country": "PH",
		"name": "Taal",
		"_id": 1685148,
		"coord": {
			"lon": 120.933327,
			"lat": 13.9
		}
	},
	{
		"country": "PH",
		"name": "Taal",
		"_id": 1685146,
		"coord": {
			"lon": 120.923111,
			"lat": 13.87992
		}
	},
	{
		"country": "DE",
		"name": "Taarstedt",
		"_id": 6552002,
		"coord": {
			"lon": 9.68333,
			"lat": 54.5667
		}
	},
	{
		"country": "DE",
		"name": "Taarstedt",
		"_id": 2824441,
		"coord": {
			"lon": 9.68333,
			"lat": 54.566669
		}
	},
	{
		"country": "DK",
		"name": "Taastrup",
		"_id": 2611828,
		"coord": {
			"lon": 12.29216,
			"lat": 55.65173
		}
	},
	{
		"country": "HU",
		"name": "Tab",
		"_id": 3044221,
		"coord": {
			"lon": 18.032009,
			"lat": 46.73135
		}
	},
	{
		"country": "PH",
		"name": "Tabaan",
		"_id": 1685125,
		"coord": {
			"lon": 120.51667,
			"lat": 16.299999
		}
	},
	{
		"country": "PH",
		"name": "Tabaco",
		"_id": 1685118,
		"coord": {
			"lon": 123.716667,
			"lat": 13.33333
		}
	},
	{
		"country": "PH",
		"name": "Tabaco",
		"_id": 1685117,
		"coord": {
			"lon": 123.733612,
			"lat": 13.35861
		}
	},
	{
		"country": "PH",
		"name": "Tabaco",
		"_id": 1689433,
		"coord": {
			"lon": 120.934898,
			"lat": 15.6414
		}
	},
	{
		"country": "EC",
		"name": "Tabacundo",
		"_id": 3650896,
		"coord": {
			"lon": -78.199997,
			"lat": 0.05
		}
	},
	{
		"country": "GN",
		"name": "Tabako",
		"_id": 2415161,
		"coord": {
			"lon": -9.2,
			"lat": 11.41667
		}
	},
	{
		"country": "ML",
		"name": "Tabakor",
		"_id": 2450534,
		"coord": {
			"lon": -0.01917,
			"lat": 16.21944
		}
	},
	{
		"country": "SA",
		"name": "Tabalah",
		"_id": 101633,
		"coord": {
			"lon": 42.400002,
			"lat": 19.950001
		}
	},
	{
		"country": "PH",
		"name": "Tabalong",
		"_id": 1685102,
		"coord": {
			"lon": 123.812309,
			"lat": 9.62157
		}
	},
	{
		"country": "PE",
		"name": "Tabalosos",
		"_id": 3691638,
		"coord": {
			"lon": -76.683327,
			"lat": -6.35
		}
	},
	{
		"country": "FR",
		"name": "Tabanac",
		"_id": 6432479,
		"coord": {
			"lon": -0.41667,
			"lat": 44.716671
		}
	},
	{
		"country": "FR",
		"name": "Tabanac",
		"_id": 2973597,
		"coord": {
			"lon": -0.40513,
			"lat": 44.720589
		}
	},
	{
		"country": "ID",
		"name": "Tabanan",
		"_id": 1625708,
		"coord": {
			"lon": 115.125221,
			"lat": -8.5413
		}
	},
	{
		"country": "ES",
		"name": "Tabanera de Cerrato",
		"_id": 6360117,
		"coord": {
			"lon": -4.10496,
			"lat": 42.008301
		}
	},
	{
		"country": "ES",
		"name": "Tabanera de Cerrato",
		"_id": 3108464,
		"coord": {
			"lon": -4.12361,
			"lat": 42.024689
		}
	},
	{
		"country": "ES",
		"name": "Tabanera de Valdavia",
		"_id": 6360118,
		"coord": {
			"lon": -4.70532,
			"lat": 42.654999
		}
	},
	{
		"country": "ES",
		"name": "Tabanera de Valdavia",
		"_id": 3108462,
		"coord": {
			"lon": -4.69414,
			"lat": 42.647282
		}
	},
	{
		"country": "ES",
		"name": "Tabanera del Monte",
		"_id": 3108463,
		"coord": {
			"lon": -4.06581,
			"lat": 40.938469
		}
	},
	{
		"country": "ES",
		"name": "Tabanera la Luenga",
		"_id": 6360920,
		"coord": {
			"lon": -4.24505,
			"lat": 41.09557
		}
	},
	{
		"country": "ES",
		"name": "Tabanera la Luenga",
		"_id": 3108461,
		"coord": {
			"lon": -4.23937,
			"lat": 41.09647
		}
	},
	{
		"country": "PH",
		"name": "Tabango",
		"_id": 1685071,
		"coord": {
			"lon": 124.373001,
			"lat": 11.3077
		}
	},
	{
		"country": "TR",
		"name": "Tabanlı",
		"_id": 299982,
		"coord": {
			"lon": 41.689919,
			"lat": 38.755638
		}
	},
	{
		"country": "RS",
		"name": "Tabanovic",
		"_id": 3189229,
		"coord": {
			"lon": 19.64139,
			"lat": 44.81361
		}
	},
	{
		"country": "MA",
		"name": "Tabant",
		"_id": 2532270,
		"coord": {
			"lon": -6.41049,
			"lat": 31.65255
		}
	},
	{
		"country": "BR",
		"name": "Tabapuã",
		"_id": 3447205,
		"coord": {
			"lon": -49.03167,
			"lat": -20.96417
		}
	},
	{
		"country": "TT",
		"name": "Tabaquite",
		"_id": 3573650,
		"coord": {
			"lon": -61.299999,
			"lat": 10.38333
		}
	},
	{
		"country": "ES",
		"name": "Tabara",
		"_id": 3108458,
		"coord": {
			"lon": -5.9642,
			"lat": 41.824581
		}
	},
	{
		"country": "DO",
		"name": "Tabara Arriba",
		"_id": 3492557,
		"coord": {
			"lon": -70.879784,
			"lat": 18.57
		}
	},
	{
		"country": "TN",
		"name": "Tabarka",
		"_id": 2464871,
		"coord": {
			"lon": 8.75801,
			"lat": 36.954418
		}
	},
	{
		"country": "DE",
		"name": "Tabarz",
		"_id": 2824437,
		"coord": {
			"lon": 10.51667,
			"lat": 50.883331
		}
	},
	{
		"country": "IR",
		"name": "Tabas",
		"_id": 113659,
		"coord": {
			"lon": 56.92437,
			"lat": 33.59586
		}
	},
	{
		"country": "EE",
		"name": "Tabasalu",
		"_id": 588454,
		"coord": {
			"lon": 24.53306,
			"lat": 59.430279
		}
	},
	{
		"country": "MX",
		"name": "Tabasco",
		"_id": 3982729,
		"coord": {
			"lon": -102.916672,
			"lat": 21.866671
		}
	},
	{
		"country": "BR",
		"name": "Tabatinga",
		"_id": 3662075,
		"coord": {
			"lon": -69.938057,
			"lat": -4.2525
		}
	},
	{
		"country": "BR",
		"name": "Tabatinga",
		"_id": 3447200,
		"coord": {
			"lon": -48.6875,
			"lat": -21.716669
		}
	},
	{
		"country": "VE",
		"name": "Tabay",
		"_id": 3626595,
		"coord": {
			"lon": -71.07843,
			"lat": 8.6311
		}
	},
	{
		"country": "ES",
		"name": "Tabayesco",
		"_id": 2510747,
		"coord": {
			"lon": -13.46667,
			"lat": 29.116671
		}
	},
	{
		"country": "AU",
		"name": "Tabbimoble",
		"_id": 2147688,
		"coord": {
			"lon": 153.266663,
			"lat": -29.200001
		}
	},
	{
		"country": "AU",
		"name": "Tabbita",
		"_id": 2147687,
		"coord": {
			"lon": 145.850006,
			"lat": -34.099998
		}
	},
	{
		"country": "DE",
		"name": "Tabeckendorf",
		"_id": 2824435,
		"coord": {
			"lon": 12.93333,
			"lat": 48.599998
		}
	},
	{
		"country": "ES",
		"name": "Tabeirós",
		"_id": 3108452,
		"coord": {
			"lon": -8.45938,
			"lat": 42.659359
		}
	},
	{
		"country": "DE",
		"name": "Taben-Rodt",
		"_id": 6554796,
		"coord": {
			"lon": 6.58333,
			"lat": 49.549999
		}
	},
	{
		"country": "DE",
		"name": "Taben-Rodt",
		"_id": 2824431,
		"coord": {
			"lon": 6.58333,
			"lat": 49.549999
		}
	},
	{
		"country": "CA",
		"name": "Taber",
		"_id": 6160919,
		"coord": {
			"lon": -112.15181,
			"lat": 49.816738
		}
	},
	{
		"country": "ES",
		"name": "Tabera de Abajo",
		"_id": 6360551,
		"coord": {
			"lon": -6.01994,
			"lat": 40.92815
		}
	},
	{
		"country": "ES",
		"name": "Tabera de Abajo",
		"_id": 3108450,
		"coord": {
			"lon": -6.00227,
			"lat": 40.91021
		}
	},
	{
		"country": "SE",
		"name": "Taberg",
		"_id": 2669788,
		"coord": {
			"lon": 14.08333,
			"lat": 57.683331
		}
	},
	{
		"country": "ES",
		"name": "Tabernas",
		"_id": 6355600,
		"coord": {
			"lon": -2.36265,
			"lat": 37.048222
		}
	},
	{
		"country": "ES",
		"name": "Tabernas",
		"_id": 2510746,
		"coord": {
			"lon": -2.39084,
			"lat": 37.049919
		}
	},
	{
		"country": "ES",
		"name": "Taberno",
		"_id": 6355601,
		"coord": {
			"lon": -2.05506,
			"lat": 37.48069
		}
	},
	{
		"country": "ES",
		"name": "Taberno",
		"_id": 6941410,
		"coord": {
			"lon": -2.07736,
			"lat": 37.4688
		}
	},
	{
		"country": "DE",
		"name": "Tabertshauserschwaig",
		"_id": 2824428,
		"coord": {
			"lon": 12.88333,
			"lat": 48.73333
		}
	},
	{
		"country": "MA",
		"name": "Tabia",
		"_id": 2532214,
		"coord": {
			"lon": -6.79985,
			"lat": 32.03009
		}
	},
	{
		"country": "MA",
		"name": "Tabia",
		"_id": 2532230,
		"coord": {
			"lon": -8.87688,
			"lat": 30.03462
		}
	},
	{
		"country": "PH",
		"name": "Tabiauan",
		"_id": 1685006,
		"coord": {
			"lon": 121.893547,
			"lat": 6.02806
		}
	},
	{
		"country": "PH",
		"name": "Tabid",
		"_id": 1685003,
		"coord": {
			"lon": 123.783058,
			"lat": 8.10889
		}
	},
	{
		"country": "AU",
		"name": "Tabilk",
		"_id": 2147682,
		"coord": {
			"lon": 145.166672,
			"lat": -36.849998
		}
	},
	{
		"country": "PH",
		"name": "Tabina",
		"_id": 1684990,
		"coord": {
			"lon": 123.408096,
			"lat": 7.4669
		}
	},
	{
		"country": "PH",
		"name": "Tabinay",
		"_id": 1684989,
		"coord": {
			"lon": 120.956596,
			"lat": 13.4871
		}
	},
	{
		"country": "ID",
		"name": "Tabing",
		"_id": 1625693,
		"coord": {
			"lon": 100.342789,
			"lat": -0.87203
		}
	},
	{
		"country": "PH",
		"name": "Tabing",
		"_id": 1684986,
		"coord": {
			"lon": 124.349998,
			"lat": 11.4
		}
	},
	{
		"country": "CO",
		"name": "Tabio",
		"_id": 3667629,
		"coord": {
			"lon": -74.093643,
			"lat": 4.91726
		}
	},
	{
		"country": "PH",
		"name": "Tabio",
		"_id": 1684977,
		"coord": {
			"lon": 120.800003,
			"lat": 16.85
		}
	},
	{
		"country": "BR",
		"name": "Tabira",
		"_id": 3387082,
		"coord": {
			"lon": -37.53944,
			"lat": -7.59083
		}
	},
	{
		"country": "EE",
		"name": "Tabivere",
		"_id": 793956,
		"coord": {
			"lon": 26.59556,
			"lat": 58.554169
		}
	},
	{
		"country": "EE",
		"name": "Tabivere vald",
		"_id": 7522309,
		"coord": {
			"lon": 26.622919,
			"lat": 58.582119
		}
	},
	{
		"country": "PH",
		"name": "Tablac",
		"_id": 1684967,
		"coord": {
			"lon": 120.48333,
			"lat": 17.216669
		}
	},
	{
		"country": "ES",
		"name": "Tablado",
		"_id": 3108433,
		"coord": {
			"lon": -3.90668,
			"lat": 43.11887
		}
	},
	{
		"country": "PH",
		"name": "Tablas",
		"_id": 1957367,
		"coord": {
			"lon": 122.174721,
			"lat": 6.62917
		}
	},
	{
		"country": "AU",
		"name": "Table Top",
		"_id": 2147657,
		"coord": {
			"lon": 147,
			"lat": -35.966671
		}
	},
	{
		"country": "ZA",
		"name": "Table View",
		"_id": 3360687,
		"coord": {
			"lon": 18.4881,
			"lat": -33.81913
		}
	},
	{
		"country": "TT",
		"name": "Tableland",
		"_id": 3573645,
		"coord": {
			"lon": -61.26667,
			"lat": 10.26667
		}
	},
	{
		"country": "AU",
		"name": "Tablelands",
		"_id": 7839395,
		"coord": {
			"lon": 144.007156,
			"lat": -17.31041
		}
	},
	{
		"country": "TG",
		"name": "Tabligbo",
		"_id": 2364041,
		"coord": {
			"lon": 1.5,
			"lat": 6.58333
		}
	},
	{
		"country": "ES",
		"name": "Taboada",
		"_id": 6359218,
		"coord": {
			"lon": -7.7481,
			"lat": 42.709911
		}
	},
	{
		"country": "ES",
		"name": "Taboada",
		"_id": 3108426,
		"coord": {
			"lon": -8.21667,
			"lat": 42.683331
		}
	},
	{
		"country": "ES",
		"name": "Taboada",
		"_id": 3108425,
		"coord": {
			"lon": -7.82298,
			"lat": 42.699001
		}
	},
	{
		"country": "ES",
		"name": "Taboadela",
		"_id": 6359895,
		"coord": {
			"lon": -7.82769,
			"lat": 42.247971
		}
	},
	{
		"country": "ES",
		"name": "Taboadela",
		"_id": 3108422,
		"coord": {
			"lon": -7.82719,
			"lat": 42.24234
		}
	},
	{
		"country": "BR",
		"name": "Taboao da Serra",
		"_id": 3447186,
		"coord": {
			"lon": -46.791672,
			"lat": -23.62611
		}
	},
	{
		"country": "PH",
		"name": "Taboc",
		"_id": 1684938,
		"coord": {
			"lon": 124.797501,
			"lat": 8.87833
		}
	},
	{
		"country": "PH",
		"name": "Tabogon",
		"_id": 1684914,
		"coord": {
			"lon": 124.028198,
			"lat": 10.9412
		}
	},
	{
		"country": "PH",
		"name": "Tabon",
		"_id": 1684892,
		"coord": {
			"lon": 120.912804,
			"lat": 15.2746
		}
	},
	{
		"country": "PH",
		"name": "Tabon",
		"_id": 1684899,
		"coord": {
			"lon": 123.325996,
			"lat": 10.3019
		}
	},
	{
		"country": "PH",
		"name": "Tabon",
		"_id": 1684901,
		"coord": {
			"lon": 123.456299,
			"lat": 9.8042
		}
	},
	{
		"country": "PH",
		"name": "Tabon",
		"_id": 1684902,
		"coord": {
			"lon": 117.994598,
			"lat": 9.23877
		}
	},
	{
		"country": "PH",
		"name": "Tabonoc",
		"_id": 1684877,
		"coord": {
			"lon": 124.800003,
			"lat": 10.35
		}
	},
	{
		"country": "PH",
		"name": "Tabonok",
		"_id": 1684765,
		"coord": {
			"lon": 123.876602,
			"lat": 10.8512
		}
	},
	{
		"country": "PH",
		"name": "Tabontabon",
		"_id": 1684871,
		"coord": {
			"lon": 124.961113,
			"lat": 11.04083
		}
	},
	{
		"country": "KI",
		"name": "Tabonuea Village",
		"_id": 2110099,
		"coord": {
			"lon": 172.82312,
			"lat": 3.09612
		}
	},
	{
		"country": "AU",
		"name": "Tabooba",
		"_id": 2147642,
		"coord": {
			"lon": 152.949997,
			"lat": -28.133329
		}
	},
	{
		"country": "CZ",
		"name": "Tabor",
		"_id": 3064379,
		"coord": {
			"lon": 14.6578,
			"lat": 49.41441
		}
	},
	{
		"country": "AU",
		"name": "Tabor",
		"_id": 2147640,
		"coord": {
			"lon": 142.199997,
			"lat": -37.833328
		}
	},
	{
		"country": "SI",
		"name": "Tabor",
		"_id": 3189227,
		"coord": {
			"lon": 15.01833,
			"lat": 46.236111
		}
	},
	{
		"country": "US",
		"name": "Tabor",
		"_id": 4878195,
		"coord": {
			"lon": -95.671387,
			"lat": 40.898331
		}
	},
	{
		"country": "US",
		"name": "Tabor City",
		"_id": 4494408,
		"coord": {
			"lon": -78.876694,
			"lat": 34.148781
		}
	},
	{
		"country": "TZ",
		"name": "Tabora",
		"_id": 149658,
		"coord": {
			"lon": 32.799999,
			"lat": -5.01667
		}
	},
	{
		"country": "TZ",
		"name": "Tabora Region",
		"_id": 149653,
		"coord": {
			"lon": 32.833328,
			"lat": -5.5
		}
	},
	{
		"country": "HU",
		"name": "Taborfalva",
		"_id": 3044211,
		"coord": {
			"lon": 19.478371,
			"lat": 47.099419
		}
	},
	{
		"country": "RU",
		"name": "Tabory",
		"_id": 1490364,
		"coord": {
			"lon": 64.549469,
			"lat": 58.519821
		}
	},
	{
		"country": "TJ",
		"name": "Taboshar",
		"_id": 1514829,
		"coord": {
			"lon": 69.641273,
			"lat": 40.568642
		}
	},
	{
		"country": "AR",
		"name": "Tabossi",
		"_id": 3427885,
		"coord": {
			"lon": -59.934769,
			"lat": -31.80135
		}
	},
	{
		"country": "CI",
		"name": "Tabou",
		"_id": 2281120,
		"coord": {
			"lon": -7.3528,
			"lat": 4.42295
		}
	},
	{
		"country": "MA",
		"name": "Tabouda",
		"_id": 2532195,
		"coord": {
			"lon": -5.1403,
			"lat": 34.719231
		}
	},
	{
		"country": "PH",
		"name": "Taboy Norte",
		"_id": 1681655,
		"coord": {
			"lon": 120.636902,
			"lat": 16.0271
		}
	},
	{
		"country": "ID",
		"name": "Tabrik",
		"_id": 8023961,
		"coord": {
			"lon": 108.1371,
			"lat": -7.361
		}
	},
	{
		"country": "IR",
		"name": "Tabriz",
		"_id": 113646,
		"coord": {
			"lon": 46.291901,
			"lat": 38.080002
		}
	},
	{
		"country": "IR",
		"name": "Tabrīz Jānī",
		"_id": 35056,
		"coord": {
			"lon": 46.23333,
			"lat": 38.133331
		}
	},
	{
		"country": "PH",
		"name": "Tabu",
		"_id": 1684857,
		"coord": {
			"lon": 122.709801,
			"lat": 9.8923
		}
	},
	{
		"country": "PH",
		"name": "Tabuan",
		"_id": 1684853,
		"coord": {
			"lon": 122.850563,
			"lat": 9.51556
		}
	},
	{
		"country": "PH",
		"name": "Tabuating",
		"_id": 1684842,
		"coord": {
			"lon": 120.938599,
			"lat": 15.3891
		}
	},
	{
		"country": "PT",
		"name": "Tabuaças",
		"_id": 8011294,
		"coord": {
			"lon": -8.1837,
			"lat": 41.62991
		}
	},
	{
		"country": "PT",
		"name": "Tabuaço",
		"_id": 8010668,
		"coord": {
			"lon": -7.56735,
			"lat": 41.095551
		}
	},
	{
		"country": "PH",
		"name": "Tabuc Pontevedra",
		"_id": 1684828,
		"coord": {
			"lon": 122.816673,
			"lat": 11.48333
		}
	},
	{
		"country": "PH",
		"name": "Tabuelan",
		"_id": 1684821,
		"coord": {
			"lon": 123.868896,
			"lat": 10.8209
		}
	},
	{
		"country": "ES",
		"name": "Tabuenca",
		"_id": 6362935,
		"coord": {
			"lon": -1.52232,
			"lat": 41.682819
		}
	},
	{
		"country": "ES",
		"name": "Tabuenca",
		"_id": 3108417,
		"coord": {
			"lon": -1.54335,
			"lat": 41.695
		}
	},
	{
		"country": "PH",
		"name": "Tabug",
		"_id": 1684818,
		"coord": {
			"lon": 120.548798,
			"lat": 18.0343
		}
	},
	{
		"country": "SA",
		"name": "Tabuk",
		"_id": 101628,
		"coord": {
			"lon": 36.583328,
			"lat": 28.383329
		}
	},
	{
		"country": "PH",
		"name": "Tabuk",
		"_id": 1684803,
		"coord": {
			"lon": 121.444298,
			"lat": 17.4189
		}
	},
	{
		"country": "AU",
		"name": "Tabulam",
		"_id": 2147637,
		"coord": {
			"lon": 152.566666,
			"lat": -28.9
		}
	},
	{
		"country": "BR",
		"name": "Tabuleiro do Norte",
		"_id": 3386984,
		"coord": {
			"lon": -38.130562,
			"lat": -5.24667
		}
	},
	{
		"country": "PH",
		"name": "Tabunok",
		"_id": 1684876,
		"coord": {
			"lon": 124.012222,
			"lat": 10.77861
		}
	},
	{
		"country": "RU",
		"name": "Tabuny",
		"_id": 1490356,
		"coord": {
			"lon": 78.789597,
			"lat": 52.777302
		}
	},
	{
		"country": "UA",
		"name": "Taburishche",
		"_id": 691959,
		"coord": {
			"lon": 33.25,
			"lat": 49.049999
		}
	},
	{
		"country": "TN",
		"name": "Tabursuq",
		"_id": 2464855,
		"coord": {
			"lon": 9.24751,
			"lat": 36.456921
		}
	},
	{
		"country": "JP",
		"name": "Tabuse",
		"_id": 1851323,
		"coord": {
			"lon": 132.066666,
			"lat": 33.950001
		}
	},
	{
		"country": "KI",
		"name": "Tabwakea Village",
		"_id": 7521902,
		"coord": {
			"lon": -157.487732,
			"lat": 2.01643
		}
	},
	{
		"country": "SE",
		"name": "Taby",
		"_id": 2669772,
		"coord": {
			"lon": 18.06872,
			"lat": 59.443901
		}
	},
	{
		"country": "PH",
		"name": "Tacadang",
		"_id": 1684746,
		"coord": {
			"lon": 120.640503,
			"lat": 16.7264
		}
	},
	{
		"country": "BR",
		"name": "Tacaimbó",
		"_id": 3386971,
		"coord": {
			"lon": -36.293331,
			"lat": -8.31611
		}
	},
	{
		"country": "MX",
		"name": "Tacambaro de Codallos",
		"_id": 3982693,
		"coord": {
			"lon": -101.466667,
			"lat": 19.23333
		}
	},
	{
		"country": "HN",
		"name": "Tacamiche",
		"_id": 3601080,
		"coord": {
			"lon": -87.916672,
			"lat": 15.45
		}
	},
	{
		"country": "GT",
		"name": "Tacana",
		"_id": 3588612,
		"coord": {
			"lon": -92.083328,
			"lat": 15.23333
		}
	},
	{
		"country": "AR",
		"name": "Tacanas",
		"_id": 3834867,
		"coord": {
			"lon": -64.809288,
			"lat": -27.13752
		}
	},
	{
		"country": "BR",
		"name": "Tacaratu",
		"_id": 3386966,
		"coord": {
			"lon": -38.14917,
			"lat": -9.10528
		}
	},
	{
		"country": "CR",
		"name": "Tacares",
		"_id": 3621375,
		"coord": {
			"lon": -84.2901,
			"lat": 10.02998
		}
	},
	{
		"country": "VE",
		"name": "Tacarigua",
		"_id": 3646062,
		"coord": {
			"lon": -67.919823,
			"lat": 10.08621
		}
	},
	{
		"country": "ID",
		"name": "Taccipi",
		"_id": 1625659,
		"coord": {
			"lon": 120.184196,
			"lat": -4.5066
		}
	},
	{
		"country": "IT",
		"name": "Taceno",
		"_id": 3165996,
		"coord": {
			"lon": 9.36394,
			"lat": 46.02449
		}
	},
	{
		"country": "CN",
		"name": "Tacheng",
		"_id": 1925231,
		"coord": {
			"lon": 116.093727,
			"lat": 28.506729
		}
	},
	{
		"country": "DE",
		"name": "Tacherting",
		"_id": 6556417,
		"coord": {
			"lon": 12.5667,
			"lat": 48.083302
		}
	},
	{
		"country": "DE",
		"name": "Tacherting",
		"_id": 2824420,
		"coord": {
			"lon": 12.56667,
			"lat": 48.083328
		}
	},
	{
		"country": "JP",
		"name": "Tachiarai",
		"_id": 1851319,
		"coord": {
			"lon": 130.616669,
			"lat": 33.400002
		}
	},
	{
		"country": "JP",
		"name": "Tachikawa",
		"_id": 1851307,
		"coord": {
			"lon": 139.41806,
			"lat": 35.69278
		}
	},
	{
		"country": "DE",
		"name": "Taching am See",
		"_id": 2824419,
		"coord": {
			"lon": 12.73333,
			"lat": 47.966671
		}
	},
	{
		"country": "CZ",
		"name": "Tachov",
		"_id": 3064373,
		"coord": {
			"lon": 12.63365,
			"lat": 49.79528
		}
	},
	{
		"country": "BR",
		"name": "Taciba",
		"_id": 3447094,
		"coord": {
			"lon": -51.284721,
			"lat": -22.389721
		}
	},
	{
		"country": "BR",
		"name": "Tacima",
		"_id": 3386961,
		"coord": {
			"lon": -35.637218,
			"lat": -6.48833
		}
	},
	{
		"country": "TR",
		"name": "Tacir",
		"_id": 739161,
		"coord": {
			"lon": 29.739719,
			"lat": 40.525558
		}
	},
	{
		"country": "DE",
		"name": "Tackesdorf",
		"_id": 6551925,
		"coord": {
			"lon": 9.48333,
			"lat": 54.1833
		}
	},
	{
		"country": "DE",
		"name": "Tackesdorf",
		"_id": 2824412,
		"coord": {
			"lon": 9.48333,
			"lat": 54.183331
		}
	},
	{
		"country": "PH",
		"name": "Tacligan",
		"_id": 1684717,
		"coord": {
			"lon": 121.062599,
			"lat": 13.3975
		}
	},
	{
		"country": "PH",
		"name": "Tacloban City",
		"_id": 1684711,
		"coord": {
			"lon": 125,
			"lat": 11.25
		}
	},
	{
		"country": "PH",
		"name": "Taclobo",
		"_id": 1684706,
		"coord": {
			"lon": 122.586014,
			"lat": 12.30744
		}
	},
	{
		"country": "PE",
		"name": "Tacna",
		"_id": 3928128,
		"coord": {
			"lon": -70.248329,
			"lat": -18.00556
		}
	},
	{
		"country": "AR",
		"name": "Taco Pozo",
		"_id": 3834843,
		"coord": {
			"lon": -63.283329,
			"lat": -25.616671
		}
	},
	{
		"country": "FR",
		"name": "Tacoignieres",
		"_id": 2973582,
		"coord": {
			"lon": 1.67501,
			"lat": 48.836189
		}
	},
	{
		"country": "FR",
		"name": "Tacoignières",
		"_id": 6424400,
		"coord": {
			"lon": 1.68333,
			"lat": 48.833328
		}
	},
	{
		"country": "US",
		"name": "Tacoma",
		"_id": 5812944,
		"coord": {
			"lon": -122.44429,
			"lat": 47.25288
		}
	},
	{
		"country": "ES",
		"name": "Tacoronte",
		"_id": 6360643,
		"coord": {
			"lon": -16.41292,
			"lat": 28.493839
		}
	},
	{
		"country": "ES",
		"name": "Tacoronte",
		"_id": 2510725,
		"coord": {
			"lon": -16.41016,
			"lat": 28.476879
		}
	},
	{
		"country": "MX",
		"name": "Tacotalpa",
		"_id": 3516439,
		"coord": {
			"lon": -92.816673,
			"lat": 17.6
		}
	},
	{
		"country": "GT",
		"name": "Tactic",
		"_id": 3588603,
		"coord": {
			"lon": -90.300003,
			"lat": 15.33333
		}
	},
	{
		"country": "MX",
		"name": "Tacualeche",
		"_id": 3982668,
		"coord": {
			"lon": -102.416672,
			"lat": 22.816669
		}
	},
	{
		"country": "UY",
		"name": "Tacuarembo",
		"_id": 3440034,
		"coord": {
			"lon": -55.98333,
			"lat": -31.73333
		}
	},
	{
		"country": "AR",
		"name": "Tacuarendí",
		"_id": 3427877,
		"coord": {
			"lon": -59.30212,
			"lat": -28.417789
		}
	},
	{
		"country": "AR",
		"name": "Tacuarí",
		"_id": 3834826,
		"coord": {
			"lon": -60.308559,
			"lat": -34.211491
		}
	},
	{
		"country": "PY",
		"name": "Tacuati",
		"_id": 3436880,
		"coord": {
			"lon": -56.583328,
			"lat": -23.450001
		}
	},
	{
		"country": "VE",
		"name": "Tacuato",
		"_id": 3626547,
		"coord": {
			"lon": -69.83548,
			"lat": 11.70922
		}
	},
	{
		"country": "PH",
		"name": "Tacub",
		"_id": 1684190,
		"coord": {
			"lon": 124.108063,
			"lat": 8.1875
		}
	},
	{
		"country": "SV",
		"name": "Tacuba",
		"_id": 3583065,
		"coord": {
			"lon": -89.929718,
			"lat": 13.90111
		}
	},
	{
		"country": "AR",
		"name": "Tacural",
		"_id": 3834822,
		"coord": {
			"lon": -61.591919,
			"lat": -30.846319
		}
	},
	{
		"country": "PH",
		"name": "Tacurong",
		"_id": 1684682,
		"coord": {
			"lon": 124.683327,
			"lat": 6.68333
		}
	},
	{
		"country": "PH",
		"name": "Tacurong",
		"_id": 1684681,
		"coord": {
			"lon": 124.676392,
			"lat": 6.6925
		}
	},
	{
		"country": "BR",
		"name": "Tacuru",
		"_id": 3447088,
		"coord": {
			"lon": -55.015831,
			"lat": -23.6325
		}
	},
	{
		"country": "RO",
		"name": "Tacuta",
		"_id": 665636,
		"coord": {
			"lon": 27.683331,
			"lat": 46.916672
		}
	},
	{
		"country": "ID",
		"name": "Tadabliro",
		"_id": 7429821,
		"coord": {
			"lon": 122.216202,
			"lat": -8.6847
		}
	},
	{
		"country": "JP",
		"name": "Tadami",
		"_id": 1851292,
		"coord": {
			"lon": 139.316666,
			"lat": 37.349998
		}
	},
	{
		"country": "IT",
		"name": "Tadasuni",
		"_id": 3165995,
		"coord": {
			"lon": 8.88353,
			"lat": 40.109951
		}
	},
	{
		"country": "GB",
		"name": "Tadcaster",
		"_id": 2636335,
		"coord": {
			"lon": -1.26344,
			"lat": 53.883221
		}
	},
	{
		"country": "FR",
		"name": "Taden",
		"_id": 6429164,
		"coord": {
			"lon": -2.01667,
			"lat": 48.48333
		}
	},
	{
		"country": "FR",
		"name": "Taden",
		"_id": 2973579,
		"coord": {
			"lon": -2.01946,
			"lat": 48.4753
		}
	},
	{
		"country": "IN",
		"name": "Tadepalle",
		"_id": 1255265,
		"coord": {
			"lon": 80.599998,
			"lat": 16.48333
		}
	},
	{
		"country": "IN",
		"name": "Tadepallegudem",
		"_id": 1255264,
		"coord": {
			"lon": 81.5,
			"lat": 16.83333
		}
	},
	{
		"country": "PH",
		"name": "Tadian",
		"_id": 1684672,
		"coord": {
			"lon": 120.820297,
			"lat": 16.9956
		}
	},
	{
		"country": "CN",
		"name": "Tadianjie",
		"_id": 1793738,
		"coord": {
			"lon": 102.159172,
			"lat": 24.248329
		}
	},
	{
		"country": "SY",
		"name": "Tadif",
		"_id": 163811,
		"coord": {
			"lon": 37.530899,
			"lat": 36.348141
		}
	},
	{
		"country": "NC",
		"name": "Tadine",
		"_id": 2138285,
		"coord": {
			"lon": 167.883331,
			"lat": -21.549999
		}
	},
	{
		"country": "DZ",
		"name": "Tadjenanet",
		"_id": 2478876,
		"coord": {
			"lon": 5.9867,
			"lat": 36.121288
		}
	},
	{
		"country": "DJ",
		"name": "Tadjoura",
		"_id": 220782,
		"coord": {
			"lon": 42.884441,
			"lat": 11.78528
		}
	},
	{
		"country": "LU",
		"name": "Tadler",
		"_id": 2960046,
		"coord": {
			"lon": 5.99556,
			"lat": 49.911388
		}
	},
	{
		"country": "GB",
		"name": "Tadley",
		"_id": 2636333,
		"coord": {
			"lon": -1.1285,
			"lat": 51.350449
		}
	},
	{
		"country": "DZ",
		"name": "Tadmait",
		"_id": 2478831,
		"coord": {
			"lon": 3.90045,
			"lat": 36.744129
		}
	},
	{
		"country": "CA",
		"name": "Tadmore",
		"_id": 6161048,
		"coord": {
			"lon": -102.484253,
			"lat": 51.833279
		}
	},
	{
		"country": "SY",
		"name": "Tadmur",
		"_id": 163808,
		"coord": {
			"lon": 38.280548,
			"lat": 34.560768
		}
	},
	{
		"country": "CO",
		"name": "Tado",
		"_id": 3667579,
		"coord": {
			"lon": -76.564873,
			"lat": 5.26598
		}
	},
	{
		"country": "ID",
		"name": "Tado",
		"_id": 7414991,
		"coord": {
			"lon": 120.595596,
			"lat": -8.7016
		}
	},
	{
		"country": "JP",
		"name": "Tadotsu",
		"_id": 1851282,
		"coord": {
			"lon": 133.75,
			"lat": 34.275002
		}
	},
	{
		"country": "CN",
		"name": "Tadou",
		"_id": 1793737,
		"coord": {
			"lon": 118.229721,
			"lat": 26.371571
		}
	},
	{
		"country": "CA",
		"name": "Tadoussac",
		"_id": 6639665,
		"coord": {
			"lon": -69.716667,
			"lat": 48.150002
		}
	},
	{
		"country": "IN",
		"name": "Tadpatri",
		"_id": 1255254,
		"coord": {
			"lon": 78.01667,
			"lat": 14.91667
		}
	},
	{
		"country": "MA",
		"name": "Tadrart",
		"_id": 2531994,
		"coord": {
			"lon": -9.45951,
			"lat": 30.774771
		}
	},
	{
		"country": "AT",
		"name": "Tadten",
		"_id": 7871593,
		"coord": {
			"lon": 17.001209,
			"lat": 47.750771
		}
	},
	{
		"country": "AT",
		"name": "Tadten",
		"_id": 2763960,
		"coord": {
			"lon": 16.98333,
			"lat": 47.76667
		}
	},
	{
		"country": "GB",
		"name": "Tadworth",
		"_id": 2636331,
		"coord": {
			"lon": -0.23586,
			"lat": 51.291119
		}
	},
	{
		"country": "KR",
		"name": "Taebaek",
		"_id": 1835515,
		"coord": {
			"lon": 128.988907,
			"lat": 37.1759
		}
	},
	{
		"country": "KR",
		"name": "Taegu-gwangyŏksi",
		"_id": 1835327,
		"coord": {
			"lon": 128.550003,
			"lat": 35.799999
		}
	},
	{
		"country": "KR",
		"name": "Taejŏn-gwangyŏksi",
		"_id": 1835224,
		"coord": {
			"lon": 127.416672,
			"lat": 36.333328
		}
	},
	{
		"country": "KR",
		"name": "Taesal-li",
		"_id": 1835096,
		"coord": {
			"lon": 126.454201,
			"lat": 36.971401
		}
	},
	{
		"country": "ES",
		"name": "Tafalla",
		"_id": 6359774,
		"coord": {
			"lon": -1.70558,
			"lat": 42.52475
		}
	},
	{
		"country": "ES",
		"name": "Tafalla",
		"_id": 3108412,
		"coord": {
			"lon": -1.67446,
			"lat": 42.526859
		}
	},
	{
		"country": "CN",
		"name": "Tafang",
		"_id": 1793729,
		"coord": {
			"lon": 117.664223,
			"lat": 29.78064
		}
	},
	{
		"country": "SY",
		"name": "Tafas",
		"_id": 163806,
		"coord": {
			"lon": 36.06694,
			"lat": 32.735641
		}
	},
	{
		"country": "VU",
		"name": "Tafea Province",
		"_id": 2134739,
		"coord": {
			"lon": 169.5,
			"lat": -19.5
		}
	},
	{
		"country": "CN",
		"name": "Tafeng",
		"_id": 1804463,
		"coord": {
			"lon": 112.189873,
			"lat": 25.354071
		}
	},
	{
		"country": "DE",
		"name": "Taferrot",
		"_id": 2824393,
		"coord": {
			"lon": 9.83824,
			"lat": 48.84972
		}
	},
	{
		"country": "CH",
		"name": "Tafers",
		"_id": 2658433,
		"coord": {
			"lon": 7.21852,
			"lat": 46.814831
		}
	},
	{
		"country": "PS",
		"name": "Taffuh",
		"_id": 281690,
		"coord": {
			"lon": 35.04966,
			"lat": 31.538549
		}
	},
	{
		"country": "AR",
		"name": "Tafi Viejo",
		"_id": 3834813,
		"coord": {
			"lon": -65.259209,
			"lat": -26.73201
		}
	},
	{
		"country": "AR",
		"name": "Tafi del Valle",
		"_id": 3834814,
		"coord": {
			"lon": -65.709831,
			"lat": -26.852751
		}
	},
	{
		"country": "ES",
		"name": "Tafira Baja",
		"_id": 2510723,
		"coord": {
			"lon": -15.44952,
			"lat": 28.07115
		}
	},
	{
		"country": "GH",
		"name": "Tafo",
		"_id": 2294938,
		"coord": {
			"lon": -1.61275,
			"lat": 6.73453
		}
	},
	{
		"country": "MA",
		"name": "Tafraout",
		"_id": 2531877,
		"coord": {
			"lon": -8.9747,
			"lat": 29.724489
		}
	},
	{
		"country": "IR",
		"name": "Tafresh",
		"_id": 113636,
		"coord": {
			"lon": 50.013,
			"lat": 34.692001
		}
	},
	{
		"country": "IR",
		"name": "Taft",
		"_id": 113632,
		"coord": {
			"lon": 54.20882,
			"lat": 31.747101
		}
	},
	{
		"country": "PH",
		"name": "Taft",
		"_id": 1684659,
		"coord": {
			"lon": 125.418892,
			"lat": 11.90111
		}
	},
	{
		"country": "US",
		"name": "Taft",
		"_id": 4174700,
		"coord": {
			"lon": -81.365067,
			"lat": 28.429729
		}
	},
	{
		"country": "US",
		"name": "Taft",
		"_id": 4735458,
		"coord": {
			"lon": -97.398598,
			"lat": 27.97891
		}
	},
	{
		"country": "US",
		"name": "Taft",
		"_id": 5400877,
		"coord": {
			"lon": -119.456512,
			"lat": 35.142471
		}
	},
	{
		"country": "US",
		"name": "Taft Heights",
		"_id": 5400890,
		"coord": {
			"lon": -119.472618,
			"lat": 35.134689
		}
	},
	{
		"country": "US",
		"name": "Taft Mosswood",
		"_id": 7262653,
		"coord": {
			"lon": -121.283157,
			"lat": 37.913849
		}
	},
	{
		"country": "US",
		"name": "Taft Southwest (historical)",
		"_id": 4735467,
		"coord": {
			"lon": -97.403053,
			"lat": 27.973909
		}
	},
	{
		"country": "SE",
		"name": "Taftea",
		"_id": 602426,
		"coord": {
			"lon": 20.48333,
			"lat": 63.833328
		}
	},
	{
		"country": "AS",
		"name": "Tafuna",
		"_id": 5881192,
		"coord": {
			"lon": -170.720001,
			"lat": -14.33583
		}
	},
	{
		"country": "FM",
		"name": "Tafunsak",
		"_id": 7648250,
		"coord": {
			"lon": 162.985321,
			"lat": 5.3671
		}
	},
	{
		"country": "FM",
		"name": "Tafunsak Municipality",
		"_id": 7626934,
		"coord": {
			"lon": 162.96965,
			"lat": 5.34993
		}
	},
	{
		"country": "JP",
		"name": "Taga",
		"_id": 1851279,
		"coord": {
			"lon": 136.286255,
			"lat": 35.226341
		}
	},
	{
		"country": "RO",
		"name": "Taga",
		"_id": 665628,
		"coord": {
			"lon": 24.049999,
			"lat": 46.950001
		}
	},
	{
		"country": "AF",
		"name": "Tagab",
		"_id": 1123424,
		"coord": {
			"lon": 69.64917,
			"lat": 34.855011
		}
	},
	{
		"country": "PH",
		"name": "Tagakpan",
		"_id": 1684629,
		"coord": {
			"lon": 125.429169,
			"lat": 7.11278
		}
	},
	{
		"country": "ES",
		"name": "Tagamanent",
		"_id": 6356295,
		"coord": {
			"lon": 2.26649,
			"lat": 41.740101
		}
	},
	{
		"country": "ES",
		"name": "Tagamanent",
		"_id": 3108411,
		"coord": {
			"lon": 2.2672,
			"lat": 41.737469
		}
	},
	{
		"country": "PH",
		"name": "Tagana-an",
		"_id": 1684610,
		"coord": {
			"lon": 125.585564,
			"lat": 9.69722
		}
	},
	{
		"country": "PH",
		"name": "Taganak",
		"_id": 1684606,
		"coord": {
			"lon": 118.300003,
			"lat": 6.08333
		}
	},
	{
		"country": "RU",
		"name": "Taganrog",
		"_id": 484907,
		"coord": {
			"lon": 38.896881,
			"lat": 47.236172
		}
	},
	{
		"country": "RU",
		"name": "Taganskiy",
		"_id": 484912,
		"coord": {
			"lon": 37.666668,
			"lat": 55.733334
		}
	},
	{
		"country": "RU",
		"name": "Tagan’kovo",
		"_id": 484910,
		"coord": {
			"lon": 37.070332,
			"lat": 55.685928
		}
	},
	{
		"country": "PH",
		"name": "Tagapul-an",
		"_id": 1684583,
		"coord": {
			"lon": 124.150002,
			"lat": 12.05
		}
	},
	{
		"country": "PH",
		"name": "Tagas",
		"_id": 1684577,
		"coord": {
			"lon": 123.716667,
			"lat": 13.16667
		}
	},
	{
		"country": "PH",
		"name": "Tagasilay",
		"_id": 1684348,
		"coord": {
			"lon": 122.258614,
			"lat": 7.3025
		}
	},
	{
		"country": "AF",
		"name": "Tagaw-Bay",
		"_id": 1123343,
		"coord": {
			"lon": 66.061638,
			"lat": 35.699409
		}
	},
	{
		"country": "JP",
		"name": "Tagawa",
		"_id": 1851273,
		"coord": {
			"lon": 130.800003,
			"lat": 33.633331
		}
	},
	{
		"country": "PH",
		"name": "Tagaytay City",
		"_id": 1684552,
		"coord": {
			"lon": 120.933723,
			"lat": 14.10594
		}
	},
	{
		"country": "PH",
		"name": "Tagbacan Ibaba",
		"_id": 1684538,
		"coord": {
			"lon": 122.363892,
			"lat": 13.63222
		}
	},
	{
		"country": "PH",
		"name": "Tagbak",
		"_id": 1684542,
		"coord": {
			"lon": 120.088722,
			"lat": 13.84166
		}
	},
	{
		"country": "PH",
		"name": "Tagbilaran City",
		"_id": 1684497,
		"coord": {
			"lon": 123.85556,
			"lat": 9.6475
		}
	},
	{
		"country": "PH",
		"name": "Tagbilaran City",
		"_id": 1684495,
		"coord": {
			"lon": 123.849998,
			"lat": 9.65
		}
	},
	{
		"country": "PH",
		"name": "Tagbina",
		"_id": 1684491,
		"coord": {
			"lon": 126.171387,
			"lat": 8.45194
		}
	},
	{
		"country": "PH",
		"name": "Tagbita",
		"_id": 1684759,
		"coord": {
			"lon": 117.339897,
			"lat": 8.67532
		}
	},
	{
		"country": "PH",
		"name": "Tagbubungang Diot",
		"_id": 1684466,
		"coord": {
			"lon": 124.402802,
			"lat": 11.1257
		}
	},
	{
		"country": "PH",
		"name": "Tagburos",
		"_id": 1684463,
		"coord": {
			"lon": 118.731941,
			"lat": 9.82861
		}
	},
	{
		"country": "PH",
		"name": "Tagcatong",
		"_id": 1684462,
		"coord": {
			"lon": 125.256943,
			"lat": 9.00222
		}
	},
	{
		"country": "PH",
		"name": "Tagdanua",
		"_id": 1684454,
		"coord": {
			"lon": 125.884102,
			"lat": 7.2043
		}
	},
	{
		"country": "CH",
		"name": "Tagelswangen",
		"_id": 6293970,
		"coord": {
			"lon": 8.67284,
			"lat": 47.430698
		}
	},
	{
		"country": "CH",
		"name": "Tagerwilen",
		"_id": 2658432,
		"coord": {
			"lon": 9.13167,
			"lat": 47.655941
		}
	},
	{
		"country": "DE",
		"name": "Tagewerben",
		"_id": 2824383,
		"coord": {
			"lon": 11.95,
			"lat": 51.23333
		}
	},
	{
		"country": "AU",
		"name": "Taggerty",
		"_id": 2147629,
		"coord": {
			"lon": 145.716675,
			"lat": -37.333328
		}
	},
	{
		"country": "IT",
		"name": "Taggia",
		"_id": 3165993,
		"coord": {
			"lon": 7.85454,
			"lat": 43.848518
		}
	},
	{
		"country": "MA",
		"name": "Taghazout",
		"_id": 2568012,
		"coord": {
			"lon": -9.71115,
			"lat": 30.542589
		}
	},
	{
		"country": "IE",
		"name": "Taghmon",
		"_id": 2961292,
		"coord": {
			"lon": -6.6475,
			"lat": 52.321671
		}
	},
	{
		"country": "NP",
		"name": "Taghring",
		"_id": 7800877,
		"coord": {
			"lon": 84.381828,
			"lat": 28.370001
		}
	},
	{
		"country": "CA",
		"name": "Tagish",
		"_id": 6161091,
		"coord": {
			"lon": -134.271729,
			"lat": 60.313309
		}
	},
	{
		"country": "LY",
		"name": "Tagiura",
		"_id": 2210394,
		"coord": {
			"lon": 13.35056,
			"lat": 32.881672
		}
	},
	{
		"country": "PH",
		"name": "Tagkawayan Sabang",
		"_id": 1684422,
		"coord": {
			"lon": 122.528893,
			"lat": 13.99111
		}
	},
	{
		"country": "IR",
		"name": "Taglag",
		"_id": 3245,
		"coord": {
			"lon": 44.98333,
			"lat": 38.450001
		}
	},
	{
		"country": "ES",
		"name": "Tagle",
		"_id": 3108408,
		"coord": {
			"lon": -4.07846,
			"lat": 43.42345
		}
	},
	{
		"country": "IT",
		"name": "Tagliacozzo",
		"_id": 3165991,
		"coord": {
			"lon": 13.25469,
			"lat": 42.069328
		}
	},
	{
		"country": "CH",
		"name": "Tagliada",
		"_id": 2658431,
		"coord": {
			"lon": 9.06024,
			"lat": 46.206619
		}
	},
	{
		"country": "IT",
		"name": "Taglio",
		"_id": 3165986,
		"coord": {
			"lon": 12.21083,
			"lat": 45.022221
		}
	},
	{
		"country": "IT",
		"name": "Taglio di Po",
		"_id": 3165981,
		"coord": {
			"lon": 12.20417,
			"lat": 45.004719
		}
	},
	{
		"country": "IT",
		"name": "Tagliolo Monferrato",
		"_id": 6535060,
		"coord": {
			"lon": 8.66585,
			"lat": 44.638351
		}
	},
	{
		"country": "IT",
		"name": "Tagliuno",
		"_id": 8199694,
		"coord": {
			"lon": 9.90864,
			"lat": 45.642551
		}
	},
	{
		"country": "DE",
		"name": "Tagmersheim",
		"_id": 6557298,
		"coord": {
			"lon": 10.9667,
			"lat": 48.8167
		}
	},
	{
		"country": "DE",
		"name": "Tagmersheim",
		"_id": 2824379,
		"coord": {
			"lon": 10.96667,
			"lat": 48.816669
		}
	},
	{
		"country": "PH",
		"name": "Tagnanan",
		"_id": 1958747,
		"coord": {
			"lon": 125.842216,
			"lat": 7.28361
		}
	},
	{
		"country": "PH",
		"name": "Tago",
		"_id": 1684395,
		"coord": {
			"lon": 126.231667,
			"lat": 9.02111
		}
	},
	{
		"country": "IE",
		"name": "Tagoat",
		"_id": 2961288,
		"coord": {
			"lon": -6.38028,
			"lat": 52.242779
		}
	},
	{
		"country": "TJ",
		"name": "Tagob",
		"_id": 1220401,
		"coord": {
			"lon": 68.898468,
			"lat": 38.838268
		}
	},
	{
		"country": "ID",
		"name": "Tagog",
		"_id": 7921852,
		"coord": {
			"lon": 107.993103,
			"lat": -7.1206
		}
	},
	{
		"country": "ID",
		"name": "Tagog",
		"_id": 8028866,
		"coord": {
			"lon": 108.139702,
			"lat": -7.121
		}
	},
	{
		"country": "PH",
		"name": "Tagoloan",
		"_id": 1684382,
		"coord": {
			"lon": 124.783333,
			"lat": 8.51667
		}
	},
	{
		"country": "PH",
		"name": "Tagoloan",
		"_id": 1684379,
		"coord": {
			"lon": 124.756943,
			"lat": 8.53889
		}
	},
	{
		"country": "ID",
		"name": "Tagolu",
		"_id": 1625609,
		"coord": {
			"lon": 120.773102,
			"lat": -1.4393
		}
	},
	{
		"country": "FR",
		"name": "Tagon",
		"_id": 2973569,
		"coord": {
			"lon": -0.98978,
			"lat": 44.65427
		}
	},
	{
		"country": "GR",
		"name": "Tagoo",
		"_id": 6951046,
		"coord": {
			"lon": 25.329,
			"lat": 37.453999
		}
	},
	{
		"country": "HU",
		"name": "Tagosztály",
		"_id": 3044195,
		"coord": {
			"lon": 18.950001,
			"lat": 47.166672
		}
	},
	{
		"country": "PH",
		"name": "Tagoytoy",
		"_id": 1684364,
		"coord": {
			"lon": 123.678001,
			"lat": 13.4158
		}
	},
	{
		"country": "TM",
		"name": "Tagta",
		"_id": 601475,
		"coord": {
			"lon": 59.916401,
			"lat": 41.65041
		}
	},
	{
		"country": "BR",
		"name": "Taguatinga",
		"_id": 6319623,
		"coord": {
			"lon": -46.571098,
			"lat": -12.38568
		}
	},
	{
		"country": "BR",
		"name": "Taguatinga",
		"_id": 3447075,
		"coord": {
			"lon": -46.436111,
			"lat": -12.40389
		}
	},
	{
		"country": "PH",
		"name": "Tagudin",
		"_id": 1684322,
		"coord": {
			"lon": 120.466667,
			"lat": 16.933331
		}
	},
	{
		"country": "PH",
		"name": "Tagudin",
		"_id": 1684320,
		"coord": {
			"lon": 120.444199,
			"lat": 16.935499
		}
	},
	{
		"country": "PH",
		"name": "Tagudin",
		"_id": 1684321,
		"coord": {
			"lon": 119.953903,
			"lat": 16.080601
		}
	},
	{
		"country": "PH",
		"name": "Taguig",
		"_id": 1684309,
		"coord": {
			"lon": 121.066673,
			"lat": 14.53333
		}
	},
	{
		"country": "PH",
		"name": "Taguig",
		"_id": 1684308,
		"coord": {
			"lon": 121.079201,
			"lat": 14.5243
		}
	},
	{
		"country": "PH",
		"name": "Taguing",
		"_id": 1684300,
		"coord": {
			"lon": 121.75885,
			"lat": 17.944691
		}
	},
	{
		"country": "PH",
		"name": "Taguisa",
		"_id": 1684292,
		"coord": {
			"lon": 124.035828,
			"lat": 6.69833
		}
	},
	{
		"country": "PH",
		"name": "Taguitic",
		"_id": 1958505,
		"coord": {
			"lon": 123.631203,
			"lat": 7.9387
		}
	},
	{
		"country": "PH",
		"name": "Tagum",
		"_id": 1684269,
		"coord": {
			"lon": 125.807777,
			"lat": 7.44778
		}
	},
	{
		"country": "PH",
		"name": "Tagum Norte",
		"_id": 1684268,
		"coord": {
			"lon": 124.389252,
			"lat": 10.07454
		}
	},
	{
		"country": "PH",
		"name": "Tagusao",
		"_id": 1684245,
		"coord": {
			"lon": 117.814102,
			"lat": 9.19238
		}
	},
	{
		"country": "AF",
		"name": "Tagāb-e Mā’īch",
		"_id": 1123410,
		"coord": {
			"lon": 63.271191,
			"lat": 34.479198
		}
	},
	{
		"country": "SD",
		"name": "Tagūg",
		"_id": 7024903,
		"coord": {
			"lon": 36.364799,
			"lat": 15.4071
		}
	},
	{
		"country": "ES",
		"name": "Tahal",
		"_id": 6355602,
		"coord": {
			"lon": -2.29781,
			"lat": 37.212299
		}
	},
	{
		"country": "ES",
		"name": "Tahal",
		"_id": 2510716,
		"coord": {
			"lon": -2.2847,
			"lat": 37.22797
		}
	},
	{
		"country": "MA",
		"name": "Tahala",
		"_id": 2531480,
		"coord": {
			"lon": -4.42795,
			"lat": 34.04845
		}
	},
	{
		"country": "AU",
		"name": "Tahara",
		"_id": 2147622,
		"coord": {
			"lon": 141.699997,
			"lat": -37.73333
		}
	},
	{
		"country": "JP",
		"name": "Tahara",
		"_id": 1851259,
		"coord": {
			"lon": 137.266663,
			"lat": 34.666672
		}
	},
	{
		"country": "MX",
		"name": "Tahdziú",
		"_id": 3516427,
		"coord": {
			"lon": -88.949997,
			"lat": 20.200001
		}
	},
	{
		"country": "CN",
		"name": "Tahe",
		"_id": 2034615,
		"coord": {
			"lon": 124.73333,
			"lat": 52.333328
		}
	},
	{
		"country": "DZ",
		"name": "Taher",
		"_id": 2478554,
		"coord": {
			"lon": 5.89788,
			"lat": 36.763039
		}
	},
	{
		"country": "ES",
		"name": "Tahiche",
		"_id": 2510715,
		"coord": {
			"lon": -13.54451,
			"lat": 29.019119
		}
	},
	{
		"country": "MN",
		"name": "Tahilt",
		"_id": 1515247,
		"coord": {
			"lon": 96.645699,
			"lat": 45.3466
		}
	},
	{
		"country": "HU",
		"name": "Tahitotfalu",
		"_id": 3044191,
		"coord": {
			"lon": 19.1,
			"lat": 47.75
		}
	},
	{
		"country": "US",
		"name": "Tahlequah",
		"_id": 4552707,
		"coord": {
			"lon": -94.969963,
			"lat": 35.915371
		}
	},
	{
		"country": "CA",
		"name": "Tahltan",
		"_id": 6161128,
		"coord": {
			"lon": -131.003876,
			"lat": 58.016361
		}
	},
	{
		"country": "MX",
		"name": "Tahmek",
		"_id": 3516425,
		"coord": {
			"lon": -89.26667,
			"lat": 20.883329
		}
	},
	{
		"country": "AU",
		"name": "Tahmoor",
		"_id": 2147618,
		"coord": {
			"lon": 150.583328,
			"lat": -34.216671
		}
	},
	{
		"country": "US",
		"name": "Tahoe Vista",
		"_id": 5400943,
		"coord": {
			"lon": -120.051018,
			"lat": 39.23991
		}
	},
	{
		"country": "US",
		"name": "Tahoka",
		"_id": 5532037,
		"coord": {
			"lon": -101.79377,
			"lat": 33.166759
		}
	},
	{
		"country": "US",
		"name": "Tahoma",
		"_id": 5400946,
		"coord": {
			"lon": -120.128242,
			"lat": 39.06741
		}
	},
	{
		"country": "NE",
		"name": "Tahoua",
		"_id": 2439374,
		"coord": {
			"lon": 5.5,
			"lat": 16
		}
	},
	{
		"country": "NE",
		"name": "Tahoua",
		"_id": 2439376,
		"coord": {
			"lon": 5.2692,
			"lat": 14.8888
		}
	},
	{
		"country": "PK",
		"name": "Tahsil",
		"_id": 1336421,
		"coord": {
			"lon": 61.75,
			"lat": 25.058332
		}
	},
	{
		"country": "PK",
		"name": "Tahsil",
		"_id": 1337313,
		"coord": {
			"lon": 62.327221,
			"lat": 25.118891
		}
	},
	{
		"country": "CA",
		"name": "Tahsis",
		"_id": 6161139,
		"coord": {
			"lon": -126.669701,
			"lat": 49.91629
		}
	},
	{
		"country": "PK",
		"name": "Tahsīl",
		"_id": 1333002,
		"coord": {
			"lon": 71.982498,
			"lat": 34.00972
		}
	},
	{
		"country": "EG",
		"name": "Tahta",
		"_id": 347634,
		"coord": {
			"lon": 31.50214,
			"lat": 26.7693
		}
	},
	{
		"country": "ID",
		"name": "Tahunan",
		"_id": 8074071,
		"coord": {
			"lon": 111.553001,
			"lat": -6.885
		}
	},
	{
		"country": "GU",
		"name": "Tai",
		"_id": 7871084,
		"coord": {
			"lon": 144.791245,
			"lat": 13.4417
		}
	},
	{
		"country": "KR",
		"name": "Taian",
		"_id": 1835518,
		"coord": {
			"lon": 126.297783,
			"lat": 36.75639
		}
	},
	{
		"country": "CN",
		"name": "Taian",
		"_id": 1793724,
		"coord": {
			"lon": 117.120003,
			"lat": 36.18528
		}
	},
	{
		"country": "BR",
		"name": "Taiaçu",
		"_id": 3447072,
		"coord": {
			"lon": -48.512501,
			"lat": -21.14444
		}
	},
	{
		"country": "CN",
		"name": "Taibai",
		"_id": 1793718,
		"coord": {
			"lon": 117.689369,
			"lat": 29.087271
		}
	},
	{
		"country": "CN",
		"name": "Taibai",
		"_id": 1899328,
		"coord": {
			"lon": 106.162323,
			"lat": 34.057911
		}
	},
	{
		"country": "CN",
		"name": "Taibai",
		"_id": 7367789,
		"coord": {
			"lon": 107.963333,
			"lat": 34.360569
		}
	},
	{
		"country": "CN",
		"name": "Taibao",
		"_id": 1793707,
		"coord": {
			"lon": 112.178711,
			"lat": 24.696569
		}
	},
	{
		"country": "TW",
		"name": "Taibao",
		"_id": 1668347,
		"coord": {
			"lon": 120.332222,
			"lat": 23.45944
		}
	},
	{
		"country": "IT",
		"name": "Taibon",
		"_id": 3165978,
		"coord": {
			"lon": 12.00333,
			"lat": 46.298889
		}
	},
	{
		"country": "IT",
		"name": "Taibon Agordino",
		"_id": 6542191,
		"coord": {
			"lon": 12.0097,
			"lat": 46.301121
		}
	},
	{
		"country": "CN",
		"name": "Taichen",
		"_id": 1910172,
		"coord": {
			"lon": 113.921898,
			"lat": 33.76926
		}
	},
	{
		"country": "CN",
		"name": "Taicheng",
		"_id": 1790959,
		"coord": {
			"lon": 113.227997,
			"lat": 38.731022
		}
	},
	{
		"country": "TW",
		"name": "Taichung",
		"_id": 1668399,
		"coord": {
			"lon": 120.683899,
			"lat": 24.1469
		}
	},
	{
		"country": "PT",
		"name": "Taide",
		"_id": 2733706,
		"coord": {
			"lon": -8.23512,
			"lat": 41.555691
		}
	},
	{
		"country": "DE",
		"name": "Taiding",
		"_id": 2824373,
		"coord": {
			"lon": 12.66252,
			"lat": 48.803299
		}
	},
	{
		"country": "SA",
		"name": "Taif",
		"_id": 107968,
		"coord": {
			"lon": 40.415829,
			"lat": 21.270281
		}
	},
	{
		"country": "CN",
		"name": "Taifu",
		"_id": 1928134,
		"coord": {
			"lon": 111.585617,
			"lat": 29.28912
		}
	},
	{
		"country": "AU",
		"name": "Taigum",
		"_id": 6943556,
		"coord": {
			"lon": 153.044434,
			"lat": -27.342649
		}
	},
	{
		"country": "CN",
		"name": "Taihe",
		"_id": 1793684,
		"coord": {
			"lon": 105.384537,
			"lat": 30.871229
		}
	},
	{
		"country": "CN",
		"name": "Taihe",
		"_id": 1793687,
		"coord": {
			"lon": 116.611053,
			"lat": 27.052719
		}
	},
	{
		"country": "CN",
		"name": "Taihe",
		"_id": 6647609,
		"coord": {
			"lon": 113.011269,
			"lat": 23.73209
		}
	},
	{
		"country": "CN",
		"name": "Taihe Chengguanzhen",
		"_id": 1793683,
		"coord": {
			"lon": 115.648857,
			"lat": 33.16552
		}
	},
	{
		"country": "CN",
		"name": "Taijing",
		"_id": 1899315,
		"coord": {
			"lon": 105.548889,
			"lat": 34.563332
		}
	},
	{
		"country": "CN",
		"name": "Taijitun",
		"_id": 2034602,
		"coord": {
			"lon": 120.87204,
			"lat": 41.057369
		}
	},
	{
		"country": "CN",
		"name": "Taikang",
		"_id": 2034600,
		"coord": {
			"lon": 124.416672,
			"lat": 46.833328
		}
	},
	{
		"country": "JP",
		"name": "Taiki",
		"_id": 2127931,
		"coord": {
			"lon": 143.274719,
			"lat": 42.490559
		}
	},
	{
		"country": "CN",
		"name": "Tailai",
		"_id": 2034599,
		"coord": {
			"lon": 123.400002,
			"lat": 46.383331
		}
	},
	{
		"country": "AU",
		"name": "Tailem Bend",
		"_id": 2060703,
		"coord": {
			"lon": 139.449997,
			"lat": -35.26667
		}
	},
	{
		"country": "DE",
		"name": "Tailfingen",
		"_id": 2824370,
		"coord": {
			"lon": 9.01667,
			"lat": 48.25
		}
	},
	{
		"country": "CN",
		"name": "Tailing",
		"_id": 7658299,
		"coord": {
			"lon": 114.111237,
			"lat": 27.068649
		}
	},
	{
		"country": "FR",
		"name": "Taillades",
		"_id": 6454804,
		"coord": {
			"lon": 5.1,
			"lat": 43.833328
		}
	},
	{
		"country": "FR",
		"name": "Taillades",
		"_id": 2973564,
		"coord": {
			"lon": 5.09216,
			"lat": 43.835918
		}
	},
	{
		"country": "FR",
		"name": "Taillebois",
		"_id": 6439318,
		"coord": {
			"lon": -0.43333,
			"lat": 48.799999
		}
	},
	{
		"country": "FR",
		"name": "Taillebois",
		"_id": 2973556,
		"coord": {
			"lon": -0.42777,
			"lat": 48.801979
		}
	},
	{
		"country": "FR",
		"name": "Taillecourt",
		"_id": 6430004,
		"coord": {
			"lon": 6.85,
			"lat": 47.5
		}
	},
	{
		"country": "FR",
		"name": "Taillecourt",
		"_id": 2973551,
		"coord": {
			"lon": 6.85442,
			"lat": 47.495209
		}
	},
	{
		"country": "FR",
		"name": "Tailleville",
		"_id": 2973541,
		"coord": {
			"lon": -0.40959,
			"lat": 49.30579
		}
	},
	{
		"country": "CN",
		"name": "Taimei",
		"_id": 1793650,
		"coord": {
			"lon": 114.473442,
			"lat": 23.32258
		}
	},
	{
		"country": "DE",
		"name": "Taimering",
		"_id": 2824366,
		"coord": {
			"lon": 12.31667,
			"lat": 48.916672
		}
	},
	{
		"country": "GB",
		"name": "Tain",
		"_id": 2636321,
		"coord": {
			"lon": -4.05991,
			"lat": 57.809029
		}
	},
	{
		"country": "TW",
		"name": "Tainan",
		"_id": 1668352,
		"coord": {
			"lon": 120.188759,
			"lat": 23.000019
		}
	},
	{
		"country": "TW",
		"name": "Tainan",
		"_id": 1668355,
		"coord": {
			"lon": 120.213333,
			"lat": 22.990829
		}
	},
	{
		"country": "CN",
		"name": "Tainan",
		"_id": 1548565,
		"coord": {
			"lon": 120.26944,
			"lat": 32.762051
		}
	},
	{
		"country": "IT",
		"name": "Taino",
		"_id": 3165975,
		"coord": {
			"lon": 8.61654,
			"lat": 45.762489
		}
	},
	{
		"country": "US",
		"name": "Tainter Corner",
		"_id": 4980356,
		"coord": {
			"lon": -70.365341,
			"lat": 44.587559
		}
	},
	{
		"country": "US",
		"name": "Tainter Lake",
		"_id": 5275391,
		"coord": {
			"lon": -91.847679,
			"lat": 44.989128
		}
	},
	{
		"country": "FR",
		"name": "Taintrux",
		"_id": 6445760,
		"coord": {
			"lon": 6.9,
			"lat": 48.25
		}
	},
	{
		"country": "FR",
		"name": "Taintrux",
		"_id": 2973530,
		"coord": {
			"lon": 6.89963,
			"lat": 48.249439
		}
	},
	{
		"country": "IT",
		"name": "Taio",
		"_id": 6540235,
		"coord": {
			"lon": 11.07207,
			"lat": 46.32251
		}
	},
	{
		"country": "BR",
		"name": "Taiobeiras",
		"_id": 3447059,
		"coord": {
			"lon": -42.233059,
			"lat": -15.80778
		}
	},
	{
		"country": "PT",
		"name": "Taipa",
		"_id": 2733705,
		"coord": {
			"lon": -8.53326,
			"lat": 40.598282
		}
	},
	{
		"country": "NZ",
		"name": "Taipa",
		"_id": 2182017,
		"coord": {
			"lon": 173.466675,
			"lat": -34.98333
		}
	},
	{
		"country": "FI",
		"name": "Taipalsaari",
		"_id": 635151,
		"coord": {
			"lon": 28.08333,
			"lat": 61.25
		}
	},
	{
		"country": "FI",
		"name": "Taipalsaari",
		"_id": 635150,
		"coord": {
			"lon": 28.049999,
			"lat": 61.150002
		}
	},
	{
		"country": "IT",
		"name": "Taipana",
		"_id": 6538395,
		"coord": {
			"lon": 13.34093,
			"lat": 46.248531
		}
	},
	{
		"country": "IT",
		"name": "Taipana",
		"_id": 3165974,
		"coord": {
			"lon": 13.34222,
			"lat": 46.247501
		}
	},
	{
		"country": "TW",
		"name": "Taipei",
		"_id": 1668341,
		"coord": {
			"lon": 121.531853,
			"lat": 25.04776
		}
	},
	{
		"country": "TW",
		"name": "Taipei",
		"_id": 7280290,
		"coord": {
			"lon": 121.651611,
			"lat": 25.025881
		}
	},
	{
		"country": "TW",
		"name": "Taipei",
		"_id": 1665148,
		"coord": {
			"lon": 121.581749,
			"lat": 24.94702
		}
	},
	{
		"country": "MY",
		"name": "Taiping",
		"_id": 1734586,
		"coord": {
			"lon": 100.73333,
			"lat": 4.85
		}
	},
	{
		"country": "CN",
		"name": "Taiping",
		"_id": 1793642,
		"coord": {
			"lon": 107.359169,
			"lat": 22.411671
		}
	},
	{
		"country": "CN",
		"name": "Taiping",
		"_id": 1793565,
		"coord": {
			"lon": 109.922783,
			"lat": 29.83194
		}
	},
	{
		"country": "CN",
		"name": "Taiping",
		"_id": 1793591,
		"coord": {
			"lon": 106.037712,
			"lat": 28.140829
		}
	},
	{
		"country": "CN",
		"name": "Taiping",
		"_id": 1793601,
		"coord": {
			"lon": 113.483513,
			"lat": 23.441219
		}
	},
	{
		"country": "CN",
		"name": "Taiping",
		"_id": 1793624,
		"coord": {
			"lon": 118.418694,
			"lat": 26.445669
		}
	},
	{
		"country": "CN",
		"name": "Taiping",
		"_id": 1793627,
		"coord": {
			"lon": 114.061523,
			"lat": 24.947229
		}
	},
	{
		"country": "CN",
		"name": "Taiping",
		"_id": 1793630,
		"coord": {
			"lon": 112.557831,
			"lat": 24.255289
		}
	},
	{
		"country": "CN",
		"name": "Taiping",
		"_id": 1793631,
		"coord": {
			"lon": 117.015106,
			"lat": 23.9006
		}
	},
	{
		"country": "CN",
		"name": "Taiping",
		"_id": 1793632,
		"coord": {
			"lon": 112.878639,
			"lat": 23.67136
		}
	},
	{
		"country": "CN",
		"name": "Taiping",
		"_id": 1898310,
		"coord": {
			"lon": 120.698334,
			"lat": 31.434719
		}
	},
	{
		"country": "CN",
		"name": "Taiping",
		"_id": 1999689,
		"coord": {
			"lon": 108.736107,
			"lat": 34.505829
		}
	},
	{
		"country": "CN",
		"name": "Taiping",
		"_id": 6422080,
		"coord": {
			"lon": 112.123062,
			"lat": 25.66111
		}
	},
	{
		"country": "CN",
		"name": "Taiping",
		"_id": 6824435,
		"coord": {
			"lon": 102.588341,
			"lat": 24.952499
		}
	},
	{
		"country": "CN",
		"name": "Taiping",
		"_id": 7328868,
		"coord": {
			"lon": 115.713676,
			"lat": 28.80476
		}
	},
	{
		"country": "CN",
		"name": "Taiping",
		"_id": 7374589,
		"coord": {
			"lon": 105.696762,
			"lat": 32.95409
		}
	},
	{
		"country": "CN",
		"name": "Taiping",
		"_id": 7653970,
		"coord": {
			"lon": 113.920891,
			"lat": 31.4552
		}
	},
	{
		"country": "CN",
		"name": "Taiping",
		"_id": 8016934,
		"coord": {
			"lon": 111.079376,
			"lat": 29.97555
		}
	},
	{
		"country": "CN",
		"name": "Taipingguan",
		"_id": 1793590,
		"coord": {
			"lon": 116.429672,
			"lat": 29.75242
		}
	},
	{
		"country": "CN",
		"name": "Taipingguan",
		"_id": 6825107,
		"coord": {
			"lon": 102.791237,
			"lat": 24.83003
		}
	},
	{
		"country": "CN",
		"name": "Taipinghu",
		"_id": 7635419,
		"coord": {
			"lon": 118.039742,
			"lat": 30.36727
		}
	},
	{
		"country": "CN",
		"name": "Taipingqiao",
		"_id": 1793581,
		"coord": {
			"lon": 111.337181,
			"lat": 29.06188
		}
	},
	{
		"country": "CN",
		"name": "Taipingxu",
		"_id": 6421804,
		"coord": {
			"lon": 112.328056,
			"lat": 25.47444
		}
	},
	{
		"country": "CN",
		"name": "Taipingyan",
		"_id": 1975112,
		"coord": {
			"lon": 118.090202,
			"lat": 24.46172
		}
	},
	{
		"country": "CN",
		"name": "Taipingzhuang",
		"_id": 2034558,
		"coord": {
			"lon": 126.199997,
			"lat": 45.616669
		}
	},
	{
		"country": "CN",
		"name": "Taipingzhuang",
		"_id": 1793560,
		"coord": {
			"lon": 112.136009,
			"lat": 39.047939
		}
	},
	{
		"country": "CN",
		"name": "Taipingzhuang",
		"_id": 2034562,
		"coord": {
			"lon": 122.808151,
			"lat": 40.16914
		}
	},
	{
		"country": "BR",
		"name": "Taipu",
		"_id": 3386957,
		"coord": {
			"lon": -35.596668,
			"lat": -5.62167
		}
	},
	{
		"country": "CN",
		"name": "Taiqing",
		"_id": 8135630,
		"coord": {
			"lon": 111.313362,
			"lat": 29.875351
		}
	},
	{
		"country": "RU",
		"name": "Tair",
		"_id": 827689,
		"coord": {
			"lon": 47.848541,
			"lat": 56.2672
		}
	},
	{
		"country": "PH",
		"name": "Tairan Camp",
		"_id": 1707434,
		"coord": {
			"lon": 121.8395,
			"lat": 6.6402
		}
	},
	{
		"country": "NZ",
		"name": "Tairua",
		"_id": 2182010,
		"coord": {
			"lon": 175.850006,
			"lat": -37.01667
		}
	},
	{
		"country": "KR",
		"name": "Taisen-ri",
		"_id": 1835447,
		"coord": {
			"lon": 126.597717,
			"lat": 36.349312
		}
	},
	{
		"country": "CN",
		"name": "Taishan",
		"_id": 1793700,
		"coord": {
			"lon": 112.7799,
			"lat": 22.25135
		}
	},
	{
		"country": "CN",
		"name": "Taishan",
		"_id": 7407750,
		"coord": {
			"lon": 106.457611,
			"lat": 33.772968
		}
	},
	{
		"country": "CN",
		"name": "Taishan",
		"_id": 7658358,
		"coord": {
			"lon": 114.269608,
			"lat": 27.4436
		}
	},
	{
		"country": "CN",
		"name": "Taishang",
		"_id": 2034555,
		"coord": {
			"lon": 125.842163,
			"lat": 41.298679
		}
	},
	{
		"country": "CN",
		"name": "Taishanmiao",
		"_id": 7055895,
		"coord": {
			"lon": 112.643127,
			"lat": 33.39637
		}
	},
	{
		"country": "CN",
		"name": "Taishanmiao",
		"_id": 7069527,
		"coord": {
			"lon": 113.208344,
			"lat": 32.86924
		}
	},
	{
		"country": "CN",
		"name": "Taishi",
		"_id": 7373126,
		"coord": {
			"lon": 105.45163,
			"lat": 33.616562
		}
	},
	{
		"country": "CN",
		"name": "Taishihe",
		"_id": 7373270,
		"coord": {
			"lon": 105.181221,
			"lat": 33.70578
		}
	},
	{
		"country": "FR",
		"name": "Taissy",
		"_id": 6436040,
		"coord": {
			"lon": 4.1,
			"lat": 49.216671
		}
	},
	{
		"country": "FR",
		"name": "Taissy",
		"_id": 2973524,
		"coord": {
			"lon": 4.09406,
			"lat": 49.215092
		}
	},
	{
		"country": "DE",
		"name": "Taiting",
		"_id": 2824361,
		"coord": {
			"lon": 11.05328,
			"lat": 48.40345
		}
	},
	{
		"country": "TW",
		"name": "Taitung",
		"_id": 1668295,
		"coord": {
			"lon": 121.144569,
			"lat": 22.759911
		}
	},
	{
		"country": "TW",
		"name": "Taitung City",
		"_id": 6949678,
		"coord": {
			"lon": 121.144402,
			"lat": 22.758301
		}
	},
	{
		"country": "FI",
		"name": "Taivalkoski",
		"_id": 635142,
		"coord": {
			"lon": 28.25,
			"lat": 65.5
		}
	},
	{
		"country": "FI",
		"name": "Taivalkoski",
		"_id": 635141,
		"coord": {
			"lon": 28.25,
			"lat": 65.566673
		}
	},
	{
		"country": "FI",
		"name": "Taivassalo",
		"_id": 635133,
		"coord": {
			"lon": 21.58333,
			"lat": 60.583328
		}
	},
	{
		"country": "FI",
		"name": "Taivassalo",
		"_id": 635130,
		"coord": {
			"lon": 21.61639,
			"lat": 60.560848
		}
	},
	{
		"country": "TW",
		"name": "Taiwan",
		"_id": 1668284,
		"coord": {
			"lon": 121,
			"lat": 24
		}
	},
	{
		"country": "TW",
		"name": "Taiwan",
		"_id": 7280291,
		"coord": {
			"lon": 120.705406,
			"lat": 24.15114
		}
	},
	{
		"country": "CN",
		"name": "Taiwei",
		"_id": 1910150,
		"coord": {
			"lon": 113.75769,
			"lat": 33.62973
		}
	},
	{
		"country": "CN",
		"name": "Taixi",
		"_id": 1793536,
		"coord": {
			"lon": 118.247299,
			"lat": 26.101919
		}
	},
	{
		"country": "CN",
		"name": "Taixing",
		"_id": 1793533,
		"coord": {
			"lon": 120.013611,
			"lat": 32.166672
		}
	},
	{
		"country": "CN",
		"name": "Taiyang",
		"_id": 1793529,
		"coord": {
			"lon": 119.296112,
			"lat": 30.185261
		}
	},
	{
		"country": "CN",
		"name": "Taiyang",
		"_id": 1793530,
		"coord": {
			"lon": 115.268059,
			"lat": 28.19721
		}
	},
	{
		"country": "CN",
		"name": "Taiyang",
		"_id": 1793531,
		"coord": {
			"lon": 116.477798,
			"lat": 28.062099
		}
	},
	{
		"country": "CN",
		"name": "Taiyang",
		"_id": 7407867,
		"coord": {
			"lon": 106.294891,
			"lat": 34.078819
		}
	},
	{
		"country": "CN",
		"name": "Taiyangling",
		"_id": 7372230,
		"coord": {
			"lon": 106.00312,
			"lat": 33.03648
		}
	},
	{
		"country": "CN",
		"name": "Taiyangsheng",
		"_id": 2053203,
		"coord": {
			"lon": 122.3601,
			"lat": 40.370461
		}
	},
	{
		"country": "CN",
		"name": "Taiyigong",
		"_id": 1793517,
		"coord": {
			"lon": 109.001602,
			"lat": 34.026169
		}
	},
	{
		"country": "KZ",
		"name": "Taiynsha",
		"_id": 1522035,
		"coord": {
			"lon": 69.763893,
			"lat": 53.847778
		}
	},
	{
		"country": "CN",
		"name": "Taiyu",
		"_id": 1793513,
		"coord": {
			"lon": 108.059807,
			"lat": 34.93272
		}
	},
	{
		"country": "CN",
		"name": "Taiyu",
		"_id": 7330568,
		"coord": {
			"lon": 104.531616,
			"lat": 33.788738
		}
	},
	{
		"country": "CN",
		"name": "Taiyuan",
		"_id": 1793511,
		"coord": {
			"lon": 112.56028,
			"lat": 37.869438
		}
	},
	{
		"country": "CN",
		"name": "Taiyuan",
		"_id": 1552307,
		"coord": {
			"lon": 118.400482,
			"lat": 30.71093
		}
	},
	{
		"country": "CN",
		"name": "Taiyuan",
		"_id": 1924132,
		"coord": {
			"lon": 117.507782,
			"lat": 28.009171
		}
	},
	{
		"country": "CN",
		"name": "Taizhou",
		"_id": 1793505,
		"coord": {
			"lon": 119.910629,
			"lat": 32.493328
		}
	},
	{
		"country": "CN",
		"name": "Taizi",
		"_id": 1793498,
		"coord": {
			"lon": 115.183327,
			"lat": 30.033331
		}
	},
	{
		"country": "FR",
		"name": "Taizy",
		"_id": 6426132,
		"coord": {
			"lon": 4.26667,
			"lat": 49.51667
		}
	},
	{
		"country": "FR",
		"name": "Taizy",
		"_id": 2973518,
		"coord": {
			"lon": 4.25998,
			"lat": 49.520351
		}
	},
	{
		"country": "YE",
		"name": "Taizz",
		"_id": 70225,
		"coord": {
			"lon": 44.020908,
			"lat": 13.57952
		}
	},
	{
		"country": "BR",
		"name": "Taió",
		"_id": 3447063,
		"coord": {
			"lon": -49.998058,
			"lat": -27.11639
		}
	},
	{
		"country": "BR",
		"name": "Taiúva",
		"_id": 3447047,
		"coord": {
			"lon": -48.451672,
			"lat": -21.12389
		}
	},
	{
		"country": "ES",
		"name": "Tajahuerce",
		"_id": 6361207,
		"coord": {
			"lon": -2.15802,
			"lat": 41.75021
		}
	},
	{
		"country": "ES",
		"name": "Tajahuerce",
		"_id": 3108402,
		"coord": {
			"lon": -2.15069,
			"lat": 41.73991
		}
	},
	{
		"country": "PH",
		"name": "Tajao",
		"_id": 1684210,
		"coord": {
			"lon": 123.583504,
			"lat": 10.3148
		}
	},
	{
		"country": "TN",
		"name": "Tajerouine",
		"_id": 2464809,
		"coord": {
			"lon": 8.55276,
			"lat": 35.891739
		}
	},
	{
		"country": "CN",
		"name": "Taji",
		"_id": 1793493,
		"coord": {
			"lon": 119.159172,
			"lat": 32.950829
		}
	},
	{
		"country": "US",
		"name": "Tajiguas",
		"_id": 5400963,
		"coord": {
			"lon": -120.108482,
			"lat": 34.46666
		}
	},
	{
		"country": "JP",
		"name": "Tajimi",
		"_id": 1851193,
		"coord": {
			"lon": 137.133331,
			"lat": 35.316669
		}
	},
	{
		"country": "ID",
		"name": "Tajinan",
		"_id": 1625559,
		"coord": {
			"lon": 112.682404,
			"lat": -8.0497
		}
	},
	{
		"country": "ID",
		"name": "Tajinan",
		"_id": 7037081,
		"coord": {
			"lon": 112.682404,
			"lat": -8.0497
		}
	},
	{
		"country": "ES",
		"name": "Tajonar",
		"_id": 3108398,
		"coord": {
			"lon": -1.6081,
			"lat": 42.76878
		}
	},
	{
		"country": "IN",
		"name": "Tajpur",
		"_id": 1255224,
		"coord": {
			"lon": 78.48333,
			"lat": 29.16667
		}
	},
	{
		"country": "ES",
		"name": "Tajueco",
		"_id": 6361208,
		"coord": {
			"lon": -2.84637,
			"lat": 41.53717
		}
	},
	{
		"country": "ES",
		"name": "Tajueco",
		"_id": 3108396,
		"coord": {
			"lon": -2.84845,
			"lat": 41.536411
		}
	},
	{
		"country": "GT",
		"name": "Tajumulco",
		"_id": 3588588,
		"coord": {
			"lon": -91.883331,
			"lat": 15.08333
		}
	},
	{
		"country": "ID",
		"name": "Tajur",
		"_id": 7783025,
		"coord": {
			"lon": 106.077698,
			"lat": -6.5294
		}
	},
	{
		"country": "ID",
		"name": "Tajurdesa",
		"_id": 8018890,
		"coord": {
			"lon": 108.007797,
			"lat": -7.2045
		}
	},
	{
		"country": "PL",
		"name": "Tajęcina",
		"_id": 757109,
		"coord": {
			"lon": 22.01111,
			"lat": 50.124649
		}
	},
	{
		"country": "TH",
		"name": "Tak",
		"_id": 1150490,
		"coord": {
			"lon": 99.128983,
			"lat": 16.86968
		}
	},
	{
		"country": "TH",
		"name": "Tak Bai",
		"_id": 1605957,
		"coord": {
			"lon": 102.054611,
			"lat": 6.25947
		}
	},
	{
		"country": "TH",
		"name": "Tak Fa",
		"_id": 1604606,
		"coord": {
			"lon": 100.495216,
			"lat": 15.34917
		}
	},
	{
		"country": "ID",
		"name": "Taka",
		"_id": 7569949,
		"coord": {
			"lon": 121.113998,
			"lat": -8.8406
		}
	},
	{
		"country": "IR",
		"name": "Takab",
		"_id": 113508,
		"coord": {
			"lon": 47.1133,
			"lat": 36.400902
		}
	},
	{
		"country": "JP",
		"name": "Takado",
		"_id": 2110901,
		"coord": {
			"lon": 140.716675,
			"lat": 36.716671
		}
	},
	{
		"country": "JP",
		"name": "Takahagi",
		"_id": 2110893,
		"coord": {
			"lon": 140.716675,
			"lat": 36.716671
		}
	},
	{
		"country": "JP",
		"name": "Takahama",
		"_id": 1851155,
		"coord": {
			"lon": 136.983337,
			"lat": 34.916672
		}
	},
	{
		"country": "JP",
		"name": "Takaharu",
		"_id": 1851141,
		"coord": {
			"lon": 131.016663,
			"lat": 31.91667
		}
	},
	{
		"country": "JP",
		"name": "Takahashi",
		"_id": 1851137,
		"coord": {
			"lon": 133.616669,
			"lat": 34.783329
		}
	},
	{
		"country": "JP",
		"name": "Takahata",
		"_id": 2110891,
		"coord": {
			"lon": 140.191116,
			"lat": 38.002499
		}
	},
	{
		"country": "NG",
		"name": "Takai",
		"_id": 2322592,
		"coord": {
			"lon": 9.11667,
			"lat": 11.58333
		}
	},
	{
		"country": "JP",
		"name": "Takaishi",
		"_id": 1851125,
		"coord": {
			"lon": 135.433334,
			"lat": 34.51667
		}
	},
	{
		"country": "JP",
		"name": "Takajōmachi",
		"_id": 1851114,
		"coord": {
			"lon": 138.383331,
			"lat": 34.966671
		}
	},
	{
		"country": "NZ",
		"name": "Takaka",
		"_id": 2181997,
		"coord": {
			"lon": 172.800003,
			"lat": -40.849998
		}
	},
	{
		"country": "JP",
		"name": "Takamatsu",
		"_id": 1851099,
		"coord": {
			"lon": 136.716675,
			"lat": 36.76667
		}
	},
	{
		"country": "JP",
		"name": "Takamatsu-shi",
		"_id": 1851100,
		"coord": {
			"lon": 134.043335,
			"lat": 34.340279
		}
	},
	{
		"country": "JP",
		"name": "Takamori",
		"_id": 1851079,
		"coord": {
			"lon": 131.116669,
			"lat": 32.816669
		}
	},
	{
		"country": "JP",
		"name": "Takanabe",
		"_id": 1851068,
		"coord": {
			"lon": 131.5,
			"lat": 32.133331
		}
	},
	{
		"country": "NZ",
		"name": "Takanini",
		"_id": 2181991,
		"coord": {
			"lon": 174.916672,
			"lat": -37.033329
		}
	},
	{
		"country": "NZ",
		"name": "Takanini",
		"_id": 6231568,
		"coord": {
			"lon": 174.900192,
			"lat": -37.048199
		}
	},
	{
		"country": "JP",
		"name": "Takanosu",
		"_id": 2127910,
		"coord": {
			"lon": 140.369446,
			"lat": 40.221939
		}
	},
	{
		"country": "JP",
		"name": "Takaoka",
		"_id": 1851032,
		"coord": {
			"lon": 137.016663,
			"lat": 36.75
		}
	},
	{
		"country": "NZ",
		"name": "Takapau",
		"_id": 2181988,
		"coord": {
			"lon": 176.350006,
			"lat": -40.033329
		}
	},
	{
		"country": "NZ",
		"name": "Takapuna",
		"_id": 2207740,
		"coord": {
			"lon": 174.775833,
			"lat": -36.791672
		}
	},
	{
		"country": "JP",
		"name": "Takarazuka",
		"_id": 1851012,
		"coord": {
			"lon": 135.356964,
			"lat": 34.799358
		}
	},
	{
		"country": "JP",
		"name": "Takasago",
		"_id": 1851009,
		"coord": {
			"lon": 134.800003,
			"lat": 34.75
		}
	},
	{
		"country": "JP",
		"name": "Takasaki",
		"_id": 1851002,
		"coord": {
			"lon": 139.016663,
			"lat": 36.333328
		}
	},
	{
		"country": "JP",
		"name": "Takata",
		"_id": 1850943,
		"coord": {
			"lon": 136.233337,
			"lat": 35.433331
		}
	},
	{
		"country": "JP",
		"name": "Takata",
		"_id": 1907243,
		"coord": {
			"lon": 139.423065,
			"lat": 35.33889
		}
	},
	{
		"country": "JP",
		"name": "Takatachō",
		"_id": 1850940,
		"coord": {
			"lon": 136.933334,
			"lat": 35.133331
		}
	},
	{
		"country": "JP",
		"name": "Takatorichō",
		"_id": 1850924,
		"coord": {
			"lon": 135.133331,
			"lat": 34.650002
		}
	},
	{
		"country": "JP",
		"name": "Takatsu",
		"_id": 1850916,
		"coord": {
			"lon": 131.783325,
			"lat": 34.683331
		}
	},
	{
		"country": "JP",
		"name": "Takatsuki",
		"_id": 1850910,
		"coord": {
			"lon": 135.616776,
			"lat": 34.848331
		}
	},
	{
		"country": "KE",
		"name": "Takaungu",
		"_id": 179634,
		"coord": {
			"lon": 39.856621,
			"lat": -3.68367
		}
	},
	{
		"country": "JP",
		"name": "Takayama",
		"_id": 1850892,
		"coord": {
			"lon": 137.25,
			"lat": 36.133331
		}
	},
	{
		"country": "JP",
		"name": "Takedamachi",
		"_id": 1850878,
		"coord": {
			"lon": 131.399994,
			"lat": 32.966671
		}
	},
	{
		"country": "JP",
		"name": "Takefu",
		"_id": 1850872,
		"coord": {
			"lon": 136.16687,
			"lat": 35.903931
		}
	},
	{
		"country": "JP",
		"name": "Takehara",
		"_id": 1850860,
		"coord": {
			"lon": 132.916672,
			"lat": 34.338329
		}
	},
	{
		"country": "GB",
		"name": "Takeley",
		"_id": 2636315,
		"coord": {
			"lon": 0.26583,
			"lat": 51.870892
		}
	},
	{
		"country": "JP",
		"name": "Takenouchi",
		"_id": 1850837,
		"coord": {
			"lon": 137.300003,
			"lat": 36.700001
		}
	},
	{
		"country": "JP",
		"name": "Takeo",
		"_id": 1850834,
		"coord": {
			"lon": 130.016663,
			"lat": 33.200001
		}
	},
	{
		"country": "ID",
		"name": "Takerharjo",
		"_id": 8140962,
		"coord": {
			"lon": 112.411598,
			"lat": -6.9407
		}
	},
	{
		"country": "IR",
		"name": "Takestan",
		"_id": 113491,
		"coord": {
			"lon": 49.6959,
			"lat": 36.069599
		}
	},
	{
		"country": "JP",
		"name": "Taketomi",
		"_id": 1850822,
		"coord": {
			"lon": 124.08506,
			"lat": 24.330669
		}
	},
	{
		"country": "JP",
		"name": "Taketoyo",
		"_id": 1850818,
		"coord": {
			"lon": 136.916672,
			"lat": 34.849998
		}
	},
	{
		"country": "KH",
		"name": "Takev",
		"_id": 1821940,
		"coord": {
			"lon": 104.783333,
			"lat": 10.98333
		}
	},
	{
		"country": "IN",
		"name": "Takhatgarh",
		"_id": 1255213,
		"coord": {
			"lon": 73,
			"lat": 25.33333
		}
	},
	{
		"country": "IN",
		"name": "Takhatpur",
		"_id": 1255212,
		"coord": {
			"lon": 81.866669,
			"lat": 22.15
		}
	},
	{
		"country": "TH",
		"name": "Takhli",
		"_id": 1605912,
		"coord": {
			"lon": 100.343781,
			"lat": 15.26336
		}
	},
	{
		"country": "RU",
		"name": "Takhtamukay",
		"_id": 515921,
		"coord": {
			"lon": 38.995831,
			"lat": 44.921501
		}
	},
	{
		"country": "RU",
		"name": "Takhtamygda",
		"_id": 2015707,
		"coord": {
			"lon": 123.566673,
			"lat": 54.099998
		}
	},
	{
		"country": "IN",
		"name": "Taki",
		"_id": 1255211,
		"coord": {
			"lon": 88.921387,
			"lat": 22.586109
		}
	},
	{
		"country": "JP",
		"name": "Takikawa",
		"_id": 2127896,
		"coord": {
			"lon": 141.906387,
			"lat": 43.55278
		}
	},
	{
		"country": "BD",
		"name": "Takipur",
		"_id": 1186675,
		"coord": {
			"lon": 88.616669,
			"lat": 24.433331
		}
	},
	{
		"country": "JP",
		"name": "Takko",
		"_id": 2127883,
		"coord": {
			"lon": 141.151672,
			"lat": 40.336109
		}
	},
	{
		"country": "CA",
		"name": "Takla Landing",
		"_id": 6161240,
		"coord": {
			"lon": -125.970169,
			"lat": 55.483131
		}
	},
	{
		"country": "TN",
		"name": "Taklisah",
		"_id": 2464804,
		"coord": {
			"lon": 10.63333,
			"lat": 36.783329
		}
	},
	{
		"country": "JP",
		"name": "Tako",
		"_id": 2110850,
		"coord": {
			"lon": 140.466675,
			"lat": 35.73333
		}
	},
	{
		"country": "ID",
		"name": "Takokak",
		"_id": 1625532,
		"coord": {
			"lon": 107.003601,
			"lat": -7.0513
		}
	},
	{
		"country": "US",
		"name": "Takoma Park",
		"_id": 4370890,
		"coord": {
			"lon": -77.007477,
			"lat": 38.97789
		}
	},
	{
		"country": "GH",
		"name": "Takoradi",
		"_id": 2294915,
		"coord": {
			"lon": -1.75536,
			"lat": 4.88447
		}
	},
	{
		"country": "RU",
		"name": "Taksimo",
		"_id": 2015701,
		"coord": {
			"lon": 114.87944,
			"lat": 56.34444
		}
	},
	{
		"country": "RU",
		"name": "Taksino",
		"_id": 484849,
		"coord": {
			"lon": 36.166668,
			"lat": 56.316666
		}
	},
	{
		"country": "HU",
		"name": "Taksony",
		"_id": 3044181,
		"coord": {
			"lon": 19.06694,
			"lat": 47.329681
		}
	},
	{
		"country": "HU",
		"name": "Taktaharkany",
		"_id": 715009,
		"coord": {
			"lon": 21.133329,
			"lat": 48.083328
		}
	},
	{
		"country": "RU",
		"name": "Taktalachuk",
		"_id": 7594929,
		"coord": {
			"lon": 53.942902,
			"lat": 55.874699
		}
	},
	{
		"country": "HU",
		"name": "Taktaszada",
		"_id": 715005,
		"coord": {
			"lon": 21.183331,
			"lat": 48.116669
		}
	},
	{
		"country": "TH",
		"name": "Takua Pa",
		"_id": 1150452,
		"coord": {
			"lon": 98.343826,
			"lat": 8.8705
		}
	},
	{
		"country": "TH",
		"name": "Takua Thung",
		"_id": 1150447,
		"coord": {
			"lon": 98.451233,
			"lat": 8.38373
		}
	},
	{
		"country": "PH",
		"name": "Takub",
		"_id": 1684191,
		"coord": {
			"lon": 125.422501,
			"lat": 6.85639
		}
	},
	{
		"country": "NG",
		"name": "Takum",
		"_id": 2322552,
		"coord": {
			"lon": 9.98333,
			"lat": 7.26667
		}
	},
	{
		"country": "AU",
		"name": "Takura",
		"_id": 2147608,
		"coord": {
			"lon": 152.716675,
			"lat": -25.33333
		}
	},
	{
		"country": "NG",
		"name": "Takurza",
		"_id": 2592493,
		"coord": {
			"lon": 8.53179,
			"lat": 12.06425
		}
	},
	{
		"country": "RU",
		"name": "Takushin",
		"_id": 798134,
		"coord": {
			"lon": 45.726391,
			"lat": 48.740559
		}
	},
	{
		"country": "GH",
		"name": "Takwaim",
		"_id": 2294893,
		"coord": {
			"lon": -2.0852,
			"lat": 7.44159
		}
	},
	{
		"country": "CH",
		"name": "Tal",
		"_id": 7670426,
		"coord": {
			"lon": 7.77983,
			"lat": 47.020279
		}
	},
	{
		"country": "PK",
		"name": "Tal",
		"_id": 1164076,
		"coord": {
			"lon": 72.243851,
			"lat": 35.47908
		}
	},
	{
		"country": "IN",
		"name": "Tal",
		"_id": 1255187,
		"coord": {
			"lon": 75.383331,
			"lat": 23.716669
		}
	},
	{
		"country": "PH",
		"name": "Tal I Mun Doc",
		"_id": 1683931,
		"coord": {
			"lon": 120.684898,
			"lat": 15.2121
		}
	},
	{
		"country": "MX",
		"name": "Tala",
		"_id": 3982616,
		"coord": {
			"lon": -103.699997,
			"lat": 20.66667
		}
	},
	{
		"country": "EG",
		"name": "Tala",
		"_id": 347612,
		"coord": {
			"lon": 30.942921,
			"lat": 30.68025
		}
	},
	{
		"country": "UY",
		"name": "Tala",
		"_id": 3440021,
		"coord": {
			"lon": -55.76667,
			"lat": -34.349998
		}
	},
	{
		"country": "CY",
		"name": "Tala",
		"_id": 146045,
		"coord": {
			"lon": 32.433331,
			"lat": 34.837502
		}
	},
	{
		"country": "PH",
		"name": "Tala",
		"_id": 1684177,
		"coord": {
			"lon": 122.583328,
			"lat": 13.28333
		}
	},
	{
		"country": "AR",
		"name": "Tala Cañada",
		"_id": 3834780,
		"coord": {
			"lon": -64.969879,
			"lat": -31.357389
		}
	},
	{
		"country": "PH",
		"name": "Talabaan",
		"_id": 1957322,
		"coord": {
			"lon": 122.172218,
			"lat": 6.94111
		}
	},
	{
		"country": "PH",
		"name": "Talaban",
		"_id": 1684154,
		"coord": {
			"lon": 122.86972,
			"lat": 10.1275
		}
	},
	{
		"country": "BY",
		"name": "Talachyn",
		"_id": 620833,
		"coord": {
			"lon": 29.69171,
			"lat": 54.409679
		}
	},
	{
		"country": "CH",
		"name": "Talacker",
		"_id": 6291330,
		"coord": {
			"lon": 8.5579,
			"lat": 47.42445
		}
	},
	{
		"country": "PH",
		"name": "Talacogon",
		"_id": 1684139,
		"coord": {
			"lon": 125.800003,
			"lat": 8.41667
		}
	},
	{
		"country": "PH",
		"name": "Talacogon",
		"_id": 1684137,
		"coord": {
			"lon": 125.784172,
			"lat": 8.45611
		}
	},
	{
		"country": "TO",
		"name": "Talafo‘ou",
		"_id": 4032323,
		"coord": {
			"lon": -175.100006,
			"lat": -21.133329
		}
	},
	{
		"country": "ID",
		"name": "Talaga",
		"_id": 7780886,
		"coord": {
			"lon": 105.999702,
			"lat": -6.3209
		}
	},
	{
		"country": "PH",
		"name": "Talaga",
		"_id": 1684122,
		"coord": {
			"lon": 120.585732,
			"lat": 15.38506
		}
	},
	{
		"country": "PH",
		"name": "Talaga",
		"_id": 1684128,
		"coord": {
			"lon": 120.93618,
			"lat": 13.73646
		}
	},
	{
		"country": "ID",
		"name": "Talagabakti",
		"_id": 7781691,
		"coord": {
			"lon": 106.0093,
			"lat": -6.2081
		}
	},
	{
		"country": "ID",
		"name": "Talagajaya",
		"_id": 7911684,
		"coord": {
			"lon": 107.872704,
			"lat": -7.4158
		}
	},
	{
		"country": "PK",
		"name": "Talagang",
		"_id": 1164069,
		"coord": {
			"lon": 72.415833,
			"lat": 32.929729
		}
	},
	{
		"country": "CL",
		"name": "Talagante",
		"_id": 3870306,
		"coord": {
			"lon": -70.933327,
			"lat": -33.666672
		}
	},
	{
		"country": "ID",
		"name": "Talagasari",
		"_id": 6767620,
		"coord": {
			"lon": 106.200302,
			"lat": -6.4954
		}
	},
	{
		"country": "ID",
		"name": "Talagasari",
		"_id": 7914908,
		"coord": {
			"lon": 107.923103,
			"lat": -7.4205
		}
	},
	{
		"country": "PH",
		"name": "Talagutong",
		"_id": 1714416,
		"coord": {
			"lon": 125.667778,
			"lat": 6.26444
		}
	},
	{
		"country": "PH",
		"name": "Talahib Payap",
		"_id": 1684100,
		"coord": {
			"lon": 121.136391,
			"lat": 13.66083
		}
	},
	{
		"country": "PH",
		"name": "Talahiban Uno",
		"_id": 1684103,
		"coord": {
			"lon": 121.388062,
			"lat": 13.80694
		}
	},
	{
		"country": "PH",
		"name": "Talaibon",
		"_id": 1684095,
		"coord": {
			"lon": 121.139801,
			"lat": 13.8378
		}
	},
	{
		"country": "CO",
		"name": "Talaigua Viejo",
		"_id": 3667547,
		"coord": {
			"lon": -74.585442,
			"lat": 9.31206
		}
	},
	{
		"country": "FR",
		"name": "Talais",
		"_id": 6432481,
		"coord": {
			"lon": -1.05,
			"lat": 45.466671
		}
	},
	{
		"country": "FR",
		"name": "Talais",
		"_id": 2973513,
		"coord": {
			"lon": -1.05485,
			"lat": 45.470348
		}
	},
	{
		"country": "IN",
		"name": "Talaja",
		"_id": 1255175,
		"coord": {
			"lon": 72.050003,
			"lat": 21.35
		}
	},
	{
		"country": "PH",
		"name": "Talakag",
		"_id": 1684086,
		"coord": {
			"lon": 124.600281,
			"lat": 8.23361
		}
	},
	{
		"country": "RU",
		"name": "Talakan",
		"_id": 2015686,
		"coord": {
			"lon": 130.366669,
			"lat": 50.316669
		}
	},
	{
		"country": "UA",
		"name": "Talalayivka",
		"_id": 691942,
		"coord": {
			"lon": 31.920851,
			"lat": 50.957829
		}
	},
	{
		"country": "PH",
		"name": "Talalora",
		"_id": 1684077,
		"coord": {
			"lon": 124.836197,
			"lat": 11.5293
		}
	},
	{
		"country": "ES",
		"name": "Talamanca",
		"_id": 6356296,
		"coord": {
			"lon": 1.94051,
			"lat": 41.730141
		}
	},
	{
		"country": "ES",
		"name": "Talamanca",
		"_id": 3108390,
		"coord": {
			"lon": 1.97791,
			"lat": 41.7374
		}
	},
	{
		"country": "ES",
		"name": "Talamanca de Jarama",
		"_id": 6359364,
		"coord": {
			"lon": -3.48846,
			"lat": 40.7435
		}
	},
	{
		"country": "ES",
		"name": "Talamanca de Jarama",
		"_id": 3108389,
		"coord": {
			"lon": -3.50889,
			"lat": 40.743252
		}
	},
	{
		"country": "ES",
		"name": "Talamantes",
		"_id": 6362936,
		"coord": {
			"lon": -1.67076,
			"lat": 41.722252
		}
	},
	{
		"country": "ES",
		"name": "Talamantes",
		"_id": 3108388,
		"coord": {
			"lon": -1.67856,
			"lat": 41.730511
		}
	},
	{
		"country": "PK",
		"name": "Talamba",
		"_id": 1164064,
		"coord": {
			"lon": 72.240112,
			"lat": 30.527081
		}
	},
	{
		"country": "IT",
		"name": "Talamello",
		"_id": 3165972,
		"coord": {
			"lon": 12.28484,
			"lat": 43.905659
		}
	},
	{
		"country": "IT",
		"name": "Talamona",
		"_id": 6535138,
		"coord": {
			"lon": 9.61294,
			"lat": 46.138489
		}
	},
	{
		"country": "IT",
		"name": "Talana",
		"_id": 3165969,
		"coord": {
			"lon": 9.49654,
			"lat": 40.042061
		}
	},
	{
		"country": "PH",
		"name": "Talang",
		"_id": 1684062,
		"coord": {
			"lon": 120.837502,
			"lat": 15.0228
		}
	},
	{
		"country": "ID",
		"name": "Talang Suko",
		"_id": 1965687,
		"coord": {
			"lon": 112.686829,
			"lat": -8.14075
		}
	},
	{
		"country": "HN",
		"name": "Talanga",
		"_id": 3601072,
		"coord": {
			"lon": -87.083328,
			"lat": 14.4
		}
	},
	{
		"country": "ID",
		"name": "Talangagung",
		"_id": 1965623,
		"coord": {
			"lon": 112.554001,
			"lat": -8.1254
		}
	},
	{
		"country": "ID",
		"name": "Talangbanteng",
		"_id": 8070153,
		"coord": {
			"lon": 108.703499,
			"lat": -7.4453
		}
	},
	{
		"country": "ID",
		"name": "Talangbetutu",
		"_id": 1625493,
		"coord": {
			"lon": 104.683327,
			"lat": -2.88333
		}
	},
	{
		"country": "FR",
		"name": "Talange",
		"_id": 6437885,
		"coord": {
			"lon": 6.1748,
			"lat": 49.236301
		}
	},
	{
		"country": "FR",
		"name": "Talange",
		"_id": 2973511,
		"coord": {
			"lon": 6.17282,
			"lat": 49.236698
		}
	},
	{
		"country": "ID",
		"name": "Talangkembar",
		"_id": 8076090,
		"coord": {
			"lon": 111.858704,
			"lat": -6.9573
		}
	},
	{
		"country": "PH",
		"name": "Talangnan",
		"_id": 1684052,
		"coord": {
			"lon": 123.334396,
			"lat": 9.634
		}
	},
	{
		"country": "ID",
		"name": "Talangrebo",
		"_id": 7666931,
		"coord": {
			"lon": 105.095627,
			"lat": -5.16626
		}
	},
	{
		"country": "FR",
		"name": "Talant",
		"_id": 6428901,
		"coord": {
			"lon": 5.0057,
			"lat": 47.336399
		}
	},
	{
		"country": "FR",
		"name": "Talant",
		"_id": 2973510,
		"coord": {
			"lon": 5.00888,
			"lat": 47.336941
		}
	},
	{
		"country": "KZ",
		"name": "Talapker",
		"_id": 1518598,
		"coord": {
			"lon": 74.550003,
			"lat": 43.883331
		}
	},
	{
		"country": "PE",
		"name": "Talara",
		"_id": 3691582,
		"coord": {
			"lon": -81.271942,
			"lat": -4.57722
		}
	},
	{
		"country": "ES",
		"name": "Talarn",
		"_id": 3108383,
		"coord": {
			"lon": 0.90068,
			"lat": 42.185749
		}
	},
	{
		"country": "ES",
		"name": "Talarrubias",
		"_id": 6355992,
		"coord": {
			"lon": -5.22143,
			"lat": 39.1488
		}
	},
	{
		"country": "ES",
		"name": "Talarrubias",
		"_id": 2510700,
		"coord": {
			"lon": -5.23422,
			"lat": 39.036968
		}
	},
	{
		"country": "KG",
		"name": "Talas",
		"_id": 1527299,
		"coord": {
			"lon": 72.241943,
			"lat": 42.522221
		}
	},
	{
		"country": "KG",
		"name": "Talas",
		"_id": 7649203,
		"coord": {
			"lon": 72.656776,
			"lat": 42.354729
		}
	},
	{
		"country": "TR",
		"name": "Talas",
		"_id": 299900,
		"coord": {
			"lon": 35.553799,
			"lat": 38.6908
		}
	},
	{
		"country": "KG",
		"name": "Talas Oblasty",
		"_id": 1527297,
		"coord": {
			"lon": 72,
			"lat": 42.333328
		}
	},
	{
		"country": "NG",
		"name": "Talata Mafara",
		"_id": 2322529,
		"coord": {
			"lon": 6.05971,
			"lat": 12.57317
		}
	},
	{
		"country": "ES",
		"name": "Talavan",
		"_id": 2510699,
		"coord": {
			"lon": -6.28146,
			"lat": 39.717152
		}
	},
	{
		"country": "PH",
		"name": "Talavera",
		"_id": 1684016,
		"coord": {
			"lon": 120.919197,
			"lat": 15.5883
		}
	},
	{
		"country": "PH",
		"name": "Talavera",
		"_id": 1684019,
		"coord": {
			"lon": 120.933327,
			"lat": 15.61667
		}
	},
	{
		"country": "ES",
		"name": "Talavera",
		"_id": 6358944,
		"coord": {
			"lon": 1.35438,
			"lat": 41.593079
		}
	},
	{
		"country": "PE",
		"name": "Talavera",
		"_id": 3928043,
		"coord": {
			"lon": -73.429169,
			"lat": -13.65306
		}
	},
	{
		"country": "ES",
		"name": "Talavera La Real",
		"_id": 2510692,
		"coord": {
			"lon": -6.76856,
			"lat": 38.877941
		}
	},
	{
		"country": "ES",
		"name": "Talavera de la Reina",
		"_id": 6361825,
		"coord": {
			"lon": -4.83319,
			"lat": 39.960541
		}
	},
	{
		"country": "ES",
		"name": "Talavera de la Reina",
		"_id": 2510693,
		"coord": {
			"lon": -4.83076,
			"lat": 39.963482
		}
	},
	{
		"country": "ES",
		"name": "Talavera la Real",
		"_id": 6355993,
		"coord": {
			"lon": -6.72675,
			"lat": 38.85722
		}
	},
	{
		"country": "ES",
		"name": "Talaván",
		"_id": 6356873,
		"coord": {
			"lon": -6.27047,
			"lat": 39.682659
		}
	},
	{
		"country": "LK",
		"name": "Talawakele",
		"_id": 1227300,
		"coord": {
			"lon": 80.658096,
			"lat": 6.9371
		}
	},
	{
		"country": "ID",
		"name": "Talawi",
		"_id": 1625439,
		"coord": {
			"lon": 100.739792,
			"lat": -0.59745
		}
	},
	{
		"country": "PH",
		"name": "Talay",
		"_id": 1684010,
		"coord": {
			"lon": 123.265701,
			"lat": 9.2896
		}
	},
	{
		"country": "RU",
		"name": "Talaya",
		"_id": 2120769,
		"coord": {
			"lon": 152.75,
			"lat": 61.383331
		}
	},
	{
		"country": "PH",
		"name": "Talayan",
		"_id": 1684007,
		"coord": {
			"lon": 124.381943,
			"lat": 6.98056
		}
	},
	{
		"country": "ES",
		"name": "Talayuela",
		"_id": 2510689,
		"coord": {
			"lon": -5.60982,
			"lat": 39.987011
		}
	},
	{
		"country": "ES",
		"name": "Talayuelas",
		"_id": 2510688,
		"coord": {
			"lon": -2.23333,
			"lat": 39.683331
		}
	},
	{
		"country": "ES",
		"name": "Talayuelas",
		"_id": 6357532,
		"coord": {
			"lon": -1.27537,
			"lat": 39.827969
		}
	},
	{
		"country": "ES",
		"name": "Talayuelas",
		"_id": 2510687,
		"coord": {
			"lon": -1.28333,
			"lat": 39.849998
		}
	},
	{
		"country": "RU",
		"name": "Talazhskiy Aviagorodok",
		"_id": 8071846,
		"coord": {
			"lon": 40.701801,
			"lat": 64.590401
		}
	},
	{
		"country": "IN",
		"name": "Talbahat",
		"_id": 1255146,
		"coord": {
			"lon": 78.433327,
			"lat": 25.049999
		}
	},
	{
		"country": "AU",
		"name": "Talbingo",
		"_id": 2147592,
		"coord": {
			"lon": 148.300003,
			"lat": -35.566669
		}
	},
	{
		"country": "AU",
		"name": "Talbot",
		"_id": 2147591,
		"coord": {
			"lon": 143.699997,
			"lat": -37.166672
		}
	},
	{
		"country": "US",
		"name": "Talbot County",
		"_id": 4370904,
		"coord": {
			"lon": -76.083,
			"lat": 38.766781
		}
	},
	{
		"country": "US",
		"name": "Talbotton",
		"_id": 4225613,
		"coord": {
			"lon": -84.539368,
			"lat": 32.677639
		}
	},
	{
		"country": "CL",
		"name": "Talca",
		"_id": 3870294,
		"coord": {
			"lon": -71.666672,
			"lat": -35.433331
		}
	},
	{
		"country": "CL",
		"name": "Talcahuano",
		"_id": 3870282,
		"coord": {
			"lon": -73.116669,
			"lat": -36.716671
		}
	},
	{
		"country": "IN",
		"name": "Talcher",
		"_id": 1255143,
		"coord": {
			"lon": 85.216667,
			"lat": 20.950001
		}
	},
	{
		"country": "RU",
		"name": "Taldan",
		"_id": 2015646,
		"coord": {
			"lon": 124.800003,
			"lat": 53.666672
		}
	},
	{
		"country": "RU",
		"name": "Taldom",
		"_id": 484826,
		"coord": {
			"lon": 37.533329,
			"lat": 56.73333
		}
	},
	{
		"country": "KZ",
		"name": "Taldykuduk",
		"_id": 1484165,
		"coord": {
			"lon": 73.008331,
			"lat": 49.663891
		}
	},
	{
		"country": "KZ",
		"name": "Taldyqorghan",
		"_id": 1518543,
		"coord": {
			"lon": 77.916672,
			"lat": 45
		}
	},
	{
		"country": "KZ",
		"name": "Taldyqorghan",
		"_id": 1518542,
		"coord": {
			"lon": 78.373894,
			"lat": 45.01556
		}
	},
	{
		"country": "RO",
		"name": "Talea",
		"_id": 665611,
		"coord": {
			"lon": 25.549999,
			"lat": 45.216671
		}
	},
	{
		"country": "IN",
		"name": "Talegaon Dabhade",
		"_id": 1255134,
		"coord": {
			"lon": 73.683327,
			"lat": 18.716669
		}
	},
	{
		"country": "IT",
		"name": "Taleggio",
		"_id": 6534515,
		"coord": {
			"lon": 9.56485,
			"lat": 45.893379
		}
	},
	{
		"country": "ID",
		"name": "Talegong Dua",
		"_id": 7858489,
		"coord": {
			"lon": 107.511902,
			"lat": -7.2997
		}
	},
	{
		"country": "IN",
		"name": "Taleigao",
		"_id": 1255131,
		"coord": {
			"lon": 73.800003,
			"lat": 15.46667
		}
	},
	{
		"country": "IN",
		"name": "Talen",
		"_id": 1255130,
		"coord": {
			"lon": 76.716667,
			"lat": 23.566669
		}
	},
	{
		"country": "FR",
		"name": "Talence",
		"_id": 6432482,
		"coord": {
			"lon": -0.6,
			"lat": 44.816669
		}
	},
	{
		"country": "FR",
		"name": "Talence",
		"_id": 2973495,
		"coord": {
			"lon": -0.59543,
			"lat": 44.804771
		}
	},
	{
		"country": "FR",
		"name": "Talensac",
		"_id": 6432876,
		"coord": {
			"lon": -1.93333,
			"lat": 48.099998
		}
	},
	{
		"country": "FR",
		"name": "Talensac",
		"_id": 2973492,
		"coord": {
			"lon": -1.92829,
			"lat": 48.108471
		}
	},
	{
		"country": "US",
		"name": "Talent",
		"_id": 5755890,
		"coord": {
			"lon": -122.788651,
			"lat": 42.245682
		}
	},
	{
		"country": "ES",
		"name": "Tales",
		"_id": 6357059,
		"coord": {
			"lon": -0.29853,
			"lat": 39.944439
		}
	},
	{
		"country": "ES",
		"name": "Tales",
		"_id": 2510686,
		"coord": {
			"lon": -0.3,
			"lat": 39.933331
		}
	},
	{
		"country": "PS",
		"name": "Talfit",
		"_id": 281675,
		"coord": {
			"lon": 35.290939,
			"lat": 32.086639
		}
	},
	{
		"country": "AU",
		"name": "Talgai",
		"_id": 2147577,
		"coord": {
			"lon": 151.766663,
			"lat": -28.01667
		}
	},
	{
		"country": "AU",
		"name": "Talgarno",
		"_id": 2147575,
		"coord": {
			"lon": 147.166672,
			"lat": -36.083328
		}
	},
	{
		"country": "KZ",
		"name": "Talghar",
		"_id": 1518518,
		"coord": {
			"lon": 77.23278,
			"lat": 43.30444
		}
	},
	{
		"country": "IN",
		"name": "Talgram",
		"_id": 1255127,
		"coord": {
			"lon": 79.650002,
			"lat": 27.049999
		}
	},
	{
		"country": "PT",
		"name": "Talhadas",
		"_id": 8010839,
		"coord": {
			"lon": -8.33169,
			"lat": 40.665649
		}
	},
	{
		"country": "PK",
		"name": "Talhar",
		"_id": 1164045,
		"coord": {
			"lon": 68.816673,
			"lat": 24.883329
		}
	},
	{
		"country": "DE",
		"name": "Talheim",
		"_id": 2824320,
		"coord": {
			"lon": 8.63852,
			"lat": 47.816559
		}
	},
	{
		"country": "DE",
		"name": "Talheim",
		"_id": 6555533,
		"coord": {
			"lon": 9.19306,
			"lat": 49.083302
		}
	},
	{
		"country": "DE",
		"name": "Talheim",
		"_id": 2824316,
		"coord": {
			"lon": 9.19306,
			"lat": 49.083328
		}
	},
	{
		"country": "DE",
		"name": "Talheim",
		"_id": 6555852,
		"coord": {
			"lon": 8.66667,
			"lat": 48.016701
		}
	},
	{
		"country": "DE",
		"name": "Talheim",
		"_id": 2824319,
		"coord": {
			"lon": 8.66667,
			"lat": 48.01667
		}
	},
	{
		"country": "TR",
		"name": "Taliban",
		"_id": 320635,
		"coord": {
			"lon": 41.412209,
			"lat": 37.981251
		}
	},
	{
		"country": "PH",
		"name": "Talibon",
		"_id": 1683961,
		"coord": {
			"lon": 124.324997,
			"lat": 10.14917
		}
	},
	{
		"country": "ID",
		"name": "Talibura",
		"_id": 7463809,
		"coord": {
			"lon": 122.525497,
			"lat": -8.5246
		}
	},
	{
		"country": "NP",
		"name": "Talichaur",
		"_id": 7955603,
		"coord": {
			"lon": 82.193932,
			"lat": 29.273291
		}
	},
	{
		"country": "ES",
		"name": "Taliga",
		"_id": 2510685,
		"coord": {
			"lon": -7.01713,
			"lat": 38.52861
		}
	},
	{
		"country": "PH",
		"name": "Taligaman",
		"_id": 1683949,
		"coord": {
			"lon": 125.65583,
			"lat": 8.90444
		}
	},
	{
		"country": "US",
		"name": "Talihina",
		"_id": 4552725,
		"coord": {
			"lon": -95.048019,
			"lat": 34.751492
		}
	},
	{
		"country": "IN",
		"name": "Talikota",
		"_id": 1255122,
		"coord": {
			"lon": 76.316673,
			"lat": 16.48333
		}
	},
	{
		"country": "AM",
		"name": "Talin",
		"_id": 616187,
		"coord": {
			"lon": 43.873871,
			"lat": 40.384281
		}
	},
	{
		"country": "CN",
		"name": "Taling",
		"_id": 2053290,
		"coord": {
			"lon": 123.109459,
			"lat": 40.05175
		}
	},
	{
		"country": "TH",
		"name": "Taling Chan",
		"_id": 1605843,
		"coord": {
			"lon": 100.456703,
			"lat": 13.77698
		}
	},
	{
		"country": "MA",
		"name": "Taliouine",
		"_id": 2531014,
		"coord": {
			"lon": -7.91262,
			"lat": 30.529169
		}
	},
	{
		"country": "PH",
		"name": "Talipan",
		"_id": 1683911,
		"coord": {
			"lon": 121.683327,
			"lat": 13.93333
		}
	},
	{
		"country": "PH",
		"name": "Talipao",
		"_id": 1683900,
		"coord": {
			"lon": 121.116112,
			"lat": 5.97639
		}
	},
	{
		"country": "IN",
		"name": "Taliparamba",
		"_id": 1255121,
		"coord": {
			"lon": 75.349998,
			"lat": 12.05
		}
	},
	{
		"country": "PH",
		"name": "Talipaw",
		"_id": 1957660,
		"coord": {
			"lon": 121.094437,
			"lat": 5.91
		}
	},
	{
		"country": "PH",
		"name": "Talisay",
		"_id": 1683890,
		"coord": {
			"lon": 121,
			"lat": 14.06667
		}
	},
	{
		"country": "PH",
		"name": "Talisay",
		"_id": 1683860,
		"coord": {
			"lon": 121.021942,
			"lat": 14.0925
		}
	},
	{
		"country": "PH",
		"name": "Talisay",
		"_id": 1683877,
		"coord": {
			"lon": 122.966393,
			"lat": 10.73722
		}
	},
	{
		"country": "PH",
		"name": "Talisay",
		"_id": 1683892,
		"coord": {
			"lon": 123.816673,
			"lat": 10.3
		}
	},
	{
		"country": "PH",
		"name": "Talisay",
		"_id": 1683881,
		"coord": {
			"lon": 123.849442,
			"lat": 10.24472
		}
	},
	{
		"country": "PH",
		"name": "Talisay",
		"_id": 1683859,
		"coord": {
			"lon": 122.9226,
			"lat": 14.1343
		}
	},
	{
		"country": "PH",
		"name": "Talisay",
		"_id": 1683861,
		"coord": {
			"lon": 121.20639,
			"lat": 13.97083
		}
	},
	{
		"country": "PH",
		"name": "Talisay",
		"_id": 1683862,
		"coord": {
			"lon": 120.62326,
			"lat": 13.91484
		}
	},
	{
		"country": "PH",
		"name": "Talisay",
		"_id": 1683865,
		"coord": {
			"lon": 122.623611,
			"lat": 13.18056
		}
	},
	{
		"country": "PH",
		"name": "Talisay",
		"_id": 1683871,
		"coord": {
			"lon": 124.061897,
			"lat": 11.2434
		}
	},
	{
		"country": "PH",
		"name": "Talisay",
		"_id": 1683883,
		"coord": {
			"lon": 125.615562,
			"lat": 9.81889
		}
	},
	{
		"country": "PH",
		"name": "Talisay",
		"_id": 1683886,
		"coord": {
			"lon": 126.099983,
			"lat": 6.71973
		}
	},
	{
		"country": "PH",
		"name": "Talisayan",
		"_id": 1683852,
		"coord": {
			"lon": 124.699997,
			"lat": 10.95
		}
	},
	{
		"country": "PH",
		"name": "Talisayan",
		"_id": 1683855,
		"coord": {
			"lon": 124.880913,
			"lat": 9.0003
		}
	},
	{
		"country": "PH",
		"name": "Talisayan",
		"_id": 1683856,
		"coord": {
			"lon": 121.927223,
			"lat": 6.98722
		}
	},
	{
		"country": "PH",
		"name": "Talitay",
		"_id": 1683818,
		"coord": {
			"lon": 124.699997,
			"lat": 7.03333
		}
	},
	{
		"country": "RU",
		"name": "Talitsa",
		"_id": 1490277,
		"coord": {
			"lon": 60.021301,
			"lat": 56.880402
		}
	},
	{
		"country": "RU",
		"name": "Talitsa",
		"_id": 1490281,
		"coord": {
			"lon": 63.73254,
			"lat": 57.010948
		}
	},
	{
		"country": "RU",
		"name": "Talitsy",
		"_id": 484770,
		"coord": {
			"lon": 42.334438,
			"lat": 56.528889
		}
	},
	{
		"country": "RU",
		"name": "Talitsy",
		"_id": 484771,
		"coord": {
			"lon": 37.966667,
			"lat": 56.116669
		}
	},
	{
		"country": "RU",
		"name": "Talitsy",
		"_id": 484769,
		"coord": {
			"lon": 41,
			"lat": 57.066666
		}
	},
	{
		"country": "ID",
		"name": "Taliwang",
		"_id": 1625420,
		"coord": {
			"lon": 116.853203,
			"lat": -8.7449
		}
	},
	{
		"country": "FR",
		"name": "Talizat",
		"_id": 6427663,
		"coord": {
			"lon": 3.05,
			"lat": 45.116669
		}
	},
	{
		"country": "FR",
		"name": "Talizat",
		"_id": 2973488,
		"coord": {
			"lon": 3.04671,
			"lat": 45.11417
		}
	},
	{
		"country": "DE",
		"name": "Talkau",
		"_id": 6551510,
		"coord": {
			"lon": 10.5667,
			"lat": 53.5667
		}
	},
	{
		"country": "DE",
		"name": "Talkau",
		"_id": 2824303,
		"coord": {
			"lon": 10.56667,
			"lat": 53.566669
		}
	},
	{
		"country": "EG",
		"name": "Talkha",
		"_id": 347591,
		"coord": {
			"lon": 31.377871,
			"lat": 31.0539
		}
	},
	{
		"country": "SY",
		"name": "Tall Abyad",
		"_id": 163750,
		"coord": {
			"lon": 38.97681,
			"lat": 36.681568
		}
	},
	{
		"country": "IQ",
		"name": "Tall Daghsh",
		"_id": 6786700,
		"coord": {
			"lon": 42.240959,
			"lat": 36.138069
		}
	},
	{
		"country": "SY",
		"name": "Tall Daman",
		"_id": 163747,
		"coord": {
			"lon": 37.253502,
			"lat": 35.80761
		}
	},
	{
		"country": "SY",
		"name": "Tall Daww",
		"_id": 163596,
		"coord": {
			"lon": 36.488731,
			"lat": 34.921181
		}
	},
	{
		"country": "SY",
		"name": "Tall Hamis",
		"_id": 163568,
		"coord": {
			"lon": 41.397968,
			"lat": 36.75621
		}
	},
	{
		"country": "SY",
		"name": "Tall Kalakh",
		"_id": 163533,
		"coord": {
			"lon": 36.259949,
			"lat": 34.668419
		}
	},
	{
		"country": "IQ",
		"name": "Tall Raml",
		"_id": 448955,
		"coord": {
			"lon": 44.272221,
			"lat": 33.258331
		}
	},
	{
		"country": "SY",
		"name": "Tall Rifat",
		"_id": 163476,
		"coord": {
			"lon": 37.096722,
			"lat": 36.473621
		}
	},
	{
		"country": "SY",
		"name": "Tall Salhab",
		"_id": 163470,
		"coord": {
			"lon": 36.384609,
			"lat": 35.258839
		}
	},
	{
		"country": "SY",
		"name": "Tall Tamr",
		"_id": 163434,
		"coord": {
			"lon": 40.370789,
			"lat": 36.65556
		}
	},
	{
		"country": "JO",
		"name": "Tall al Khalīfah",
		"_id": 7031355,
		"coord": {
			"lon": 35.001839,
			"lat": 29.557159
		}
	},
	{
		"country": "IQ",
		"name": "Tall ‘Alāwī",
		"_id": 448961,
		"coord": {
			"lon": 44.552891,
			"lat": 31.59358
		}
	},
	{
		"country": "IT",
		"name": "Talla",
		"_id": 3165963,
		"coord": {
			"lon": 11.78714,
			"lat": 43.601849
		}
	},
	{
		"country": "PR",
		"name": "Tallaboa",
		"_id": 4568367,
		"coord": {
			"lon": -66.716293,
			"lat": 17.99497
		}
	},
	{
		"country": "PR",
		"name": "Tallaboa Alta",
		"_id": 4568368,
		"coord": {
			"lon": -66.700172,
			"lat": 18.051069
		}
	},
	{
		"country": "US",
		"name": "Talladega",
		"_id": 4092788,
		"coord": {
			"lon": -86.105797,
			"lat": 33.43594
		}
	},
	{
		"country": "US",
		"name": "Talladega County",
		"_id": 4092795,
		"coord": {
			"lon": -86.183311,
			"lat": 33.366779
		}
	},
	{
		"country": "IE",
		"name": "Tallaght",
		"_id": 2961284,
		"coord": {
			"lon": -6.37344,
			"lat": 53.2859
		}
	},
	{
		"country": "US",
		"name": "Tallahassee",
		"_id": 4174715,
		"coord": {
			"lon": -84.280731,
			"lat": 30.438259
		}
	},
	{
		"country": "AU",
		"name": "Tallandoon",
		"_id": 2147569,
		"coord": {
			"lon": 147.199997,
			"lat": -36.450001
		}
	},
	{
		"country": "AU",
		"name": "Tallangatta",
		"_id": 2147567,
		"coord": {
			"lon": 147.25,
			"lat": -36.200001
		}
	},
	{
		"country": "IE",
		"name": "Tallanstown",
		"_id": 2961283,
		"coord": {
			"lon": -6.54639,
			"lat": 53.922779
		}
	},
	{
		"country": "US",
		"name": "Tallapoosa",
		"_id": 4225658,
		"coord": {
			"lon": -85.28801,
			"lat": 33.744549
		}
	},
	{
		"country": "FR",
		"name": "Tallard",
		"_id": 6425650,
		"coord": {
			"lon": 6.05,
			"lat": 44.466671
		}
	},
	{
		"country": "FR",
		"name": "Tallard",
		"_id": 2973485,
		"coord": {
			"lon": 6.05504,
			"lat": 44.461281
		}
	},
	{
		"country": "AU",
		"name": "Tallarook",
		"_id": 2147564,
		"coord": {
			"lon": 145.100006,
			"lat": -37.099998
		}
	},
	{
		"country": "US",
		"name": "Tallassee",
		"_id": 4092853,
		"coord": {
			"lon": -85.893288,
			"lat": 32.535969
		}
	},
	{
		"country": "AU",
		"name": "Tallawang",
		"_id": 2147562,
		"coord": {
			"lon": 149.449997,
			"lat": -32.200001
		}
	},
	{
		"country": "SY",
		"name": "Tallbisah",
		"_id": 163779,
		"coord": {
			"lon": 36.73093,
			"lat": 34.84063
		}
	},
	{
		"country": "DE",
		"name": "Talle",
		"_id": 2824301,
		"coord": {
			"lon": 8.90845,
			"lat": 52.095539
		}
	},
	{
		"country": "AU",
		"name": "Tallebudgera",
		"_id": 2147558,
		"coord": {
			"lon": 153.433334,
			"lat": -28.15
		}
	},
	{
		"country": "FR",
		"name": "Tallende",
		"_id": 6454495,
		"coord": {
			"lon": 3.13333,
			"lat": 45.666672
		}
	},
	{
		"country": "FR",
		"name": "Tallende",
		"_id": 2973483,
		"coord": {
			"lon": 3.12799,
			"lat": 45.671261
		}
	},
	{
		"country": "AU",
		"name": "Tallimba",
		"_id": 2147554,
		"coord": {
			"lon": 146.883331,
			"lat": -34
		}
	},
	{
		"country": "DE",
		"name": "Talling",
		"_id": 6554376,
		"coord": {
			"lon": 6.95,
			"lat": 49.766701
		}
	},
	{
		"country": "DE",
		"name": "Talling",
		"_id": 2824297,
		"coord": {
			"lon": 6.95,
			"lat": 49.76667
		}
	},
	{
		"country": "EE",
		"name": "Tallinn",
		"_id": 588409,
		"coord": {
			"lon": 24.753531,
			"lat": 59.436958
		}
	},
	{
		"country": "EE",
		"name": "Tallinna linn",
		"_id": 862995,
		"coord": {
			"lon": 24.73823,
			"lat": 59.471691
		}
	},
	{
		"country": "US",
		"name": "Tallmadge",
		"_id": 5173623,
		"coord": {
			"lon": -81.44178,
			"lat": 41.101452
		}
	},
	{
		"country": "FR",
		"name": "Talloires",
		"_id": 6443059,
		"coord": {
			"lon": 6.21667,
			"lat": 45.849998
		}
	},
	{
		"country": "FR",
		"name": "Talloires",
		"_id": 2973480,
		"coord": {
			"lon": 6.21416,
			"lat": 45.840359
		}
	},
	{
		"country": "AU",
		"name": "Tallong",
		"_id": 2147551,
		"coord": {
			"lon": 150.083328,
			"lat": -34.716671
		}
	},
	{
		"country": "IE",
		"name": "Tallow",
		"_id": 2961282,
		"coord": {
			"lon": -8.00806,
			"lat": 52.092781
		}
	},
	{
		"country": "US",
		"name": "Tallulah",
		"_id": 4343103,
		"coord": {
			"lon": -91.186783,
			"lat": 32.408482
		}
	},
	{
		"country": "PS",
		"name": "Talluzah",
		"_id": 281662,
		"coord": {
			"lon": 35.29496,
			"lat": 32.270561
		}
	},
	{
		"country": "HU",
		"name": "Tallya",
		"_id": 715001,
		"coord": {
			"lon": 21.23333,
			"lat": 48.23333
		}
	},
	{
		"country": "AU",
		"name": "Tallygaroopna",
		"_id": 2147545,
		"coord": {
			"lon": 145.433334,
			"lat": -36.25
		}
	},
	{
		"country": "US",
		"name": "Talmage",
		"_id": 5400996,
		"coord": {
			"lon": -123.167778,
			"lat": 39.133228
		}
	},
	{
		"country": "AU",
		"name": "Talmalmo",
		"_id": 2147542,
		"coord": {
			"lon": 147.5,
			"lat": -35.950001
		}
	},
	{
		"country": "FR",
		"name": "Talmas",
		"_id": 6444759,
		"coord": {
			"lon": 2.33333,
			"lat": 50.033329
		}
	},
	{
		"country": "FR",
		"name": "Talmas",
		"_id": 2973476,
		"coord": {
			"lon": 2.32554,
			"lat": 50.030491
		}
	},
	{
		"country": "IT",
		"name": "Talmassons",
		"_id": 3165959,
		"coord": {
			"lon": 13.12028,
			"lat": 45.929722
		}
	},
	{
		"country": "IL",
		"name": "Talme Menashe",
		"_id": 293436,
		"coord": {
			"lon": 34.849998,
			"lat": 31.950001
		}
	},
	{
		"country": "RU",
		"name": "Talmenka",
		"_id": 1490266,
		"coord": {
			"lon": 83.567703,
			"lat": 53.818298
		}
	},
	{
		"country": "MA",
		"name": "Talmest",
		"_id": 2530978,
		"coord": {
			"lon": -9.33,
			"lat": 31.809999
		}
	},
	{
		"country": "IL",
		"name": "Talmon",
		"_id": 8199392,
		"coord": {
			"lon": 35.135391,
			"lat": 31.93927
		}
	},
	{
		"country": "FR",
		"name": "Talmont-Saint-Hilaire",
		"_id": 6617859,
		"coord": {
			"lon": -1.6174,
			"lat": 46.466999
		}
	},