[
	{
		"country": "AZ",
		"name": "Xacmaz",
		"_id": 584717,
		"coord": {
			"lon": 48.806049,
			"lat": 41.46349
		}
	},
	{
		"country": "MT",
		"name": "Xaghra",
		"_id": 2562280,
		"coord": {
			"lon": 14.26444,
			"lat": 36.049999
		}
	},
	{
		"country": "CN",
		"name": "Xahbulak",
		"_id": 1529077,
		"coord": {
			"lon": 83.25,
			"lat": 42.200001
		}
	},
	{
		"country": "MZ",
		"name": "Xai-Xai",
		"_id": 1024552,
		"coord": {
			"lon": 33.644169,
			"lat": -25.051941
		}
	},
	{
		"country": "LA",
		"name": "Xaignabouli",
		"_id": 1655084,
		"coord": {
			"lon": 101.75,
			"lat": 19.25
		}
	},
	{
		"country": "FR",
		"name": "Xaintrailles",
		"_id": 6435120,
		"coord": {
			"lon": 0.25,
			"lat": 44.200001
		}
	},
	{
		"country": "FR",
		"name": "Xaintrailles",
		"_id": 2967278,
		"coord": {
			"lon": 0.25851,
			"lat": 44.205959
		}
	},
	{
		"country": "MX",
		"name": "Xalapa de Enriquez",
		"_id": 3526617,
		"coord": {
			"lon": -96.916672,
			"lat": 19.533331
		}
	},
	{
		"country": "MX",
		"name": "Xalmimilulco",
		"_id": 3514597,
		"coord": {
			"lon": -98.383331,
			"lat": 19.216669
		}
	},
	{
		"country": "MX",
		"name": "Xalostoc",
		"_id": 3517945,
		"coord": {
			"lon": -99.083893,
			"lat": 19.51667
		}
	},
	{
		"country": "MX",
		"name": "Xalpatlahuac",
		"_id": 3514593,
		"coord": {
			"lon": -98.666672,
			"lat": 17.25
		}
	},
	{
		"country": "MX",
		"name": "Xalpatlahuac",
		"_id": 3514592,
		"coord": {
			"lon": -98.616669,
			"lat": 17.466669
		}
	},
	{
		"country": "MX",
		"name": "Xaltepec",
		"_id": 3514589,
		"coord": {
			"lon": -97.599998,
			"lat": 18.866671
		}
	},
	{
		"country": "MX",
		"name": "Xaltianguis",
		"_id": 3514583,
		"coord": {
			"lon": -99.833328,
			"lat": 17.066669
		}
	},
	{
		"country": "LA",
		"name": "Xam Nua",
		"_id": 1652203,
		"coord": {
			"lon": 104.043892,
			"lat": 20.41972
		}
	},
	{
		"country": "CN",
		"name": "Xamba",
		"_id": 2034062,
		"coord": {
			"lon": 107.139999,
			"lat": 40.88472
		}
	},
	{
		"country": "BR",
		"name": "Xambioá",
		"_id": 3384940,
		"coord": {
			"lon": -48.536388,
			"lat": -6.41111
		}
	},
	{
		"country": "BR",
		"name": "Xambrê",
		"_id": 3444851,
		"coord": {
			"lon": -53.490002,
			"lat": -23.736111
		}
	},
	{
		"country": "LA",
		"name": "Xamtay",
		"_id": 7648328,
		"coord": {
			"lon": 104.51722,
			"lat": 19.94515
		}
	},
	{
		"country": "AZ",
		"name": "Xankəndi Şəhəri",
		"_id": 409421,
		"coord": {
			"lon": 46.799999,
			"lat": 39.816669
		}
	},
	{
		"country": "AZ",
		"name": "Xanlar",
		"_id": 584716,
		"coord": {
			"lon": 46.31583,
			"lat": 40.586941
		}
	},
	{
		"country": "DE",
		"name": "Xanten",
		"_id": 2805385,
		"coord": {
			"lon": 6.45,
			"lat": 51.666672
		}
	},
	{
		"country": "GR",
		"name": "Xanthi",
		"_id": 733840,
		"coord": {
			"lon": 24.88361,
			"lat": 41.141392
		}
	},
	{
		"country": "AU",
		"name": "Xantippe",
		"_id": 2057687,
		"coord": {
			"lon": 117.033333,
			"lat": -30.033331
		}
	},
	{
		"country": "BR",
		"name": "Xanxere",
		"_id": 3444848,
		"coord": {
			"lon": -52.404171,
			"lat": -26.87694
		}
	},
	{
		"country": "BR",
		"name": "Xapuri",
		"_id": 3924674,
		"coord": {
			"lon": -68.50444,
			"lat": -10.65167
		}
	},
	{
		"country": "SO",
		"name": "Xarardheere",
		"_id": 50064,
		"coord": {
			"lon": 47.857498,
			"lat": 4.6544
		}
	},
	{
		"country": "CN",
		"name": "Xarlung",
		"_id": 8059137,
		"coord": {
			"lon": 93.300003,
			"lat": 29.9
		}
	},
	{
		"country": "BR",
		"name": "Xarqueada",
		"_id": 3384937,
		"coord": {
			"lon": -48.362499,
			"lat": -9.48917
		}
	},
	{
		"country": "CN",
		"name": "Xarsingma",
		"_id": 1279754,
		"coord": {
			"lon": 88.952957,
			"lat": 27.49402
		}
	},
	{
		"country": "ES",
		"name": "Xativa",
		"_id": 2516345,
		"coord": {
			"lon": -0.51667,
			"lat": 38.98333
		}
	},
	{
		"country": "CZ",
		"name": "Xaverov",
		"_id": 3062159,
		"coord": {
			"lon": 14.62315,
			"lat": 50.098839
		}
	},
	{
		"country": "BR",
		"name": "Xaxim",
		"_id": 3444830,
		"coord": {
			"lon": -52.534721,
			"lat": -26.96167
		}
	},
	{
		"country": "MX",
		"name": "Xceus",
		"_id": 3514549,
		"coord": {
			"lon": -89.366669,
			"lat": 20.83333
		}
	},
	{
		"country": "CN",
		"name": "Xegar",
		"_id": 1279749,
		"coord": {
			"lon": 87.083328,
			"lat": 28.633329
		}
	},
	{
		"country": "US",
		"name": "Xenia",
		"_id": 4528810,
		"coord": {
			"lon": -83.929649,
			"lat": 39.68478
		}
	},
	{
		"country": "ES",
		"name": "Xeraco,Jaraco",
		"_id": 2516372,
		"coord": {
			"lon": -0.21667,
			"lat": 39.033329
		}
	},
	{
		"country": "ES",
		"name": "Xeresa",
		"_id": 6362011,
		"coord": {
			"lon": -0.23503,
			"lat": 39.012959
		}
	},
	{
		"country": "ES",
		"name": "Xeresa",
		"_id": 2516330,
		"coord": {
			"lon": -0.21667,
			"lat": 39.01667
		}
	},
	{
		"country": "CY",
		"name": "Xeri",
		"_id": 145981,
		"coord": {
			"lon": 33.320831,
			"lat": 35.075001
		}
	},
	{
		"country": "ES",
		"name": "Xermade",
		"_id": 6359182,
		"coord": {
			"lon": -7.79688,
			"lat": 43.376991
		}
	},
	{
		"country": "FR",
		"name": "Xertigny",
		"_id": 6445810,
		"coord": {
			"lon": 6.4,
			"lat": 48.049999
		}
	},
	{
		"country": "FR",
		"name": "Xertigny",
		"_id": 2967269,
		"coord": {
			"lon": 6.40836,
			"lat": 48.043941
		}
	},
	{
		"country": "MX",
		"name": "Xetna",
		"_id": 3514531,
		"coord": {
			"lon": -87.300003,
			"lat": 20.450001
		}
	},
	{
		"country": "MT",
		"name": "Xewkija",
		"_id": 2562274,
		"coord": {
			"lon": 14.25806,
			"lat": 36.03278
		}
	},
	{
		"country": "BR",
		"name": "Xexéu",
		"_id": 3384930,
		"coord": {
			"lon": -35.626942,
			"lat": -8.80222
		}
	},
	{
		"country": "CN",
		"name": "Xiaba",
		"_id": 1817811,
		"coord": {
			"lon": 100.397652,
			"lat": 35.2733
		}
	},
	{
		"country": "CN",
		"name": "Xiabaishi",
		"_id": 1790807,
		"coord": {
			"lon": 119.679169,
			"lat": 26.815281
		}
	},
	{
		"country": "CN",
		"name": "Xiabancheng",
		"_id": 2034048,
		"coord": {
			"lon": 118.169724,
			"lat": 40.770279
		}
	},
	{
		"country": "CN",
		"name": "Xiabeisi",
		"_id": 1910047,
		"coord": {
			"lon": 113.566689,
			"lat": 33.02763
		}
	},
	{
		"country": "CN",
		"name": "Xiabuji",
		"_id": 1790796,
		"coord": {
			"lon": 116.38205,
			"lat": 28.30858
		}
	},
	{
		"country": "CN",
		"name": "Xiacang",
		"_id": 1790795,
		"coord": {
			"lon": 117.416672,
			"lat": 39.786388
		}
	},
	{
		"country": "CN",
		"name": "Xiacaoqiao",
		"_id": 1916698,
		"coord": {
			"lon": 118.838791,
			"lat": 29.18392
		}
	},
	{
		"country": "CN",
		"name": "Xiacengpu",
		"_id": 6422903,
		"coord": {
			"lon": 111.18,
			"lat": 25.189171
		}
	},
	{
		"country": "CN",
		"name": "Xiache",
		"_id": 1790787,
		"coord": {
			"lon": 119.316673,
			"lat": 34.349998
		}
	},
	{
		"country": "CN",
		"name": "Xiache",
		"_id": 1919304,
		"coord": {
			"lon": 115.11245,
			"lat": 24.661921
		}
	},
	{
		"country": "CN",
		"name": "Xiacheng",
		"_id": 1790785,
		"coord": {
			"lon": 103.802673,
			"lat": 34.99604
		}
	},
	{
		"country": "CN",
		"name": "Xiachengli",
		"_id": 1918807,
		"coord": {
			"lon": 120.45356,
			"lat": 29.37282
		}
	},
	{
		"country": "CN",
		"name": "Xiachuan",
		"_id": 1913339,
		"coord": {
			"lon": 112.581291,
			"lat": 21.65086
		}
	},
	{
		"country": "CN",
		"name": "Xiacun",
		"_id": 1790778,
		"coord": {
			"lon": 114.949142,
			"lat": 27.92346
		}
	},
	{
		"country": "CN",
		"name": "Xiadao",
		"_id": 1790774,
		"coord": {
			"lon": 118.269432,
			"lat": 26.575081
		}
	},
	{
		"country": "CN",
		"name": "Xiadong",
		"_id": 8201775,
		"coord": {
			"lon": 113.531219,
			"lat": 26.774191
		}
	},
	{
		"country": "CN",
		"name": "Xiadu",
		"_id": 1552269,
		"coord": {
			"lon": 118.777588,
			"lat": 30.923639
		}
	},
	{
		"country": "CN",
		"name": "Xiaertai",
		"_id": 7005638,
		"coord": {
			"lon": 124.291527,
			"lat": 42.949501
		}
	},
	{
		"country": "CN",
		"name": "Xiafan",
		"_id": 7643652,
		"coord": {
			"lon": 115.54216,
			"lat": 29.767469
		}
	},
	{
		"country": "CN",
		"name": "Xiafang",
		"_id": 1922425,
		"coord": {
			"lon": 116.934052,
			"lat": 26.57247
		}
	},
	{
		"country": "CN",
		"name": "Xiagang",
		"_id": 1790751,
		"coord": {
			"lon": 120.209999,
			"lat": 31.896669
		}
	},
	{
		"country": "CN",
		"name": "Xiage",
		"_id": 1917891,
		"coord": {
			"lon": 117.011337,
			"lat": 23.993549
		}
	},
	{
		"country": "CN",
		"name": "Xiaguan",
		"_id": 1790734,
		"coord": {
			"lon": 121.030586,
			"lat": 29.843929
		}
	},
	{
		"country": "CN",
		"name": "Xiagulei",
		"_id": 1809239,
		"coord": {
			"lon": 102.645828,
			"lat": 35.653179
		}
	},
	{
		"country": "CN",
		"name": "Xiahan",
		"_id": 1790719,
		"coord": {
			"lon": 113.614326,
			"lat": 39.724651
		}
	},
	{
		"country": "CN",
		"name": "Xiahu",
		"_id": 1790707,
		"coord": {
			"lon": 119.948334,
			"lat": 26.610559
		}
	},
	{
		"country": "CN",
		"name": "Xiaji",
		"_id": 1790723,
		"coord": {
			"lon": 109.50724,
			"lat": 34.725868
		}
	},
	{
		"country": "CN",
		"name": "Xiajiang",
		"_id": 1790696,
		"coord": {
			"lon": 108.69194,
			"lat": 25.75556
		}
	},
	{
		"country": "CN",
		"name": "Xiakeng",
		"_id": 1790683,
		"coord": {
			"lon": 118.660828,
			"lat": 29.959999
		}
	},
	{
		"country": "CN",
		"name": "Xiakou",
		"_id": 1790681,
		"coord": {
			"lon": 118.987228,
			"lat": 29.14432
		}
	},
	{
		"country": "CN",
		"name": "Xiakouyi",
		"_id": 1790673,
		"coord": {
			"lon": 106.407509,
			"lat": 33.21117
		}
	},
	{
		"country": "CN",
		"name": "Xialaba",
		"_id": 1790672,
		"coord": {
			"lon": 112.657501,
			"lat": 39.59222
		}
	},
	{
		"country": "CN",
		"name": "Xiali",
		"_id": 1790665,
		"coord": {
			"lon": 113.212463,
			"lat": 33.53088
		}
	},
	{
		"country": "CN",
		"name": "Xialiang",
		"_id": 1790664,
		"coord": {
			"lon": 106.771523,
			"lat": 32.076721
		}
	},
	{
		"country": "CN",
		"name": "Xialu",
		"_id": 7735145,
		"coord": {
			"lon": 120.355789,
			"lat": 30.065901
		}
	},
	{
		"country": "CN",
		"name": "Xiamao",
		"_id": 1790652,
		"coord": {
			"lon": 117.66581,
			"lat": 26.57649
		}
	},
	{
		"country": "CN",
		"name": "Xiamayu",
		"_id": 1790647,
		"coord": {
			"lon": 113.108414,
			"lat": 39.396061
		}
	},
	{
		"country": "CN",
		"name": "Xiamazhuang",
		"_id": 7318938,
		"coord": {
			"lon": 120.947929,
			"lat": 32.531639
		}
	},
	{
		"country": "CN",
		"name": "Xiamei",
		"_id": 1790646,
		"coord": {
			"lon": 117.682243,
			"lat": 23.9974
		}
	},
	{
		"country": "CN",
		"name": "Xiamen",
		"_id": 1790645,
		"coord": {
			"lon": 118.081871,
			"lat": 24.47979
		}
	},
	{
		"country": "CN",
		"name": "Xiamiangao",
		"_id": 1790637,
		"coord": {
			"lon": 112.51239,
			"lat": 39.497532
		}
	},
	{
		"country": "CN",
		"name": "Xiamiao",
		"_id": 1790636,
		"coord": {
			"lon": 109.770569,
			"lat": 34.576488
		}
	},
	{
		"country": "CN",
		"name": "Xiamujiao",
		"_id": 1790635,
		"coord": {
			"lon": 112.080437,
			"lat": 39.464191
		}
	},
	{
		"country": "CN",
		"name": "Xian",
		"_id": 1790630,
		"coord": {
			"lon": 108.928612,
			"lat": 34.258331
		}
	},
	{
		"country": "CN",
		"name": "Xian",
		"_id": 1790633,
		"coord": {
			"lon": 112.286949,
			"lat": 24.920561
		}
	},
	{
		"country": "CN",
		"name": "Xian",
		"_id": 2053185,
		"coord": {
			"lon": 122.23481,
			"lat": 40.922661
		}
	},
	{
		"country": "CN",
		"name": "Xianan",
		"_id": 1812500,
		"coord": {
			"lon": 116.504692,
			"lat": 23.07859
		}
	},
	{
		"country": "CN",
		"name": "Xianan",
		"_id": 7446847,
		"coord": {
			"lon": 116.658974,
			"lat": 26.26663
		}
	},
	{
		"country": "CN",
		"name": "Xiancheng",
		"_id": 1919795,
		"coord": {
			"lon": 116.314621,
			"lat": 23.237209
		}
	},
	{
		"country": "CN",
		"name": "Xianchiyu",
		"_id": 1928000,
		"coord": {
			"lon": 110.471397,
			"lat": 29.463921
		}
	},
	{
		"country": "CN",
		"name": "Xiancun",
		"_id": 1790620,
		"coord": {
			"lon": 119.360283,
			"lat": 26.93861
		}
	},
	{
		"country": "CN",
		"name": "Xiancun",
		"_id": 7637609,
		"coord": {
			"lon": 118.01458,
			"lat": 30.13665
		}
	},
	{
		"country": "TW",
		"name": "Xianeibu",
		"_id": 1675720,
		"coord": {
			"lon": 121.542473,
			"lat": 25.017719
		}
	},
	{
		"country": "CN",
		"name": "Xianfeng",
		"_id": 1886026,
		"coord": {
			"lon": 120.975166,
			"lat": 32.008999
		}
	},
	{
		"country": "CN",
		"name": "Xiangcheng",
		"_id": 1790601,
		"coord": {
			"lon": 113.477798,
			"lat": 33.847031
		}
	},
	{
		"country": "CN",
		"name": "Xiangcheng",
		"_id": 1790442,
		"coord": {
			"lon": 100.562477,
			"lat": 25.466869
		}
	},
	{
		"country": "CN",
		"name": "Xiangcheng",
		"_id": 1790602,
		"coord": {
			"lon": 115.161522,
			"lat": 28.199039
		}
	},
	{
		"country": "CN",
		"name": "Xiangcunxiang",
		"_id": 7405635,
		"coord": {
			"lon": 109.586113,
			"lat": 35.006989
		}
	},
	{
		"country": "CN",
		"name": "Xiangdian",
		"_id": 1921665,
		"coord": {
			"lon": 116.209846,
			"lat": 25.443621
		}
	},
	{
		"country": "CN",
		"name": "Xiangfeng",
		"_id": 1804602,
		"coord": {
			"lon": 109.402657,
			"lat": 29.50761
		}
	},
	{
		"country": "CN",
		"name": "Xiangfu",
		"_id": 1790583,
		"coord": {
			"lon": 115.430367,
			"lat": 28.474701
		}
	},
	{
		"country": "CN",
		"name": "Xiangfu",
		"_id": 7735198,
		"coord": {
			"lon": 120.09922,
			"lat": 30.32976
		}
	},
	{
		"country": "CN",
		"name": "Xianggan",
		"_id": 7413219,
		"coord": {
			"lon": 102.02961,
			"lat": 35.84708
		}
	},
	{
		"country": "CN",
		"name": "Xianggang",
		"_id": 1914540,
		"coord": {
			"lon": 112.821114,
			"lat": 23.388611
		}
	},
	{
		"country": "CN",
		"name": "Xianggui",
		"_id": 7644170,
		"coord": {
			"lon": 113.760834,
			"lat": 24.07889
		}
	},
	{
		"country": "CN",
		"name": "Xianghe",
		"_id": 1790573,
		"coord": {
			"lon": 113.424919,
			"lat": 33.10891
		}
	},
	{
		"country": "CN",
		"name": "Xianghe",
		"_id": 1790578,
		"coord": {
			"lon": 118.250008,
			"lat": 32.090881
		}
	},
	{
		"country": "CN",
		"name": "Xianghu",
		"_id": 1790568,
		"coord": {
			"lon": 116,
			"lat": 25.799999
		}
	},
	{
		"country": "CN",
		"name": "Xianghu",
		"_id": 1790567,
		"coord": {
			"lon": 117.31588,
			"lat": 29.325371
		}
	},
	{
		"country": "CN",
		"name": "Xianghuangnanying",
		"_id": 1912044,
		"coord": {
			"lon": 116.20639,
			"lat": 39.966942
		}
	},
	{
		"country": "CN",
		"name": "Xianghuaqiao",
		"_id": 1790560,
		"coord": {
			"lon": 121.11692,
			"lat": 31.174509
		}
	},
	{
		"country": "CN",
		"name": "Xiangjiaba",
		"_id": 6648023,
		"coord": {
			"lon": 104.299271,
			"lat": 28.62084
		}
	},
	{
		"country": "CN",
		"name": "Xiangjiang",
		"_id": 1790557,
		"coord": {
			"lon": 115.75,
			"lat": 25.533331
		}
	},
	{
		"country": "CN",
		"name": "Xiangjiang",
		"_id": 6423050,
		"coord": {
			"lon": 111.819168,
			"lat": 25.06917
		}
	},
	{
		"country": "CN",
		"name": "Xiangjiazhai",
		"_id": 7059590,
		"coord": {
			"lon": 110.005081,
			"lat": 29.20685
		}
	},
	{
		"country": "CN",
		"name": "Xiangling",
		"_id": 1790541,
		"coord": {
			"lon": 111.400002,
			"lat": 36.027222
		}
	},
	{
		"country": "CN",
		"name": "Xianglinpu",
		"_id": 6422502,
		"coord": {
			"lon": 111.537216,
			"lat": 25.361389
		}
	},
	{
		"country": "CN",
		"name": "Xiangmiao",
		"_id": 1790536,
		"coord": {
			"lon": 108.225998,
			"lat": 34.992519
		}
	},
	{
		"country": "CN",
		"name": "Xiangong",
		"_id": 1790532,
		"coord": {
			"lon": 107.068062,
			"lat": 34.526829
		}
	},
	{
		"country": "CN",
		"name": "Xiangping",
		"_id": 1920461,
		"coord": {
			"lon": 112.114807,
			"lat": 24.58943
		}
	},
	{
		"country": "CN",
		"name": "Xiangqiao",
		"_id": 1790527,
		"coord": {
			"lon": 109.366173,
			"lat": 34.615139
		}
	},
	{
		"country": "CN",
		"name": "Xiangquan",
		"_id": 1790526,
		"coord": {
			"lon": 118.316353,
			"lat": 31.87038
		}
	},
	{
		"country": "CN",
		"name": "Xiangrong",
		"_id": 2051187,
		"coord": {
			"lon": 123.116943,
			"lat": 40.14056
		}
	},
	{
		"country": "CN",
		"name": "Xiangshan",
		"_id": 1790516,
		"coord": {
			"lon": 118.593552,
			"lat": 31.66222
		}
	},
	{
		"country": "CN",
		"name": "Xiangshan",
		"_id": 1925311,
		"coord": {
			"lon": 115.980972,
			"lat": 28.95348
		}
	},
	{
		"country": "CN",
		"name": "Xiangshan",
		"_id": 1925312,
		"coord": {
			"lon": 116.030113,
			"lat": 27.557079
		}
	},
	{
		"country": "CN",
		"name": "Xiangshi",
		"_id": 1790510,
		"coord": {
			"lon": 110.837463,
			"lat": 29.5172
		}
	},
	{
		"country": "CN",
		"name": "Xiangshui",
		"_id": 1790498,
		"coord": {
			"lon": 107.07972,
			"lat": 32.942219
		}
	},
	{
		"country": "CN",
		"name": "Xiangshui",
		"_id": 1790506,
		"coord": {
			"lon": 114.218712,
			"lat": 23.268709
		}
	},
	{
		"country": "CN",
		"name": "Xiangshui",
		"_id": 1790508,
		"coord": {
			"lon": 109.612061,
			"lat": 18.593189
		}
	},
	{
		"country": "CN",
		"name": "Xiangshuitang",
		"_id": 1790496,
		"coord": {
			"lon": 116.550102,
			"lat": 29.474791
		}
	},
	{
		"country": "CN",
		"name": "Xiangtan",
		"_id": 1790492,
		"coord": {
			"lon": 112.900002,
			"lat": 27.85
		}
	},
	{
		"country": "CN",
		"name": "Xiangtang",
		"_id": 1790488,
		"coord": {
			"lon": 115.963226,
			"lat": 28.426439
		}
	},
	{
		"country": "CN",
		"name": "Xiangtang",
		"_id": 2053253,
		"coord": {
			"lon": 122.768509,
			"lat": 40.83271
		}
	},
	{
		"country": "CN",
		"name": "Xiangtun",
		"_id": 1909610,
		"coord": {
			"lon": 117.540283,
			"lat": 29.00806
		}
	},
	{
		"country": "CN",
		"name": "Xiangxi",
		"_id": 7636855,
		"coord": {
			"lon": 116.548241,
			"lat": 29.24073
		}
	},
	{
		"country": "CN",
		"name": "Xiangxiang",
		"_id": 1790471,
		"coord": {
			"lon": 112.533333,
			"lat": 27.73333
		}
	},
	{
		"country": "CN",
		"name": "Xiangxing",
		"_id": 7658327,
		"coord": {
			"lon": 114.225868,
			"lat": 27.12994
		}
	},
	{
		"country": "CN",
		"name": "Xiangyang",
		"_id": 1790587,
		"coord": {
			"lon": 112.144791,
			"lat": 32.042198
		}
	},
	{
		"country": "CN",
		"name": "Xiangyang",
		"_id": 1552266,
		"coord": {
			"lon": 118.866783,
			"lat": 30.895639
		}
	},
	{
		"country": "CN",
		"name": "Xiangyang",
		"_id": 1790460,
		"coord": {
			"lon": 121.787781,
			"lat": 31.872219
		}
	},
	{
		"country": "CN",
		"name": "Xiangyang",
		"_id": 7630148,
		"coord": {
			"lon": 126.923042,
			"lat": 45.752972
		}
	},
	{
		"country": "CN",
		"name": "Xiangyanghu",
		"_id": 7741550,
		"coord": {
			"lon": 114.16391,
			"lat": 29.90554
		}
	},
	{
		"country": "CN",
		"name": "Xiangyangpu",
		"_id": 1790461,
		"coord": {
			"lon": 112.351341,
			"lat": 39.60725
		}
	},
	{
		"country": "CN",
		"name": "Xiangyun",
		"_id": 1921288,
		"coord": {
			"lon": 118.160278,
			"lat": 24.971109
		}
	},
	{
		"country": "CN",
		"name": "Xiangzhou",
		"_id": 1790435,
		"coord": {
			"lon": 109.666779,
			"lat": 23.97282
		}
	},
	{
		"country": "CN",
		"name": "Xianjie",
		"_id": 6824445,
		"coord": {
			"lon": 102.422096,
			"lat": 24.85775
		}
	},
	{
		"country": "CN",
		"name": "Xianju",
		"_id": 1790413,
		"coord": {
			"lon": 120.73333,
			"lat": 28.85
		}
	},
	{
		"country": "CN",
		"name": "Xianju",
		"_id": 1790412,
		"coord": {
			"lon": 112.033791,
			"lat": 31.40015
		}
	},
	{
		"country": "CN",
		"name": "Xianlin",
		"_id": 1790402,
		"coord": {
			"lon": 119.981392,
			"lat": 30.22583
		}
	},
	{
		"country": "CN",
		"name": "Xianlong",
		"_id": 7407766,
		"coord": {
			"lon": 106.244759,
			"lat": 33.814201
		}
	},
	{
		"country": "CN",
		"name": "Xianning",
		"_id": 1790396,
		"coord": {
			"lon": 114.216667,
			"lat": 29.883329
		}
	},
	{
		"country": "CN",
		"name": "Xiannu",
		"_id": 1790392,
		"coord": {
			"lon": 119.550827,
			"lat": 32.436668
		}
	},
	{
		"country": "CN",
		"name": "Xiannu",
		"_id": 7696233,
		"coord": {
			"lon": 111.739922,
			"lat": 30.52693
		}
	},
	{
		"country": "CN",
		"name": "Xianpudong",
		"_id": 7544732,
		"coord": {
			"lon": 129.402863,
			"lat": 42.45034
		}
	},
	{
		"country": "CN",
		"name": "Xianrenqiao",
		"_id": 2033998,
		"coord": {
			"lon": 127.231598,
			"lat": 42.172001
		}
	},
	{
		"country": "CN",
		"name": "Xianrenwan",
		"_id": 1790387,
		"coord": {
			"lon": 110.32972,
			"lat": 27.75444
		}
	},
	{
		"country": "CN",
		"name": "Xianshui",
		"_id": 1783556,
		"coord": {
			"lon": 101.127007,
			"lat": 30.991449
		}
	},
	{
		"country": "CN",
		"name": "Xianshuigu",
		"_id": 1790379,
		"coord": {
			"lon": 117.382782,
			"lat": 38.985001
		}
	},
	{
		"country": "CN",
		"name": "Xiantai",
		"_id": 1811123,
		"coord": {
			"lon": 113.450943,
			"lat": 33.530102
		}
	},
	{
		"country": "CN",
		"name": "Xiantaiba",
		"_id": 1790377,
		"coord": {
			"lon": 106.3685,
			"lat": 33.393398
		}
	},
	{
		"country": "CN",
		"name": "Xiantan",
		"_id": 1790376,
		"coord": {
			"lon": 106.192703,
			"lat": 28.81859
		}
	},
	{
		"country": "CN",
		"name": "Xiantang",
		"_id": 1790374,
		"coord": {
			"lon": 114.785088,
			"lat": 23.808941
		}
	},
	{
		"country": "CN",
		"name": "Xiantao",
		"_id": 1790371,
		"coord": {
			"lon": 113.400002,
			"lat": 30.383329
		}
	},
	{
		"country": "CN",
		"name": "Xianxi",
		"_id": 1790357,
		"coord": {
			"lon": 109.643059,
			"lat": 26.334721
		}
	},
	{
		"country": "CN",
		"name": "Xianxia",
		"_id": 1790364,
		"coord": {
			"lon": 115.563133,
			"lat": 26.113119
		}
	},
	{
		"country": "CN",
		"name": "Xianxiang",
		"_id": 1790358,
		"coord": {
			"lon": 121.778839,
			"lat": 29.69034
		}
	},
	{
		"country": "CN",
		"name": "Xianxiang",
		"_id": 1887722,
		"coord": {
			"lon": 121.842781,
			"lat": 29.58778
		}
	},
	{
		"country": "CN",
		"name": "Xianyan",
		"_id": 1790356,
		"coord": {
			"lon": 120.81321,
			"lat": 29.67543
		}
	},
	{
		"country": "CN",
		"name": "Xianyan",
		"_id": 1924314,
		"coord": {
			"lon": 118.394173,
			"lat": 28.57333
		}
	},
	{
		"country": "CN",
		"name": "Xianyang",
		"_id": 1790353,
		"coord": {
			"lon": 108.702606,
			"lat": 34.33778
		}
	},
	{
		"country": "CN",
		"name": "Xianyang",
		"_id": 1790354,
		"coord": {
			"lon": 118.518333,
			"lat": 28.04558
		}
	},
	{
		"country": "CN",
		"name": "Xianyuan",
		"_id": 1790345,
		"coord": {
			"lon": 118.200203,
			"lat": 30.30542
		}
	},
	{
		"country": "CN",
		"name": "Xianyuan",
		"_id": 1790347,
		"coord": {
			"lon": 114.258331,
			"lat": 28.2987
		}
	},
	{
		"country": "CN",
		"name": "Xianzijiao",
		"_id": 6422332,
		"coord": {
			"lon": 111.364166,
			"lat": 25.635559
		}
	},
	{
		"country": "CN",
		"name": "Xianzong",
		"_id": 1790339,
		"coord": {
			"lon": 118.007797,
			"lat": 31.8013
		}
	},
	{
		"country": "CN",
		"name": "Xiao",
		"_id": 1790338,
		"coord": {
			"lon": 115.257156,
			"lat": 24.691351
		}
	},
	{
		"country": "CN",
		"name": "Xiaobanqiao",
		"_id": 6824982,
		"coord": {
			"lon": 102.773804,
			"lat": 24.979441
		}
	},
	{
		"country": "CN",
		"name": "Xiaobianhe",
		"_id": 7408492,
		"coord": {
			"lon": 106.489868,
			"lat": 33.232552
		}
	},
	{
		"country": "CN",
		"name": "Xiaobu",
		"_id": 1790315,
		"coord": {
			"lon": 115.831207,
			"lat": 26.78632
		}
	},
	{
		"country": "CN",
		"name": "Xiaobutou",
		"_id": 7059421,
		"coord": {
			"lon": 110.097511,
			"lat": 29.46072
		}
	},
	{
		"country": "CN",
		"name": "Xiaocha",
		"_id": 1790311,
		"coord": {
			"lon": 106.759712,
			"lat": 36.151821
		}
	},
	{
		"country": "CN",
		"name": "Xiaochengzi",
		"_id": 2033988,
		"coord": {
			"lon": 123.204521,
			"lat": 42.889992
		}
	},
	{
		"country": "CN",
		"name": "Xiaochi",
		"_id": 1790300,
		"coord": {
			"lon": 115.98951,
			"lat": 29.75359
		}
	},
	{
		"country": "CN",
		"name": "Xiaochi",
		"_id": 1790302,
		"coord": {
			"lon": 116.885437,
			"lat": 25.144341
		}
	},
	{
		"country": "CN",
		"name": "Xiaochi",
		"_id": 1922337,
		"coord": {
			"lon": 117.018082,
			"lat": 26.233709
		}
	},
	{
		"country": "CN",
		"name": "Xiaochuan",
		"_id": 1790296,
		"coord": {
			"lon": 105.561562,
			"lat": 33.680599
		}
	},
	{
		"country": "CN",
		"name": "Xiaocun",
		"_id": 1790289,
		"coord": {
			"lon": 108.261436,
			"lat": 34.263882
		}
	},
	{
		"country": "CN",
		"name": "Xiaodian",
		"_id": 1790272,
		"coord": {
			"lon": 117.217781,
			"lat": 39.251942
		}
	},
	{
		"country": "CN",
		"name": "Xiaodian",
		"_id": 1790274,
		"coord": {
			"lon": 112.556389,
			"lat": 37.736389
		}
	},
	{
		"country": "CN",
		"name": "Xiaodong",
		"_id": 1790263,
		"coord": {
			"lon": 121.099998,
			"lat": 30.033331
		}
	},
	{
		"country": "CN",
		"name": "Xiaodongzhuang",
		"_id": 1790260,
		"coord": {
			"lon": 117.398888,
			"lat": 39.061939
		}
	},
	{
		"country": "CN",
		"name": "Xiaodukou",
		"_id": 1928110,
		"coord": {
			"lon": 111.912216,
			"lat": 29.62833
		}
	},
	{
		"country": "CN",
		"name": "Xiaofayi",
		"_id": 1909627,
		"coord": {
			"lon": 107.821182,
			"lat": 34.169842
		}
	},
	{
		"country": "CN",
		"name": "Xiaogan",
		"_id": 1790254,
		"coord": {
			"lon": 113.900002,
			"lat": 30.91667
		}
	},
	{
		"country": "CN",
		"name": "Xiaogang",
		"_id": 1790163,
		"coord": {
			"lon": 113.933632,
			"lat": 31.077419
		}
	},
	{
		"country": "CN",
		"name": "Xiaogang",
		"_id": 1790248,
		"coord": {
			"lon": 115.86277,
			"lat": 28.246759
		}
	},
	{
		"country": "CN",
		"name": "Xiaogang",
		"_id": 1790250,
		"coord": {
			"lon": 121.742928,
			"lat": 29.950331
		}
	},
	{
		"country": "CN",
		"name": "Xiaoguan",
		"_id": 1790236,
		"coord": {
			"lon": 109.319313,
			"lat": 29.875879
		}
	},
	{
		"country": "CN",
		"name": "Xiaoguan",
		"_id": 7413777,
		"coord": {
			"lon": 102.891708,
			"lat": 35.584389
		}
	},
	{
		"country": "CN",
		"name": "Xiaohai",
		"_id": 1547557,
		"coord": {
			"lon": 120.47596,
			"lat": 33.02956
		}
	},
	{
		"country": "CN",
		"name": "Xiaohai",
		"_id": 1790220,
		"coord": {
			"lon": 120.96434,
			"lat": 31.955179
		}
	},
	{
		"country": "CN",
		"name": "Xiaohe",
		"_id": 1790210,
		"coord": {
			"lon": 112.152222,
			"lat": 31.80389
		}
	},
	{
		"country": "CN",
		"name": "Xiaohe",
		"_id": 7735175,
		"coord": {
			"lon": 120.135048,
			"lat": 30.309971
		}
	},
	{
		"country": "CN",
		"name": "Xiaohemiao",
		"_id": 1790196,
		"coord": {
			"lon": 106.66539,
			"lat": 32.958969
		}
	},
	{
		"country": "CN",
		"name": "Xiaohenglong",
		"_id": 1790194,
		"coord": {
			"lon": 110.516937,
			"lat": 27.605
		}
	},
	{
		"country": "CN",
		"name": "Xiaoheyan",
		"_id": 2033968,
		"coord": {
			"lon": 119.571114,
			"lat": 42.4375
		}
	},
	{
		"country": "CN",
		"name": "Xiaohu",
		"_id": 1790184,
		"coord": {
			"lon": 118.26667,
			"lat": 27.33333
		}
	},
	{
		"country": "CN",
		"name": "Xiaohuang",
		"_id": 1925320,
		"coord": {
			"lon": 116.709717,
			"lat": 28.31222
		}
	},
	{
		"country": "CN",
		"name": "Xiaohui",
		"_id": 2000872,
		"coord": {
			"lon": 109.270638,
			"lat": 34.90926
		}
	},
	{
		"country": "CN",
		"name": "Xiaojian",
		"_id": 1790148,
		"coord": {
			"lon": 119.650002,
			"lat": 34.133331
		}
	},
	{
		"country": "CN",
		"name": "Xiaojiang",
		"_id": 1790157,
		"coord": {
			"lon": 121.115433,
			"lat": 29.383261
		}
	},
	{
		"country": "CN",
		"name": "Xiaojiang",
		"_id": 1790160,
		"coord": {
			"lon": 109.529343,
			"lat": 22.28146
		}
	},
	{
		"country": "CN",
		"name": "Xiaojiang",
		"_id": 1920464,
		"coord": {
			"lon": 112.592667,
			"lat": 24.616131
		}
	},
	{
		"country": "CN",
		"name": "Xiaojiangba",
		"_id": 1552729,
		"coord": {
			"lon": 118.062134,
			"lat": 31.28495
		}
	},
	{
		"country": "CN",
		"name": "Xiaojie",
		"_id": 6823779,
		"coord": {
			"lon": 102.135048,
			"lat": 24.864559
		}
	},
	{
		"country": "CN",
		"name": "Xiaojie",
		"_id": 6824063,
		"coord": {
			"lon": 102.461197,
			"lat": 24.1581
		}
	},
	{
		"country": "CN",
		"name": "Xiaojie",
		"_id": 6824635,
		"coord": {
			"lon": 102.931427,
			"lat": 24.64393
		}
	},
	{
		"country": "CN",
		"name": "Xiaojiezi",
		"_id": 1901903,
		"coord": {
			"lon": 102.8638,
			"lat": 24.344761
		}
	},
	{
		"country": "CN",
		"name": "Xiaojin",
		"_id": 1998308,
		"coord": {
			"lon": 109.41349,
			"lat": 34.339512
		}
	},
	{
		"country": "CN",
		"name": "Xiaojingzhuang",
		"_id": 1790124,
		"coord": {
			"lon": 112.651649,
			"lat": 39.886398
		}
	},
	{
		"country": "CN",
		"name": "Xiaojinkou",
		"_id": 1916883,
		"coord": {
			"lon": 114.404221,
			"lat": 23.18894
		}
	},
	{
		"country": "CN",
		"name": "Xiaokeng",
		"_id": 1790116,
		"coord": {
			"lon": 113.800003,
			"lat": 24.66667
		}
	},
	{
		"country": "CN",
		"name": "Xiaolin",
		"_id": 1790104,
		"coord": {
			"lon": 121.305878,
			"lat": 30.172741
		}
	},
	{
		"country": "CN",
		"name": "Xiaoling",
		"_id": 2033952,
		"coord": {
			"lon": 127.305389,
			"lat": 45.336369
		}
	},
	{
		"country": "CN",
		"name": "Xiaoling",
		"_id": 7413861,
		"coord": {
			"lon": 102.995621,
			"lat": 35.89484
		}
	},
	{
		"country": "CN",
		"name": "Xiaolingwei",
		"_id": 1790100,
		"coord": {
			"lon": 118.849998,
			"lat": 32.033329
		}
	},
	{
		"country": "CN",
		"name": "Xiaolipu",
		"_id": 1790098,
		"coord": {
			"lon": 116.584717,
			"lat": 36.400829
		}
	},
	{
		"country": "CN",
		"name": "Xiaolong",
		"_id": 1790090,
		"coord": {
			"lon": 115.254753,
			"lat": 26.68182
		}
	},
	{
		"country": "CN",
		"name": "Xiaolong",
		"_id": 1790091,
		"coord": {
			"lon": 115.544838,
			"lat": 25.54138
		}
	},
	{
		"country": "CN",
		"name": "Xiaolongmen",
		"_id": 1790088,
		"coord": {
			"lon": 110.160561,
			"lat": 27.801941
		}
	},
	{
		"country": "CN",
		"name": "Xiaolou",
		"_id": 1790085,
		"coord": {
			"lon": 113.828178,
			"lat": 23.384439
		}
	},
	{
		"country": "CN",
		"name": "Xiaolukou",
		"_id": 1790081,
		"coord": {
			"lon": 117.607697,
			"lat": 29.8615
		}
	},
	{
		"country": "CN",
		"name": "Xiaoluojiazui",
		"_id": 7904808,
		"coord": {
			"lon": 114.15934,
			"lat": 30.536751
		}
	},
	{
		"country": "CN",
		"name": "Xiaomei",
		"_id": 1790064,
		"coord": {
			"lon": 118.972221,
			"lat": 27.82583
		}
	},
	{
		"country": "CN",
		"name": "Xiaomi",
		"_id": 1923473,
		"coord": {
			"lon": 115.706398,
			"lat": 25.876591
		}
	},
	{
		"country": "CN",
		"name": "Xiaomo",
		"_id": 7032140,
		"coord": {
			"lon": 115.033798,
			"lat": 22.776899
		}
	},
	{
		"country": "CN",
		"name": "Xiaonangou",
		"_id": 1790052,
		"coord": {
			"lon": 106.818092,
			"lat": 36.624352
		}
	},
	{
		"country": "CN",
		"name": "Xiaonanhu",
		"_id": 7904020,
		"coord": {
			"lon": 114.349243,
			"lat": 30.695971
		}
	},
	{
		"country": "CN",
		"name": "Xiaopingyi",
		"_id": 1790037,
		"coord": {
			"lon": 112.481354,
			"lat": 39.384739
		}
	},
	{
		"country": "CN",
		"name": "Xiaopu",
		"_id": 1790034,
		"coord": {
			"lon": 119.829582,
			"lat": 31.029551
		}
	},
	{
		"country": "CN",
		"name": "Xiaopu",
		"_id": 1806209,
		"coord": {
			"lon": 111.316643,
			"lat": 25.23917
		}
	},
	{
		"country": "CN",
		"name": "Xiaopu",
		"_id": 6422958,
		"coord": {
			"lon": 111.344437,
			"lat": 25.28083
		}
	},
	{
		"country": "CN",
		"name": "Xiaoqi",
		"_id": 1910191,
		"coord": {
			"lon": 113.060562,
			"lat": 33.916359
		}
	},
	{
		"country": "CN",
		"name": "Xiaoqiao",
		"_id": 1790029,
		"coord": {
			"lon": 118.466072,
			"lat": 26.95384
		}
	},
	{
		"country": "CN",
		"name": "Xiaoqiu",
		"_id": 1790017,
		"coord": {
			"lon": 108.771393,
			"lat": 34.909439
		}
	},
	{
		"country": "CN",
		"name": "Xiaosanjiang",
		"_id": 1790007,
		"coord": {
			"lon": 112.132957,
			"lat": 24.28196
		}
	},
	{
		"country": "CN",
		"name": "Xiaosha",
		"_id": 1881568,
		"coord": {
			"lon": 122.057793,
			"lat": 30.10779
		}
	},
	{
		"country": "CN",
		"name": "Xiaoshahe",
		"_id": 2046561,
		"coord": {
			"lon": 128.29361,
			"lat": 42.639439
		}
	},
	{
		"country": "CN",
		"name": "Xiaoshajiang",
		"_id": 1790001,
		"coord": {
			"lon": 110.748062,
			"lat": 27.521391
		}
	},
	{
		"country": "CN",
		"name": "Xiaoshan",
		"_id": 1789998,
		"coord": {
			"lon": 120.258827,
			"lat": 30.167459
		}
	},
	{
		"country": "CN",
		"name": "Xiaoshanzi",
		"_id": 7630128,
		"coord": {
			"lon": 127.602402,
			"lat": 44.90712
		}
	},
	{
		"country": "CN",
		"name": "Xiaoshi",
		"_id": 1548958,
		"coord": {
			"lon": 118.781479,
			"lat": 32.096531
		}
	},
	{
		"country": "CN",
		"name": "Xiaoshi",
		"_id": 2033934,
		"coord": {
			"lon": 124.120918,
			"lat": 41.297112
		}
	},
	{
		"country": "CN",
		"name": "Xiaoshidian",
		"_id": 1789985,
		"coord": {
			"lon": 113.320099,
			"lat": 33.155121
		}
	},
	{
		"country": "CN",
		"name": "Xiaoshiqiao",
		"_id": 6825439,
		"coord": {
			"lon": 102.617531,
			"lat": 24.4468
		}
	},
	{
		"country": "CN",
		"name": "Xiaosiping",
		"_id": 2046429,
		"coord": {
			"lon": 125.129723,
			"lat": 42.53611
		}
	},
	{
		"country": "CN",
		"name": "Xiaosong",
		"_id": 1789973,
		"coord": {
			"lon": 116.305496,
			"lat": 26.442419
		}
	},
	{
		"country": "CN",
		"name": "Xiaotang",
		"_id": 1925325,
		"coord": {
			"lon": 115.912018,
			"lat": 28.208521
		}
	},
	{
		"country": "CN",
		"name": "Xiaotian",
		"_id": 1789963,
		"coord": {
			"lon": 116.092506,
			"lat": 27.04204
		}
	},
	{
		"country": "CN",
		"name": "Xiaotian",
		"_id": 1930342,
		"coord": {
			"lon": 113.836937,
			"lat": 26.85972
		}
	},
	{
		"country": "CN",
		"name": "Xiaowangjiaying",
		"_id": 6824989,
		"coord": {
			"lon": 102.791557,
			"lat": 24.912649
		}
	},
	{
		"country": "CN",
		"name": "Xiaowangmiao",
		"_id": 1789951,
		"coord": {
			"lon": 121.355827,
			"lat": 29.701389
		}
	},
	{
		"country": "CN",
		"name": "Xiaoweizhai",
		"_id": 1789945,
		"coord": {
			"lon": 107.512497,
			"lat": 26.190281
		}
	},
	{
		"country": "CN",
		"name": "Xiaoxi",
		"_id": 1789935,
		"coord": {
			"lon": 115.329903,
			"lat": 25.770399
		}
	},
	{
		"country": "CN",
		"name": "Xiaoxi",
		"_id": 1789937,
		"coord": {
			"lon": 117.29071,
			"lat": 24.352489
		}
	},
	{
		"country": "CN",
		"name": "Xiaoxi",
		"_id": 1815504,
		"coord": {
			"lon": 116.712852,
			"lat": 25.950609
		}
	},
	{
		"country": "CN",
		"name": "Xiaoxita",
		"_id": 1789918,
		"coord": {
			"lon": 111.321457,
			"lat": 30.771351
		}
	},
	{
		"country": "CN",
		"name": "Xiaoyangqi",
		"_id": 2033915,
		"coord": {
			"lon": 124.283333,
			"lat": 50.799999
		}
	},
	{
		"country": "CN",
		"name": "Xiaoyi",
		"_id": 1789898,
		"coord": {
			"lon": 109.703011,
			"lat": 34.617779
		}
	},
	{
		"country": "CN",
		"name": "Xiaoying",
		"_id": 7659437,
		"coord": {
			"lon": 129.52066,
			"lat": 42.91206
		}
	},
	{
		"country": "CN",
		"name": "Xiaoyue",
		"_id": 1789877,
		"coord": {
			"lon": 120.927963,
			"lat": 30.07122
		}
	},
	{
		"country": "CN",
		"name": "Xiaoyuwan",
		"_id": 7059662,
		"coord": {
			"lon": 110.419891,
			"lat": 29.27384
		}
	},
	{
		"country": "CN",
		"name": "Xiaozhai",
		"_id": 1789873,
		"coord": {
			"lon": 109.28714,
			"lat": 34.045658
		}
	},
	{
		"country": "CN",
		"name": "Xiaozhai",
		"_id": 7446319,
		"coord": {
			"lon": 104.013077,
			"lat": 34.639141
		}
	},
	{
		"country": "CN",
		"name": "Xiaozhen",
		"_id": 1917124,
		"coord": {
			"lon": 114.025978,
			"lat": 23.98542
		}
	},
	{
		"country": "CN",
		"name": "Xiaozhongdian",
		"_id": 6643966,
		"coord": {
			"lon": 99.875259,
			"lat": 27.561701
		}
	},
	{
		"country": "CN",
		"name": "Xiaozhuangzi",
		"_id": 2033909,
		"coord": {
			"lon": 120.42997,
			"lat": 40.270779
		}
	},
	{
		"country": "CN",
		"name": "Xiapu",
		"_id": 1789832,
		"coord": {
			"lon": 114.464233,
			"lat": 29.51441
		}
	},
	{
		"country": "CN",
		"name": "Xiapu",
		"_id": 1789833,
		"coord": {
			"lon": 114.443161,
			"lat": 27.796419
		}
	},
	{
		"country": "CN",
		"name": "Xiapu",
		"_id": 1887772,
		"coord": {
			"lon": 121.880302,
			"lat": 29.889021
		}
	},
	{
		"country": "CN",
		"name": "Xiaqu",
		"_id": 1789823,
		"coord": {
			"lon": 117.15654,
			"lat": 26.8237
		}
	},
	{
		"country": "CN",
		"name": "Xiaren",
		"_id": 1915379,
		"coord": {
			"lon": 121.026756,
			"lat": 29.5704
		}
	},
	{
		"country": "CN",
		"name": "Xiaruo",
		"_id": 6643964,
		"coord": {
			"lon": 99.357597,
			"lat": 27.808969
		}
	},
	{
		"country": "CN",
		"name": "Xiaruyue",
		"_id": 1789819,
		"coord": {
			"lon": 113.357407,
			"lat": 39.212002
		}
	},
	{
		"country": "CN",
		"name": "Xiasanhe",
		"_id": 1791782,
		"coord": {
			"lon": 121.419289,
			"lat": 31.982281
		}
	},
	{
		"country": "CN",
		"name": "Xiasha",
		"_id": 7735255,
		"coord": {
			"lon": 120.317177,
			"lat": 30.31023
		}
	},
	{
		"country": "CN",
		"name": "Xiashan",
		"_id": 1789810,
		"coord": {
			"lon": 121.530502,
			"lat": 29.464769
		}
	},
	{
		"country": "CN",
		"name": "Xiashan",
		"_id": 1789812,
		"coord": {
			"lon": 116.427116,
			"lat": 23.249809
		}
	},
	{
		"country": "CN",
		"name": "Xiashan",
		"_id": 1916778,
		"coord": {
			"lon": 118.406174,
			"lat": 29.3339
		}
	},
	{
		"country": "CN",
		"name": "Xiashe",
		"_id": 1789803,
		"coord": {
			"lon": 113.29306,
			"lat": 39.514172
		}
	},
	{
		"country": "CN",
		"name": "Xiashi",
		"_id": 1789799,
		"coord": {
			"lon": 120.686378,
			"lat": 30.536289
		}
	},
	{
		"country": "CN",
		"name": "Xiashixiang",
		"_id": 7367793,
		"coord": {
			"lon": 107.068428,
			"lat": 34.38002
		}
	},
	{
		"country": "CN",
		"name": "Xiashuai",
		"_id": 1920396,
		"coord": {
			"lon": 112.085411,
			"lat": 24.21418
		}
	},
	{
		"country": "CN",
		"name": "Xiashuitou",
		"_id": 1789789,
		"coord": {
			"lon": 112.081863,
			"lat": 39.527729
		}
	},
	{
		"country": "CN",
		"name": "Xiasi",
		"_id": 1914158,
		"coord": {
			"lon": 105.51326,
			"lat": 32.289982
		}
	},
	{
		"country": "CN",
		"name": "Xiatang",
		"_id": 1789780,
		"coord": {
			"lon": 112.679802,
			"lat": 33.719872
		}
	},
	{
		"country": "CN",
		"name": "Xiatang",
		"_id": 7066221,
		"coord": {
			"lon": 118.099152,
			"lat": 28.615311
		}
	},
	{
		"country": "CN",
		"name": "Xiatangyunxiang",
		"_id": 1930346,
		"coord": {
			"lon": 111.234718,
			"lat": 27.027781
		}
	},
	{
		"country": "CN",
		"name": "Xiatuanpu",
		"_id": 1789776,
		"coord": {
			"lon": 112.376671,
			"lat": 39.360279
		}
	},
	{
		"country": "CN",
		"name": "Xiawangwa",
		"_id": 1791874,
		"coord": {
			"lon": 106.636093,
			"lat": 36.106022
		}
	},
	{
		"country": "CN",
		"name": "Xiawuqi",
		"_id": 1789759,
		"coord": {
			"lon": 117.053329,
			"lat": 39.613609
		}
	},
	{
		"country": "CN",
		"name": "Xiaxi",
		"_id": 1553794,
		"coord": {
			"lon": 118.933327,
			"lat": 30.5
		}
	},
	{
		"country": "CN",
		"name": "Xiaxi",
		"_id": 7066245,
		"coord": {
			"lon": 118.186691,
			"lat": 28.459789
		}
	},
	{
		"country": "CN",
		"name": "Xiaxihao",
		"_id": 1529061,
		"coord": {
			"lon": 97.166672,
			"lat": 40.299999
		}
	},
	{
		"country": "CN",
		"name": "Xiaxin",
		"_id": 7640667,
		"coord": {
			"lon": 116.006737,
			"lat": 29.98971
		}
	},
	{
		"country": "CN",
		"name": "Xiayang",
		"_id": 1789745,
		"coord": {
			"lon": 117.45417,
			"lat": 26.428761
		}
	},
	{
		"country": "CN",
		"name": "Xiayang",
		"_id": 1803438,
		"coord": {
			"lon": 113.798027,
			"lat": 26.481359
		}
	},
	{
		"country": "CN",
		"name": "Xiayang",
		"_id": 6971678,
		"coord": {
			"lon": 119.80468,
			"lat": 27.87768
		}
	},
	{
		"country": "CN",
		"name": "Xiayang",
		"_id": 7845495,
		"coord": {
			"lon": 121.115883,
			"lat": 31.14967
		}
	},
	{
		"country": "CN",
		"name": "Xiaying",
		"_id": 1887078,
		"coord": {
			"lon": 121.591393,
			"lat": 29.80472
		}
	},
	{
		"country": "CN",
		"name": "Xiayingzi",
		"_id": 2033894,
		"coord": {
			"lon": 124.552139,
			"lat": 41.723179
		}
	},
	{
		"country": "CN",
		"name": "Xiayong",
		"_id": 1789727,
		"coord": {
			"lon": 114.650787,
			"lat": 22.77355
		}
	},
	{
		"country": "CN",
		"name": "Xiayuan",
		"_id": 1983877,
		"coord": {
			"lon": 119.061943,
			"lat": 27.282499
		}
	},
	{
		"country": "CN",
		"name": "Xiayuan",
		"_id": 1790691,
		"coord": {
			"lon": 120.641388,
			"lat": 32.23167
		}
	},
	{
		"country": "CN",
		"name": "Xiazhai",
		"_id": 1789709,
		"coord": {
			"lon": 109.765053,
			"lat": 34.714531
		}
	},
	{
		"country": "CN",
		"name": "Xiazhen",
		"_id": 1789703,
		"coord": {
			"lon": 117.111671,
			"lat": 34.802219
		}
	},
	{
		"country": "CN",
		"name": "Xiazhen",
		"_id": 1789705,
		"coord": {
			"lon": 118.402443,
			"lat": 28.646099
		}
	},
	{
		"country": "CN",
		"name": "Xiazhi",
		"_id": 1814635,
		"coord": {
			"lon": 122.235718,
			"lat": 29.75621
		}
	},
	{
		"country": "CN",
		"name": "Xiazhuang",
		"_id": 1789693,
		"coord": {
			"lon": 118.638893,
			"lat": 34.916111
		}
	},
	{
		"country": "CN",
		"name": "Xiazhuang",
		"_id": 7413345,
		"coord": {
			"lon": 102.295624,
			"lat": 35.851501
		}
	},
	{
		"country": "CN",
		"name": "Xibian",
		"_id": 6969808,
		"coord": {
			"lon": 118.93766,
			"lat": 27.764589
		}
	},
	{
		"country": "CN",
		"name": "Xibin",
		"_id": 1922257,
		"coord": {
			"lon": 118.374687,
			"lat": 26.36832
		}
	},
	{
		"country": "CN",
		"name": "Xibing",
		"_id": 1789659,
		"coord": {
			"lon": 119.724716,
			"lat": 26.98139
		}
	},
	{
		"country": "CN",
		"name": "Xibu",
		"_id": 1789657,
		"coord": {
			"lon": 118.28492,
			"lat": 31.77837
		}
	},
	{
		"country": "CN",
		"name": "Xibu",
		"_id": 1789658,
		"coord": {
			"lon": 117.42511,
			"lat": 23.69906
		}
	},
	{
		"country": "CN",
		"name": "Xicao",
		"_id": 1936475,
		"coord": {
			"lon": 103.633331,
			"lat": 36.49472
		}
	},
	{
		"country": "CN",
		"name": "Xichang",
		"_id": 1789647,
		"coord": {
			"lon": 102.26342,
			"lat": 27.89642
		}
	},
	{
		"country": "CN",
		"name": "Xichang",
		"_id": 1548514,
		"coord": {
			"lon": 120.591667,
			"lat": 32.525002
		}
	},
	{
		"country": "CN",
		"name": "Xichang",
		"_id": 1917107,
		"coord": {
			"lon": 114.452667,
			"lat": 23.929501
		}
	},
	{
		"country": "CN",
		"name": "Xichehe",
		"_id": 1789643,
		"coord": {
			"lon": 109.533211,
			"lat": 29.071119
		}
	},
	{
		"country": "CN",
		"name": "Xicheng",
		"_id": 1810240,
		"coord": {
			"lon": 103.163513,
			"lat": 23.306021
		}
	},
	{
		"country": "CN",
		"name": "Xicheng",
		"_id": 1922260,
		"coord": {
			"lon": 118.14193,
			"lat": 26.163019
		}
	},
	{
		"country": "CN",
		"name": "Xicheng",
		"_id": 7063942,
		"coord": {
			"lon": 108.441681,
			"lat": 34.308048
		}
	},
	{
		"country": "CN",
		"name": "Xicheng",
		"_id": 7661858,
		"coord": {
			"lon": 112.18026,
			"lat": 30.359039
		}
	},
	{
		"country": "CN",
		"name": "Xichou",
		"_id": 1918764,
		"coord": {
			"lon": 120.437698,
			"lat": 29.24407
		}
	},
	{
		"country": "CN",
		"name": "Xichuan",
		"_id": 7518595,
		"coord": {
			"lon": 107.150078,
			"lat": 36.495621
		}
	},
	{
		"country": "MX",
		"name": "Xico",
		"_id": 3514518,
		"coord": {
			"lon": -97,
			"lat": 19.41667
		}
	},
	{
		"country": "MX",
		"name": "Xicohtzinco",
		"_id": 3815363,
		"coord": {
			"lon": -98.23333,
			"lat": 19.173611
		}
	},
	{
		"country": "MX",
		"name": "Xicotencatl",
		"_id": 3483063,
		"coord": {
			"lon": -98.883331,
			"lat": 23.01667
		}
	},
	{
		"country": "MX",
		"name": "Xicotepec de Juarez",
		"_id": 3514510,
		"coord": {
			"lon": -97.966667,
			"lat": 20.299999
		}
	},
	{
		"country": "CN",
		"name": "Xicun",
		"_id": 1785483,
		"coord": {
			"lon": 113.115448,
			"lat": 39.15139
		}
	},
	{
		"country": "CN",
		"name": "Xicun",
		"_id": 1789622,
		"coord": {
			"lon": 114.21788,
			"lat": 27.755119
		}
	},
	{
		"country": "CN",
		"name": "Xidajie",
		"_id": 7739108,
		"coord": {
			"lon": 116.352898,
			"lat": 27.99662
		}
	},
	{
		"country": "CN",
		"name": "Xidi",
		"_id": 1789601,
		"coord": {
			"lon": 117.992409,
			"lat": 29.907221
		}
	},
	{
		"country": "CN",
		"name": "Xidian",
		"_id": 1789600,
		"coord": {
			"lon": 121.433029,
			"lat": 29.490511
		}
	},
	{
		"country": "CN",
		"name": "Xidianzi",
		"_id": 2053426,
		"coord": {
			"lon": 119.936073,
			"lat": 40.08807
		}
	},
	{
		"country": "CN",
		"name": "Xiditou",
		"_id": 1789597,
		"coord": {
			"lon": 117.34639,
			"lat": 39.25222
		}
	},
	{
		"country": "CN",
		"name": "Xidong",
		"_id": 1279716,
		"coord": {
			"lon": 98.400002,
			"lat": 39.599998
		}
	},
	{
		"country": "CN",
		"name": "Xidu",
		"_id": 1789593,
		"coord": {
			"lon": 112.368279,
			"lat": 26.956289
		}
	},
	{
		"country": "CN",
		"name": "Xiedian",
		"_id": 1789586,
		"coord": {
			"lon": 110.811813,
			"lat": 35.428162
		}
	},
	{
		"country": "CN",
		"name": "Xiefang",
		"_id": 1789584,
		"coord": {
			"lon": 115.865623,
			"lat": 25.706539
		}
	},
	{
		"country": "CN",
		"name": "Xiegang",
		"_id": 7001716,
		"coord": {
			"lon": 114.140579,
			"lat": 22.9611
		}
	},
	{
		"country": "CN",
		"name": "Xiehu",
		"_id": 1789575,
		"coord": {
			"lon": 109.245613,
			"lat": 34.204182
		}
	},
	{
		"country": "CN",
		"name": "Xiejia",
		"_id": 1548832,
		"coord": {
			"lon": 119.596939,
			"lat": 32.75972
		}
	},
	{
		"country": "CN",
		"name": "Xiejiaping",
		"_id": 1910527,
		"coord": {
			"lon": 111.366478,
			"lat": 30.04044
		}
	},
	{
		"country": "CN",
		"name": "Xiejiatan",
		"_id": 1789554,
		"coord": {
			"lon": 116.711952,
			"lat": 29.48765
		}
	},
	{
		"country": "CN",
		"name": "Xiejiaya",
		"_id": 1789553,
		"coord": {
			"lon": 110.666672,
			"lat": 28.98333
		}
	},
	{
		"country": "CN",
		"name": "Xiekou",
		"_id": 1789550,
		"coord": {
			"lon": 109.153084,
			"lat": 34.360889
		}
	},
	{
		"country": "CN",
		"name": "Xiepu",
		"_id": 1789540,
		"coord": {
			"lon": 121.605827,
			"lat": 30.035561
		}
	},
	{
		"country": "CN",
		"name": "Xieqiao",
		"_id": 1789537,
		"coord": {
			"lon": 120.383629,
			"lat": 32.061691
		}
	},
	{
		"country": "CN",
		"name": "Xieqiao",
		"_id": 1789538,
		"coord": {
			"lon": 120.568047,
			"lat": 30.488729
		}
	},
	{
		"country": "CN",
		"name": "Xieshui",
		"_id": 7408027,
		"coord": {
			"lon": 106.909317,
			"lat": 33.004299
		}
	},
	{
		"country": "CN",
		"name": "Xietang",
		"_id": 1789526,
		"coord": {
			"lon": 120.9011,
			"lat": 30.121901
		}
	},
	{
		"country": "CN",
		"name": "Xiexiang",
		"_id": 7047778,
		"coord": {
			"lon": 118.045372,
			"lat": 31.82469
		}
	},
	{
		"country": "CN",
		"name": "Xiexiong",
		"_id": 1279746,
		"coord": {
			"lon": 95.620003,
			"lat": 31.41
		}
	},
	{
		"country": "CN",
		"name": "Xiezhuang",
		"_id": 1908867,
		"coord": {
			"lon": 112.435623,
			"lat": 33.14954
		}
	},
	{
		"country": "CN",
		"name": "Xifangcheng",
		"_id": 1789512,
		"coord": {
			"lon": 113.481392,
			"lat": 39.612171
		}
	},
	{
		"country": "CN",
		"name": "Xifeng",
		"_id": 2033866,
		"coord": {
			"lon": 124.722221,
			"lat": 42.737221
		}
	},
	{
		"country": "CN",
		"name": "Xigang",
		"_id": 1789499,
		"coord": {
			"lon": 114.401787,
			"lat": 29.0921
		}
	},
	{
		"country": "CN",
		"name": "Xigaoshan",
		"_id": 7373329,
		"coord": {
			"lon": 105.388168,
			"lat": 33.734749
		}
	},
	{
		"country": "CN",
		"name": "Xiguantun Muguzu Manzuxiang",
		"_id": 7012544,
		"coord": {
			"lon": 123.165253,
			"lat": 42.574951
		}
	},
	{
		"country": "TW",
		"name": "Xiguoshan",
		"_id": 1675247,
		"coord": {
			"lon": 118.349998,
			"lat": 24.425831
		}
	},
	{
		"country": "CN",
		"name": "Xihai",
		"_id": 2033854,
		"coord": {
			"lon": 122.31321,
			"lat": 40.43396
		}
	},
	{
		"country": "CN",
		"name": "Xihanling",
		"_id": 2033853,
		"coord": {
			"lon": 113.239967,
			"lat": 40.01469
		}
	},
	{
		"country": "CN",
		"name": "Xihe",
		"_id": 1789462,
		"coord": {
			"lon": 113.465851,
			"lat": 31.686359
		}
	},
	{
		"country": "CN",
		"name": "Xihe",
		"_id": 1789463,
		"coord": {
			"lon": 118.474663,
			"lat": 30.991751
		}
	},
	{
		"country": "CN",
		"name": "Xihe",
		"_id": 7653982,
		"coord": {
			"lon": 114.009598,
			"lat": 31.00843
		}
	},
	{
		"country": "CN",
		"name": "Xiheshan",
		"_id": 7060470,
		"coord": {
			"lon": 118.34893,
			"lat": 31.44302
		}
	},
	{
		"country": "CN",
		"name": "Xihu",
		"_id": 1789428,
		"coord": {
			"lon": 117.179176,
			"lat": 29.849489
		}
	},
	{
		"country": "CN",
		"name": "Xihua",
		"_id": 1789427,
		"coord": {
			"lon": 114.51667,
			"lat": 33.783329
		}
	},
	{
		"country": "CN",
		"name": "Xihuaiba",
		"_id": 1789425,
		"coord": {
			"lon": 105.918541,
			"lat": 33.525749
		}
	},
	{
		"country": "CN",
		"name": "Xiji",
		"_id": 7352543,
		"coord": {
			"lon": 105.276268,
			"lat": 33.781979
		}
	},
	{
		"country": "CN",
		"name": "Xijia",
		"_id": 1789410,
		"coord": {
			"lon": 111.325218,
			"lat": 35.808601
		}
	},
	{
		"country": "CN",
		"name": "Xijiang",
		"_id": 1789404,
		"coord": {
			"lon": 115.780563,
			"lat": 25.837311
		}
	},
	{
		"country": "CN",
		"name": "Xijiang",
		"_id": 1789405,
		"coord": {
			"lon": 112.593712,
			"lat": 24.75882
		}
	},
	{
		"country": "CN",
		"name": "Xijiang",
		"_id": 7446294,
		"coord": {
			"lon": 104.003403,
			"lat": 34.565899
		}
	},
	{
		"country": "CN",
		"name": "Xijiao",
		"_id": 1789399,
		"coord": {
			"lon": 106.276138,
			"lat": 36.009579
		}
	},
	{
		"country": "CN",
		"name": "Xijiazhai",
		"_id": 7508990,
		"coord": {
			"lon": 112.44767,
			"lat": 39.462952
		}
	},
	{
		"country": "CN",
		"name": "Xijing",
		"_id": 1910348,
		"coord": {
			"lon": 109.818161,
			"lat": 34.048561
		}
	},
	{
		"country": "CN",
		"name": "Xikengkou",
		"_id": 1905307,
		"coord": {
			"lon": 118.315277,
			"lat": 29.432699
		}
	},
	{
		"country": "CN",
		"name": "Xikou",
		"_id": 1789355,
		"coord": {
			"lon": 121.274406,
			"lat": 29.68524
		}
	},
	{
		"country": "CN",
		"name": "Xikou",
		"_id": 1789356,
		"coord": {
			"lon": 118.009521,
			"lat": 29.68626
		}
	},
	{
		"country": "CN",
		"name": "Xikou",
		"_id": 1789357,
		"coord": {
			"lon": 110.758202,
			"lat": 29.225639
		}
	},
	{
		"country": "CN",
		"name": "Xikou",
		"_id": 1789358,
		"coord": {
			"lon": 114.375763,
			"lat": 29.16312
		}
	},
	{
		"country": "CN",
		"name": "Xikou",
		"_id": 1789362,
		"coord": {
			"lon": 116.832329,
			"lat": 26.84556
		}
	},
	{
		"country": "CN",
		"name": "Xikou",
		"_id": 1921721,
		"coord": {
			"lon": 116.675041,
			"lat": 25.06415
		}
	},
	{
		"country": "CN",
		"name": "Xikou",
		"_id": 7090494,
		"coord": {
			"lon": 118.497147,
			"lat": 29.14624
		}
	},
	{
		"country": "GR",
		"name": "Xilagani",
		"_id": 733831,
		"coord": {
			"lon": 25.41667,
			"lat": 40.98333
		}
	},
	{
		"country": "CN",
		"name": "Xilai",
		"_id": 1789345,
		"coord": {
			"lon": 120.427567,
			"lat": 32.118488
		}
	},
	{
		"country": "CN",
		"name": "Xilanqi",
		"_id": 2053179,
		"coord": {
			"lon": 122.145149,
			"lat": 40.223259
		}
	},
	{
		"country": "CN",
		"name": "Xilian",
		"_id": 7050615,
		"coord": {
			"lon": 110.7286,
			"lat": 29.67918
		}
	},
	{
		"country": "CN",
		"name": "Xiliguantun",
		"_id": 1901233,
		"coord": {
			"lon": 115.941391,
			"lat": 37.078331
		}
	},
	{
		"country": "CN",
		"name": "Xilin Hot",
		"_id": 2033824,
		"coord": {
			"lon": 116.033333,
			"lat": 43.966671
		}
	},
	{
		"country": "CN",
		"name": "Xiling",
		"_id": 1789329,
		"coord": {
			"lon": 119.047218,
			"lat": 26.81444
		}
	},
	{
		"country": "CN",
		"name": "Xiling",
		"_id": 6642273,
		"coord": {
			"lon": 111.283897,
			"lat": 30.716061
		}
	},
	{
		"country": "CN",
		"name": "Xilinhe",
		"_id": 2033826,
		"coord": {
			"lon": 129.158051,
			"lat": 42.836472
		}
	},
	{
		"country": "CN",
		"name": "Xilinji",
		"_id": 6958004,
		"coord": {
			"lon": 123.235222,
			"lat": 52.990631
		}
	},
	{
		"country": "MX",
		"name": "Xilitla",
		"_id": 3514502,
		"coord": {
			"lon": -98.966667,
			"lat": 21.33333
		}
	},
	{
		"country": "CN",
		"name": "Xiliu",
		"_id": 1789318,
		"coord": {
			"lon": 113.540833,
			"lat": 39.683182
		}
	},
	{
		"country": "CN",
		"name": "Xiliu",
		"_id": 1910225,
		"coord": {
			"lon": 108.791107,
			"lat": 34.15028
		}
	},
	{
		"country": "CN",
		"name": "Xiliu",
		"_id": 2033819,
		"coord": {
			"lon": 122.624168,
			"lat": 40.848579
		}
	},
	{
		"country": "AZ",
		"name": "Xilli",
		"_id": 147784,
		"coord": {
			"lon": 49.101662,
			"lat": 39.430119
		}
	},
	{
		"country": "CN",
		"name": "Xilong",
		"_id": 6825080,
		"coord": {
			"lon": 103.177261,
			"lat": 24.42086
		}
	},
	{
		"country": "GR",
		"name": "Xilopolis",
		"_id": 733828,
		"coord": {
			"lon": 23.17944,
			"lat": 40.927132
		}
	},
	{
		"country": "MX",
		"name": "Xiloxoxtla",
		"_id": 3516763,
		"coord": {
			"lon": -98.199997,
			"lat": 19.26667
		}
	},
	{
		"country": "CN",
		"name": "Xilu",
		"_id": 1919742,
		"coord": {
			"lon": 116.504539,
			"lat": 23.38114
		}
	},
	{
		"country": "CN",
		"name": "Xiluo",
		"_id": 1927931,
		"coord": {
			"lon": 109.466469,
			"lat": 29.408661
		}
	},
	{
		"country": "CN",
		"name": "Xiluodu",
		"_id": 1805565,
		"coord": {
			"lon": 103.58226,
			"lat": 28.20063
		}
	},
	{
		"country": "CN",
		"name": "Xima",
		"_id": 1789300,
		"coord": {
			"lon": 115.474213,
			"lat": 30.47052
		}
	},
	{
		"country": "CN",
		"name": "Ximafang",
		"_id": 1789298,
		"coord": {
			"lon": 112.017097,
			"lat": 38.663799
		}
	},
	{
		"country": "CN",
		"name": "Ximei",
		"_id": 1789289,
		"coord": {
			"lon": 118.37944,
			"lat": 24.96389
		}
	},
	{
		"country": "CN",
		"name": "Ximi",
		"_id": 8016493,
		"coord": {
			"lon": 110.006859,
			"lat": 28.91235
		}
	},
	{
		"country": "CN",
		"name": "Ximu",
		"_id": 1919224,
		"coord": {
			"lon": 119.584549,
			"lat": 30.74168
		}
	},
	{
		"country": "CN",
		"name": "Ximu",
		"_id": 2033808,
		"coord": {
			"lon": 122.907433,
			"lat": 40.699699
		}
	},
	{
		"country": "CN",
		"name": "Xin Bulag",
		"_id": 2033791,
		"coord": {
			"lon": 113.836388,
			"lat": 42.237499
		}
	},
	{
		"country": "CN",
		"name": "Xinan",
		"_id": 1789234,
		"coord": {
			"lon": 117.28038,
			"lat": 29.88755
		}
	},
	{
		"country": "CN",
		"name": "Xinan",
		"_id": 1789237,
		"coord": {
			"lon": 121.780853,
			"lat": 31.797859
		}
	},
	{
		"country": "CN",
		"name": "Xinan",
		"_id": 1789265,
		"coord": {
			"lon": 118.408882,
			"lat": 32.437988
		}
	},
	{
		"country": "CN",
		"name": "Xinan",
		"_id": 1789269,
		"coord": {
			"lon": 111.5,
			"lat": 29.65
		}
	},
	{
		"country": "CN",
		"name": "Xinan",
		"_id": 1789271,
		"coord": {
			"lon": 119.85556,
			"lat": 26.719999
		}
	},
	{
		"country": "CN",
		"name": "Xinan",
		"_id": 1789274,
		"coord": {
			"lon": 115.190903,
			"lat": 23.120859
		}
	},
	{
		"country": "CN",
		"name": "Xinan",
		"_id": 1910117,
		"coord": {
			"lon": 113.678589,
			"lat": 33.445881
		}
	},
	{
		"country": "CN",
		"name": "Xinan",
		"_id": 1919852,
		"coord": {
			"lon": 115.546768,
			"lat": 23.06451
		}
	},
	{
		"country": "CN",
		"name": "Xinan",
		"_id": 1998143,
		"coord": {
			"lon": 116.810669,
			"lat": 23.550529
		}
	},
	{
		"country": "CN",
		"name": "Xinan",
		"_id": 6920719,
		"coord": {
			"lon": 112.89344,
			"lat": 23.154461
		}
	},
	{
		"country": "CN",
		"name": "Xinan",
		"_id": 7735123,
		"coord": {
			"lon": 120.21904,
			"lat": 30.53373
		}
	},
	{
		"country": "CN",
		"name": "Xinanbu",
		"_id": 1924204,
		"coord": {
			"lon": 117.594299,
			"lat": 28.26701
		}
	},
	{
		"country": "CN",
		"name": "Xinba",
		"_id": 1789229,
		"coord": {
			"lon": 119.131111,
			"lat": 34.440281
		}
	},
	{
		"country": "CN",
		"name": "Xinbang",
		"_id": 1789228,
		"coord": {
			"lon": 121.06147,
			"lat": 30.934669
		}
	},
	{
		"country": "CN",
		"name": "Xinbao",
		"_id": 1789227,
		"coord": {
			"lon": 103.615303,
			"lat": 34.574181
		}
	},
	{
		"country": "CN",
		"name": "Xinbei",
		"_id": 1919448,
		"coord": {
			"lon": 115.688293,
			"lat": 24.1579
		}
	},
	{
		"country": "CN",
		"name": "Xinbei",
		"_id": 1923470,
		"coord": {
			"lon": 115.347572,
			"lat": 25.873831
		}
	},
	{
		"country": "CN",
		"name": "Xinbu",
		"_id": 1789219,
		"coord": {
			"lon": 111.939102,
			"lat": 38.605
		}
	},
	{
		"country": "CN",
		"name": "Xinbuzi",
		"_id": 1789218,
		"coord": {
			"lon": 108.086456,
			"lat": 34.985989
		}
	},
	{
		"country": "CN",
		"name": "Xincang",
		"_id": 1789213,
		"coord": {
			"lon": 121.175774,
			"lat": 30.73151
		}
	},
	{
		"country": "CN",
		"name": "Xinchang",
		"_id": 1916734,
		"coord": {
			"lon": 118.58979,
			"lat": 29.074209
		}
	},
	{
		"country": "CN",
		"name": "Xinchang",
		"_id": 1927940,
		"coord": {
			"lon": 109.730453,
			"lat": 29.258101
		}
	},
	{
		"country": "CN",
		"name": "Xinchang Chengguanzhen",
		"_id": 1789201,
		"coord": {
			"lon": 120.900169,
			"lat": 29.50528
		}
	},
	{
		"country": "CN",
		"name": "Xinchangao",
		"_id": 1927927,
		"coord": {
			"lon": 109.647476,
			"lat": 29.44541
		}
	},
	{
		"country": "CN",
		"name": "Xinche",
		"_id": 6422373,
		"coord": {
			"lon": 111.492783,
			"lat": 25.41444
		}
	},
	{
		"country": "TW",
		"name": "Xincheng",
		"_id": 6643057,
		"coord": {
			"lon": 121.605988,
			"lat": 24.03334
		}
	},
	{
		"country": "CN",
		"name": "Xincheng",
		"_id": 1788567,
		"coord": {
			"lon": 112.224068,
			"lat": 22.70014
		}
	},
	{
		"country": "CN",
		"name": "Xincheng",
		"_id": 1789180,
		"coord": {
			"lon": 111.664169,
			"lat": 35.299999
		}
	},
	{
		"country": "CN",
		"name": "Xincheng",
		"_id": 1789181,
		"coord": {
			"lon": 103.5868,
			"lat": 34.674309
		}
	},
	{
		"country": "CN",
		"name": "Xincheng",
		"_id": 1789186,
		"coord": {
			"lon": 102.842331,
			"lat": 28.01512
		}
	},
	{
		"country": "CN",
		"name": "Xincheng",
		"_id": 1795437,
		"coord": {
			"lon": 111.43528,
			"lat": 35.875
		}
	},
	{
		"country": "CN",
		"name": "Xincheng",
		"_id": 1804009,
		"coord": {
			"lon": 112.461349,
			"lat": 39.986771
		}
	},
	{
		"country": "CN",
		"name": "Xincheng",
		"_id": 1927926,
		"coord": {
			"lon": 109.45826,
			"lat": 29.46207
		}
	},
	{
		"country": "CN",
		"name": "Xincheng",
		"_id": 7063962,
		"coord": {
			"lon": 108.949539,
			"lat": 34.26321
		}
	},
	{
		"country": "CN",
		"name": "Xincheng Chengguanzhen",
		"_id": 1789190,
		"coord": {
			"lon": 108.652611,
			"lat": 24.08613
		}
	},
	{
		"country": "CN",
		"name": "Xinchenglu",
		"_id": 7845524,
		"coord": {
			"lon": 121.263046,
			"lat": 31.388639
		}
	},
	{
		"country": "CN",
		"name": "Xinchengpu",
		"_id": 1789166,
		"coord": {
			"lon": 114.683327,
			"lat": 38.26667
		}
	},
	{
		"country": "CN",
		"name": "Xinchengzi",
		"_id": 7326317,
		"coord": {
			"lon": 104.442261,
			"lat": 34.016628
		}
	},
	{
		"country": "CN",
		"name": "Xinchong",
		"_id": 1789161,
		"coord": {
			"lon": 114.815437,
			"lat": 30.77474
		}
	},
	{
		"country": "CN",
		"name": "Xincun",
		"_id": 1789159,
		"coord": {
			"lon": 109.963959,
			"lat": 18.416121
		}
	},
	{
		"country": "CN",
		"name": "Xindai",
		"_id": 1789143,
		"coord": {
			"lon": 121.082428,
			"lat": 30.82303
		}
	},
	{
		"country": "CN",
		"name": "Xindeng",
		"_id": 1789139,
		"coord": {
			"lon": 119.726669,
			"lat": 29.975281
		}
	},
	{
		"country": "CN",
		"name": "Xindi",
		"_id": 1789137,
		"coord": {
			"lon": 113.466667,
			"lat": 29.816669
		}
	},
	{
		"country": "CN",
		"name": "Xindian",
		"_id": 1789118,
		"coord": {
			"lon": 118.294441,
			"lat": 36.797501
		}
	},
	{
		"country": "CN",
		"name": "Xindian",
		"_id": 1789124,
		"coord": {
			"lon": 113.372093,
			"lat": 33.413589
		}
	},
	{
		"country": "CN",
		"name": "Xindian",
		"_id": 1789127,
		"coord": {
			"lon": 120.916481,
			"lat": 32.268608
		}
	},
	{
		"country": "CN",
		"name": "Xindian",
		"_id": 1789132,
		"coord": {
			"lon": 119.30687,
			"lat": 26.1306
		}
	},
	{
		"country": "CN",
		"name": "Xindian",
		"_id": 1789134,
		"coord": {
			"lon": 118.241051,
			"lat": 24.593769
		}
	},
	{
		"country": "CN",
		"name": "Xindian",
		"_id": 1813303,
		"coord": {
			"lon": 113.850456,
			"lat": 33.618488
		}
	},
	{
		"country": "CN",
		"name": "Xindian",
		"_id": 1899301,
		"coord": {
			"lon": 105.518066,
			"lat": 35.352219
		}
	},
	{
		"country": "CN",
		"name": "Xindian",
		"_id": 2033781,
		"coord": {
			"lon": 127.825981,
			"lat": 45.917961
		}
	},
	{
		"country": "CN",
		"name": "Xindian",
		"_id": 2033782,
		"coord": {
			"lon": 123.123688,
			"lat": 40.092979
		}
	},
	{
		"country": "CN",
		"name": "Xindong",
		"_id": 7735235,
		"coord": {
			"lon": 120.172722,
			"lat": 30.306459
		}
	},
	{
		"country": "CN",
		"name": "Xindou",
		"_id": 1789098,
		"coord": {
			"lon": 100.67778,
			"lat": 31.39587
		}
	},
	{
		"country": "CN",
		"name": "Xindu",
		"_id": 1547621,
		"coord": {
			"lon": 120.133331,
			"lat": 33.341671
		}
	},
	{
		"country": "CN",
		"name": "Xindu",
		"_id": 1789095,
		"coord": {
			"lon": 104.157417,
			"lat": 30.822359
		}
	},
	{
		"country": "CN",
		"name": "Xinfa",
		"_id": 6924979,
		"coord": {
			"lon": 104.32077,
			"lat": 28.830709
		}
	},
	{
		"country": "CN",
		"name": "Xinfang",
		"_id": 1789088,
		"coord": {
			"lon": 114.469917,
			"lat": 27.70047
		}
	},
	{
		"country": "CN",
		"name": "Xinfangzi",
		"_id": 2052323,
		"coord": {
			"lon": 127.360382,
			"lat": 41.555161
		}
	},
	{
		"country": "CN",
		"name": "Xinfeng",
		"_id": 1553878,
		"coord": {
			"lon": 118.077782,
			"lat": 30.50419
		}
	},
	{
		"country": "CN",
		"name": "Xinfeng",
		"_id": 1789068,
		"coord": {
			"lon": 109.263641,
			"lat": 34.42664
		}
	},
	{
		"country": "CN",
		"name": "Xinfeng",
		"_id": 1789075,
		"coord": {
			"lon": 120.45356,
			"lat": 33.268311
		}
	},
	{
		"country": "CN",
		"name": "Xinfeng",
		"_id": 1789079,
		"coord": {
			"lon": 120.91835,
			"lat": 30.709
		}
	},
	{
		"country": "CN",
		"name": "Xinfeng",
		"_id": 1789081,
		"coord": {
			"lon": 116.213158,
			"lat": 27.1089
		}
	},
	{
		"country": "CN",
		"name": "Xinfengjie",
		"_id": 1789080,
		"coord": {
			"lon": 116.589333,
			"lat": 27.4268
		}
	},
	{
		"country": "CN",
		"name": "Xingan",
		"_id": 1789066,
		"coord": {
			"lon": 110.642479,
			"lat": 25.61964
		}
	},
	{
		"country": "CN",
		"name": "Xingang",
		"_id": 1789062,
		"coord": {
			"lon": 116.097214,
			"lat": 29.7542
		}
	},
	{
		"country": "CN",
		"name": "Xingang",
		"_id": 1917061,
		"coord": {
			"lon": 114.633011,
			"lat": 23.7843
		}
	},
	{
		"country": "CN",
		"name": "Xingang",
		"_id": 7844140,
		"coord": {
			"lon": 120.927116,
			"lat": 31.72048
		}
	},
	{
		"country": "CN",
		"name": "Xingangshan",
		"_id": 7651294,
		"coord": {
			"lon": 117.942978,
			"lat": 29.10486
		}
	},
	{
		"country": "CN",
		"name": "Xingao",
		"_id": 1789053,
		"coord": {
			"lon": 112.961609,
			"lat": 39.02607
		}
	},
	{
		"country": "CN",
		"name": "Xingcan",
		"_id": 2033724,
		"coord": {
			"lon": 127.220451,
			"lat": 42.477951
		}
	},
	{
		"country": "CN",
		"name": "Xingcheng",
		"_id": 2033766,
		"coord": {
			"lon": 120.716667,
			"lat": 40.616669
		}
	},
	{
		"country": "CN",
		"name": "Xingdian",
		"_id": 6957994,
		"coord": {
			"lon": 118.435112,
			"lat": 32.039589
		}
	},
	{
		"country": "CN",
		"name": "Xingdong",
		"_id": 1885709,
		"coord": {
			"lon": 120.968277,
			"lat": 32.082649
		}
	},
	{
		"country": "CN",
		"name": "Xinggongxia",
		"_id": 1818032,
		"coord": {
			"lon": 116.733849,
			"lat": 26.11232
		}
	},
	{
		"country": "CN",
		"name": "Xingguo",
		"_id": 1789030,
		"coord": {
			"lon": 105.66861,
			"lat": 34.858608
		}
	},
	{
		"country": "CN",
		"name": "Xingguo",
		"_id": 1789031,
		"coord": {
			"lon": 115.302078,
			"lat": 29.92252
		}
	},
	{
		"country": "CN",
		"name": "Xingguo",
		"_id": 7752468,
		"coord": {
			"lon": 115.208656,
			"lat": 29.83375
		}
	},
	{
		"country": "CN",
		"name": "Xinghai",
		"_id": 7886729,
		"coord": {
			"lon": 122.728088,
			"lat": 40.861591
		}
	},
	{
		"country": "CN",
		"name": "Xinghe Chengguanzhen",
		"_id": 2033759,
		"coord": {
			"lon": 113.883888,
			"lat": 40.875561
		}
	},
	{
		"country": "CN",
		"name": "Xinghua",
		"_id": 1784820,
		"coord": {
			"lon": 119.834167,
			"lat": 32.939171
		}
	},
	{
		"country": "CN",
		"name": "Xinghua",
		"_id": 7326325,
		"coord": {
			"lon": 104.584023,
			"lat": 34.080261
		}
	},
	{
		"country": "CN",
		"name": "Xinghua",
		"_id": 7407787,
		"coord": {
			"lon": 106.361763,
			"lat": 33.861511
		}
	},
	{
		"country": "CN",
		"name": "Xinghua",
		"_id": 8054803,
		"coord": {
			"lon": 122.698387,
			"lat": 48.014488
		}
	},
	{
		"country": "CN",
		"name": "Xingjiang",
		"_id": 7506701,
		"coord": {
			"lon": 115.771767,
			"lat": 26.49095
		}
	},
	{
		"country": "CN",
		"name": "Xingkou",
		"_id": 1789001,
		"coord": {
			"lon": 118.299843,
			"lat": 29.08448
		}
	},
	{
		"country": "CN",
		"name": "Xinglin",
		"_id": 1788997,
		"coord": {
			"lon": 107.990417,
			"lat": 34.344181
		}
	},
	{
		"country": "CN",
		"name": "Xinglin",
		"_id": 7048263,
		"coord": {
			"lon": 109.760696,
			"lat": 34.49371
		}
	},
	{
		"country": "CN",
		"name": "Xinglong",
		"_id": 1788963,
		"coord": {
			"lon": 105.809891,
			"lat": 35.703789
		}
	},
	{
		"country": "CN",
		"name": "Xinglong",
		"_id": 1788981,
		"coord": {
			"lon": 113.610641,
			"lat": 31.71365
		}
	},
	{
		"country": "CN",
		"name": "Xinglong",
		"_id": 1788985,
		"coord": {
			"lon": 118.341232,
			"lat": 30.356911
		}
	},
	{
		"country": "CN",
		"name": "Xinglong",
		"_id": 1788988,
		"coord": {
			"lon": 109.03714,
			"lat": 29.25841
		}
	},
	{
		"country": "CN",
		"name": "Xinglong",
		"_id": 1908010,
		"coord": {
			"lon": 105.344223,
			"lat": 34.038212
		}
	},
	{
		"country": "CN",
		"name": "Xinglong",
		"_id": 1910263,
		"coord": {
			"lon": 108.69278,
			"lat": 34.64806
		}
	},
	{
		"country": "CN",
		"name": "Xinglong",
		"_id": 1998326,
		"coord": {
			"lon": 108.816803,
			"lat": 34.12468
		}
	},
	{
		"country": "CN",
		"name": "Xinglong",
		"_id": 2033747,
		"coord": {
			"lon": 126.900002,
			"lat": 45.299999
		}
	},
	{
		"country": "CN",
		"name": "Xinglong",
		"_id": 2053105,
		"coord": {
			"lon": 127.386108,
			"lat": 42.261669
		}
	},
	{
		"country": "CN",
		"name": "Xinglong",
		"_id": 7404455,
		"coord": {
			"lon": 123.285492,
			"lat": 40.305939
		}
	},
	{
		"country": "CN",
		"name": "Xinglongjie",
		"_id": 1941088,
		"coord": {
			"lon": 109.530167,
			"lat": 29.454981
		}
	},
	{
		"country": "CN",
		"name": "Xinglongshan",
		"_id": 2033739,
		"coord": {
			"lon": 125.46611,
			"lat": 43.956108
		}
	},
	{
		"country": "CN",
		"name": "Xingma",
		"_id": 7020074,
		"coord": {
			"lon": 106.971329,
			"lat": 32.247849
		}
	},
	{
		"country": "CN",
		"name": "Xingong",
		"_id": 8054801,
		"coord": {
			"lon": 120.706093,
			"lat": 49.29031
		}
	},
	{
		"country": "CN",
		"name": "Xingou",
		"_id": 1788955,
		"coord": {
			"lon": 112.952919,
			"lat": 30.13179
		}
	},
	{
		"country": "CN",
		"name": "Xingping",
		"_id": 1788948,
		"coord": {
			"lon": 105.660309,
			"lat": 35.841251
		}
	},
	{
		"country": "CN",
		"name": "Xingping",
		"_id": 1788949,
		"coord": {
			"lon": 108.486938,
			"lat": 34.299999
		}
	},
	{
		"country": "CN",
		"name": "Xingqiao",
		"_id": 7658285,
		"coord": {
			"lon": 114.87426,
			"lat": 27.140169
		}
	},
	{
		"country": "CN",
		"name": "Xingqiao",
		"_id": 7735165,
		"coord": {
			"lon": 120.251709,
			"lat": 30.399429
		}
	},
	{
		"country": "CN",
		"name": "Xingren",
		"_id": 1788941,
		"coord": {
			"lon": 120.937897,
			"lat": 32.06625
		}
	},
	{
		"country": "CN",
		"name": "Xingsha",
		"_id": 1927332,
		"coord": {
			"lon": 113.087784,
			"lat": 28.239719
		}
	},
	{
		"country": "CN",
		"name": "Xingsheng",
		"_id": 1788933,
		"coord": {
			"lon": 106.333328,
			"lat": 35.450001
		}
	},
	{
		"country": "CN",
		"name": "Xingtai",
		"_id": 1788927,
		"coord": {
			"lon": 114.494171,
			"lat": 37.063061
		}
	},
	{
		"country": "CN",
		"name": "Xingtai",
		"_id": 1548555,
		"coord": {
			"lon": 120.074997,
			"lat": 32.686111
		}
	},
	{
		"country": "CN",
		"name": "Xingtian",
		"_id": 1788919,
		"coord": {
			"lon": 118.066673,
			"lat": 27.5
		}
	},
	{
		"country": "CN",
		"name": "Xinguan",
		"_id": 1798889,
		"coord": {
			"lon": 111.530006,
			"lat": 39.455269
		}
	},
	{
		"country": "CN",
		"name": "Xinguan",
		"_id": 1928145,
		"coord": {
			"lon": 111.307327,
			"lat": 29.61969
		}
	},
	{
		"country": "CN",
		"name": "Xingxi",
		"_id": 1917867,
		"coord": {
			"lon": 117.190712,
			"lat": 23.704981
		}
	},
	{
		"country": "CN",
		"name": "Xingyuan",
		"_id": 7520383,
		"coord": {
			"lon": 113.268837,
			"lat": 39.16927
		}
	},
	{
		"country": "CN",
		"name": "Xingzhe",
		"_id": 2001738,
		"coord": {
			"lon": 109.19693,
			"lat": 34.405231
		}
	},
	{
		"country": "CN",
		"name": "Xingzhen",
		"_id": 1788932,
		"coord": {
			"lon": 109.448738,
			"lat": 34.932171
		}
	},
	{
		"country": "CN",
		"name": "Xingzi",
		"_id": 1788899,
		"coord": {
			"lon": 112.554001,
			"lat": 25.001381
		}
	},
	{
		"country": "CN",
		"name": "Xinhang",
		"_id": 1552510,
		"coord": {
			"lon": 119.556961,
			"lat": 31.073059
		}
	},
	{
		"country": "CN",
		"name": "Xinhe",
		"_id": 1788879,
		"coord": {
			"lon": 121.34687,
			"lat": 31.98358
		}
	},
	{
		"country": "CN",
		"name": "Xinhe",
		"_id": 1998313,
		"coord": {
			"lon": 109.099739,
			"lat": 34.419041
		}
	},
	{
		"country": "CN",
		"name": "Xinhe",
		"_id": 7643671,
		"coord": {
			"lon": 115.769058,
			"lat": 29.61964
		}
	},
	{
		"country": "CN",
		"name": "Xinhua",
		"_id": 1553870,
		"coord": {
			"lon": 118.039299,
			"lat": 30.448231
		}
	},
	{
		"country": "CN",
		"name": "Xinhua",
		"_id": 1788871,
		"coord": {
			"lon": 102.933243,
			"lat": 26.88838
		}
	},
	{
		"country": "CN",
		"name": "Xinhua",
		"_id": 1788875,
		"coord": {
			"lon": 105.653168,
			"lat": 23.643101
		}
	},
	{
		"country": "CN",
		"name": "Xinhuang",
		"_id": 1788862,
		"coord": {
			"lon": 120.914864,
			"lat": 30.62121
		}
	},
	{
		"country": "CN",
		"name": "Xinhuang",
		"_id": 1788863,
		"coord": {
			"lon": 109.133759,
			"lat": 27.37359
		}
	},
	{
		"country": "CN",
		"name": "Xinhuang",
		"_id": 7064799,
		"coord": {
			"lon": 117.601379,
			"lat": 28.713539
		}
	},
	{
		"country": "CN",
		"name": "Xinhui",
		"_id": 1806882,
		"coord": {
			"lon": 113.048203,
			"lat": 22.455999
		}
	},
	{
		"country": "CN",
		"name": "Xinhui",
		"_id": 2033707,
		"coord": {
			"lon": 119.898331,
			"lat": 42.28389
		}
	},
	{
		"country": "CN",
		"name": "Xining",
		"_id": 1788852,
		"coord": {
			"lon": 101.76667,
			"lat": 36.616669
		}
	},
	{
		"country": "CN",
		"name": "Xiniu",
		"_id": 1788849,
		"coord": {
			"lon": 113.110779,
			"lat": 24.16419
		}
	},
	{
		"country": "CN",
		"name": "Xinji",
		"_id": 1788816,
		"coord": {
			"lon": 115.203613,
			"lat": 37.902779
		}
	},
	{
		"country": "CN",
		"name": "Xinji",
		"_id": 1788830,
		"coord": {
			"lon": 113.000252,
			"lat": 33.789299
		}
	},
	{
		"country": "CN",
		"name": "Xinji",
		"_id": 1788836,
		"coord": {
			"lon": 106.821114,
			"lat": 33.00806
		}
	},
	{
		"country": "CN",
		"name": "Xinji",
		"_id": 1805912,
		"coord": {
			"lon": 116.555153,
			"lat": 26.338079
		}
	},
	{
		"country": "CN",
		"name": "Xinjia",
		"_id": 7413516,
		"coord": {
			"lon": 102.839546,
			"lat": 35.876999
		}
	},
	{
		"country": "CN",
		"name": "Xinjiamiao",
		"_id": 7063941,
		"coord": {
			"lon": 108.988319,
			"lat": 34.3055
		}
	},
	{
		"country": "CN",
		"name": "Xinjian",
		"_id": 1788807,
		"coord": {
			"lon": 117.934853,
			"lat": 29.124981
		}
	},
	{
		"country": "CN",
		"name": "Xinjian",
		"_id": 7886741,
		"coord": {
			"lon": 122.359123,
			"lat": 40.850288
		}
	},
	{
		"country": "CN",
		"name": "Xinjiang",
		"_id": 1788802,
		"coord": {
			"lon": 113.833328,
			"lat": 24.466669
		}
	},
	{
		"country": "CN",
		"name": "Xinjiang Uygur Zizhiqu",
		"_id": 1529047,
		"coord": {
			"lon": 85.456108,
			"lat": 42.569172
		}
	},
	{
		"country": "CN",
		"name": "Xinjiayuan",
		"_id": 1788793,
		"coord": {
			"lon": 112.985832,
			"lat": 39.753239
		}
	},
	{
		"country": "CN",
		"name": "Xinjie",
		"_id": 1799406,
		"coord": {
			"lon": 120.110168,
			"lat": 32.336552
		}
	},
	{
		"country": "CN",
		"name": "Xinjie",
		"_id": 1885912,
		"coord": {
			"lon": 120.773422,
			"lat": 32.679531
		}
	},
	{
		"country": "CN",
		"name": "Xinjie",
		"_id": 6824405,
		"coord": {
			"lon": 102.721062,
			"lat": 24.74449
		}
	},
	{
		"country": "CN",
		"name": "Xinjie",
		"_id": 7653979,
		"coord": {
			"lon": 113.211761,
			"lat": 31.818541
		}
	},
	{
		"country": "CN",
		"name": "Xinjie",
		"_id": 7735241,
		"coord": {
			"lon": 120.333069,
			"lat": 30.19183
		}
	},
	{
		"country": "CN",
		"name": "Xinjiebu",
		"_id": 1805906,
		"coord": {
			"lon": 115.057404,
			"lat": 28.225981
		}
	},
	{
		"country": "CN",
		"name": "Xinjiezhen",
		"_id": 7328942,
		"coord": {
			"lon": 115.408409,
			"lat": 28.232651
		}
	},
	{
		"country": "CN",
		"name": "Xinjiezi",
		"_id": 6824148,
		"coord": {
			"lon": 102.182037,
			"lat": 24.61688
		}
	},
	{
		"country": "CN",
		"name": "Xinjiezi",
		"_id": 7408353,
		"coord": {
			"lon": 106.825058,
			"lat": 33.160919
		}
	},
	{
		"country": "CN",
		"name": "Xinjing",
		"_id": 1788772,
		"coord": {
			"lon": 106.382072,
			"lat": 23.20252
		}
	},
	{
		"country": "CN",
		"name": "Xinkai",
		"_id": 1788763,
		"coord": {
			"lon": 120.939728,
			"lat": 31.90999
		}
	},
	{
		"country": "CN",
		"name": "Xinkai",
		"_id": 7644500,
		"coord": {
			"lon": 115.810463,
			"lat": 29.81246
		}
	},
	{
		"country": "CN",
		"name": "Xinkaikou",
		"_id": 1788760,
		"coord": {
			"lon": 117.190277,
			"lat": 39.67889
		}
	},
	{
		"country": "CN",
		"name": "Xinli",
		"_id": 1789278,
		"coord": {
			"lon": 108.734718,
			"lat": 39.84417
		}
	},
	{
		"country": "CN",
		"name": "Xinlicun",
		"_id": 1788747,
		"coord": {
			"lon": 117.335564,
			"lat": 39.084721
		}
	},
	{
		"country": "CN",
		"name": "Xinling",
		"_id": 1788745,
		"coord": {
			"lon": 110.318161,
			"lat": 31.025299
		}
	},
	{
		"country": "CN",
		"name": "Xinlong",
		"_id": 1788736,
		"coord": {
			"lon": 114.599998,
			"lat": 25.200001
		}
	},
	{
		"country": "CN",
		"name": "Xinlong",
		"_id": 6422100,
		"coord": {
			"lon": 112.35083,
			"lat": 25.786671
		}
	},
	{
		"country": "CN",
		"name": "Xinlong",
		"_id": 7650840,
		"coord": {
			"lon": 115.326767,
			"lat": 25.145149
		}
	},
	{
		"country": "CN",
		"name": "Xinmen",
		"_id": 1805879,
		"coord": {
			"lon": 118.723778,
			"lat": 29.751841
		}
	},
	{
		"country": "CN",
		"name": "Xinmian",
		"_id": 1788730,
		"coord": {
			"lon": 102.372078,
			"lat": 29.23992
		}
	},
	{
		"country": "CN",
		"name": "Xinmiao",
		"_id": 7905356,
		"coord": {
			"lon": 114.926064,
			"lat": 30.387859
		}
	},
	{
		"country": "CN",
		"name": "Xinmin",
		"_id": 6921472,
		"coord": {
			"lon": 104.777428,
			"lat": 29.40107
		}
	},
	{
		"country": "CN",
		"name": "Xinmin",
		"_id": 2033675,
		"coord": {
			"lon": 122.825279,
			"lat": 41.990829
		}
	},
	{
		"country": "CN",
		"name": "Xinming",
		"_id": 1553849,
		"coord": {
			"lon": 118.244247,
			"lat": 30.336
		}
	},
	{
		"country": "CN",
		"name": "Xinminxiang",
		"_id": 7328936,
		"coord": {
			"lon": 115.558289,
			"lat": 28.93325
		}
	},
	{
		"country": "CN",
		"name": "Xinning",
		"_id": 1788707,
		"coord": {
			"lon": 115.097366,
			"lat": 29.23922
		}
	},
	{
		"country": "CN",
		"name": "Xinning",
		"_id": 1788708,
		"coord": {
			"lon": 107.889122,
			"lat": 22.670799
		}
	},
	{
		"country": "CN",
		"name": "Xinning",
		"_id": 1804869,
		"coord": {
			"lon": 107.865082,
			"lat": 31.08515
		}
	},
	{
		"country": "GR",
		"name": "Xinon Neron",
		"_id": 733827,
		"coord": {
			"lon": 21.616671,
			"lat": 40.683331
		}
	},
	{
		"country": "CN",
		"name": "Xinpeicun",
		"_id": 1788701,
		"coord": {
			"lon": 113.52935,
			"lat": 39.61755
		}
	},
	{
		"country": "CN",
		"name": "Xinpo",
		"_id": 1894017,
		"coord": {
			"lon": 110.365463,
			"lat": 19.77165
		}
	},
	{
		"country": "CN",
		"name": "Xinpu",
		"_id": 1788694,
		"coord": {
			"lon": 119.159439,
			"lat": 34.59972
		}
	},
	{
		"country": "CN",
		"name": "Xinpu",
		"_id": 1788691,
		"coord": {
			"lon": 121.364189,
			"lat": 30.24367
		}
	},
	{
		"country": "CN",
		"name": "Xinpu",
		"_id": 1788696,
		"coord": {
			"lon": 106.449997,
			"lat": 33.099998
		}
	},
	{
		"country": "CN",
		"name": "Xinpu",
		"_id": 1788697,
		"coord": {
			"lon": 111.378151,
			"lat": 29.681351
		}
	},
	{
		"country": "CN",
		"name": "Xinqiao",
		"_id": 1788669,
		"coord": {
			"lon": 121.307503,
			"lat": 31.065001
		}
	},
	{
		"country": "CN",
		"name": "Xinqiao",
		"_id": 1788673,
		"coord": {
			"lon": 110.506218,
			"lat": 29.18947
		}
	},
	{
		"country": "CN",
		"name": "Xinqiao",
		"_id": 1788680,
		"coord": {
			"lon": 116.451637,
			"lat": 25.88096
		}
	},
	{
		"country": "CN",
		"name": "Xinqiao",
		"_id": 1887681,
		"coord": {
			"lon": 121.861671,
			"lat": 29.31778
		}
	},
	{
		"country": "CN",
		"name": "Xinqiao",
		"_id": 1898446,
		"coord": {
			"lon": 120.504784,
			"lat": 31.802509
		}
	},
	{
		"country": "CN",
		"name": "Xinqiao",
		"_id": 1919031,
		"coord": {
			"lon": 118.931938,
			"lat": 30.25083
		}
	},
	{
		"country": "CN",
		"name": "Xinqiao",
		"_id": 7527663,
		"coord": {
			"lon": 120.793358,
			"lat": 32.945702
		}
	},
	{
		"country": "CN",
		"name": "Xinqing",
		"_id": 2033667,
		"coord": {
			"lon": 129.5,
			"lat": 48.23333
		}
	},
	{
		"country": "CN",
		"name": "Xinquan",
		"_id": 1788657,
		"coord": {
			"lon": 116.612091,
			"lat": 25.35483
		}
	},
	{
		"country": "CN",
		"name": "Xinquan",
		"_id": 7658381,
		"coord": {
			"lon": 114.069267,
			"lat": 27.52173
		}
	},
	{
		"country": "CN",
		"name": "Xinrong",
		"_id": 2033665,
		"coord": {
			"lon": 113.150002,
			"lat": 40.26667
		}
	},
	{
		"country": "CN",
		"name": "Xinshan",
		"_id": 1788652,
		"coord": {
			"lon": 115.387199,
			"lat": 25.13732
		}
	},
	{
		"country": "CN",
		"name": "Xinshan",
		"_id": 7516122,
		"coord": {
			"lon": 106.378593,
			"lat": 36.35487
		}
	},
	{
		"country": "CN",
		"name": "Xinshao",
		"_id": 8235911,
		"coord": {
			"lon": 113.606911,
			"lat": 24.808929
		}
	},
	{
		"country": "CN",
		"name": "Xinshazhou",
		"_id": 1927826,
		"coord": {
			"lon": 112.875832,
			"lat": 29.76333
		}
	},
	{
		"country": "CN",
		"name": "Xinshi",
		"_id": 1788638,
		"coord": {
			"lon": 113.140984,
			"lat": 31.047041
		}
	},
	{
		"country": "CN",
		"name": "Xinshi",
		"_id": 1788632,
		"coord": {
			"lon": 109.524696,
			"lat": 34.572578
		}
	},
	{
		"country": "CN",
		"name": "Xinshi",
		"_id": 1788636,
		"coord": {
			"lon": 118.732941,
			"lat": 31.576731
		}
	},
	{
		"country": "CN",
		"name": "Xinshi",
		"_id": 1788640,
		"coord": {
			"lon": 120.284073,
			"lat": 30.61738
		}
	},
	{
		"country": "CN",
		"name": "Xinshi",
		"_id": 1910306,
		"coord": {
			"lon": 109.180054,
			"lat": 34.538342
		}
	},
	{
		"country": "CN",
		"name": "Xinshi",
		"_id": 1922338,
		"coord": {
			"lon": 116.514198,
			"lat": 26.24859
		}
	},
	{
		"country": "CN",
		"name": "Xinshi",
		"_id": 1998768,
		"coord": {
			"lon": 108.422218,
			"lat": 34.43972
		}
	},
	{
		"country": "CN",
		"name": "Xinshiba",
		"_id": 1788630,
		"coord": {
			"lon": 102.771263,
			"lat": 28.970909
		}
	},
	{
		"country": "CN",
		"name": "Xinshichang",
		"_id": 1806810,
		"coord": {
			"lon": 120.80674,
			"lat": 29.27986
		}
	},
	{
		"country": "CN",
		"name": "Xinshichang",
		"_id": 1918793,
		"coord": {
			"lon": 120.839363,
			"lat": 29.323669
		}
	},
	{
		"country": "CN",
		"name": "Xinshui",
		"_id": 1813839,
		"coord": {
			"lon": 110.755219,
			"lat": 36.47839
		}
	},
	{
		"country": "CN",
		"name": "Xinsi Zhen",
		"_id": 7517296,
		"coord": {
			"lon": 104.629883,
			"lat": 34.649559
		}
	},
	{
		"country": "CN",
		"name": "Xintai",
		"_id": 1788618,
		"coord": {
			"lon": 117.751938,
			"lat": 35.900558
		}
	},
	{
		"country": "CN",
		"name": "Xintaimen",
		"_id": 2033661,
		"coord": {
			"lon": 120.417809,
			"lat": 40.834641
		}
	},
	{
		"country": "CN",
		"name": "Xintan",
		"_id": 1553369,
		"coord": {
			"lon": 118.280853,
			"lat": 29.736099
		}
	},
	{
		"country": "CN",
		"name": "Xintan",
		"_id": 7064803,
		"coord": {
			"lon": 117.679413,
			"lat": 28.333179
		}
	},
	{
		"country": "CN",
		"name": "Xintang",
		"_id": 1788606,
		"coord": {
			"lon": 115.713577,
			"lat": 29.61879
		}
	},
	{
		"country": "CN",
		"name": "Xintang",
		"_id": 1788611,
		"coord": {
			"lon": 113.609169,
			"lat": 23.122379
		}
	},
	{
		"country": "CN",
		"name": "Xintang",
		"_id": 1919511,
		"coord": {
			"lon": 116.784958,
			"lat": 23.94323
		}
	},
	{
		"country": "CN",
		"name": "Xintang",
		"_id": 7735416,
		"coord": {
			"lon": 120.304337,
			"lat": 30.1507
		}
	},
	{
		"country": "CN",
		"name": "Xintangbian",
		"_id": 1918314,
		"coord": {
			"lon": 118.451523,
			"lat": 28.621611
		}
	},
	{
		"country": "CN",
		"name": "Xintian",
		"_id": 1788593,
		"coord": {
			"lon": 118.76947,
			"lat": 30.75531
		}
	},
	{
		"country": "CN",
		"name": "Xintian",
		"_id": 1788600,
		"coord": {
			"lon": 114.258003,
			"lat": 27.824949
		}
	},
	{
		"country": "CN",
		"name": "Xintian",
		"_id": 1788602,
		"coord": {
			"lon": 115.245506,
			"lat": 25.361771
		}
	},
	{
		"country": "CN",
		"name": "Xintian",
		"_id": 1807818,
		"coord": {
			"lon": 111.356598,
			"lat": 35.613579
		}
	},
	{
		"country": "CN",
		"name": "Xintian",
		"_id": 1919816,
		"coord": {
			"lon": 115.548851,
			"lat": 23.18821
		}
	},
	{
		"country": "CN",
		"name": "Xintong",
		"_id": 7685749,
		"coord": {
			"lon": 119.814743,
			"lat": 29.906639
		}
	},
	{
		"country": "CN",
		"name": "Xinwan",
		"_id": 1881852,
		"coord": {
			"lon": 120.538567,
			"lat": 30.278891
		}
	},
	{
		"country": "CN",
		"name": "Xinwan",
		"_id": 1913172,
		"coord": {
			"lon": 113.667999,
			"lat": 22.786619
		}
	},
	{
		"country": "CN",
		"name": "Xinwan",
		"_id": 7745040,
		"coord": {
			"lon": 114.453529,
			"lat": 29.19331
		}
	},
	{
		"country": "CN",
		"name": "Xinwu",
		"_id": 1913863,
		"coord": {
			"lon": 110.187431,
			"lat": 19.649361
		}
	},
	{
		"country": "CN",
		"name": "Xinxi",
		"_id": 1919732,
		"coord": {
			"lon": 116.766922,
			"lat": 23.401279
		}
	},
	{
		"country": "CN",
		"name": "Xinxi",
		"_id": 7685359,
		"coord": {
			"lon": 115.32666,
			"lat": 27.8687
		}
	},
	{
		"country": "CN",
		"name": "Xinxi Wudui",
		"_id": 7652402,
		"coord": {
			"lon": 117.819229,
			"lat": 29.904819
		}
	},
	{
		"country": "CN",
		"name": "Xinxiang",
		"_id": 1788572,
		"coord": {
			"lon": 113.867218,
			"lat": 35.308891
		}
	},
	{
		"country": "CN",
		"name": "Xinxigang",
		"_id": 2053099,
		"coord": {
			"lon": 127.355827,
			"lat": 42.06472
		}
	},
	{
		"country": "CN",
		"name": "Xinxing",
		"_id": 1788563,
		"coord": {
			"lon": 108.885002,
			"lat": 34.775558
		}
	},
	{
		"country": "CN",
		"name": "Xinxing",
		"_id": 1788568,
		"coord": {
			"lon": 110.175972,
			"lat": 19.51099
		}
	},
	{
		"country": "CN",
		"name": "Xinxing",
		"_id": 1928510,
		"coord": {
			"lon": 111.823318,
			"lat": 28.95722
		}
	},
	{
		"country": "CN",
		"name": "Xinxing",
		"_id": 1998292,
		"coord": {
			"lon": 109.274361,
			"lat": 34.666882
		}
	},
	{
		"country": "CN",
		"name": "Xinxing",
		"_id": 7885594,
		"coord": {
			"lon": 122.256241,
			"lat": 40.71841
		}
	},
	{
		"country": "CN",
		"name": "Xinxu",
		"_id": 1788537,
		"coord": {
			"lon": 115.134369,
			"lat": 26.906361
		}
	},
	{
		"country": "CN",
		"name": "Xinxu",
		"_id": 1788548,
		"coord": {
			"lon": 115.863548,
			"lat": 24.054859
		}
	},
	{
		"country": "CN",
		"name": "Xinxu",
		"_id": 1919564,
		"coord": {
			"lon": 116.940697,
			"lat": 23.80555
		}
	},
	{
		"country": "CN",
		"name": "Xinxu",
		"_id": 6422115,
		"coord": {
			"lon": 112.269722,
			"lat": 25.80278
		}
	},
	{
		"country": "CN",
		"name": "Xinxu",
		"_id": 6422308,
		"coord": {
			"lon": 112.372498,
			"lat": 25.42194
		}
	},
	{
		"country": "CN",
		"name": "Xinyang",
		"_id": 1788534,
		"coord": {
			"lon": 114.065559,
			"lat": 32.12278
		}
	},
	{
		"country": "CN",
		"name": "Xinyang",
		"_id": 1998417,
		"coord": {
			"lon": 108.140518,
			"lat": 34.482941
		}
	},
	{
		"country": "CN",
		"name": "Xinye",
		"_id": 1788522,
		"coord": {
			"lon": 112.352219,
			"lat": 32.518608
		}
	},
	{
		"country": "CN",
		"name": "Xinyi",
		"_id": 1812057,
		"coord": {
			"lon": 110.947456,
			"lat": 22.37303
		}
	},
	{
		"country": "CN",
		"name": "Xinyi",
		"_id": 1788520,
		"coord": {
			"lon": 109.599663,
			"lat": 34.569538
		}
	},
	{
		"country": "CN",
		"name": "Xinying",
		"_id": 1788516,
		"coord": {
			"lon": 109.525337,
			"lat": 19.89295
		}
	},
	{
		"country": "TW",
		"name": "Xinying",
		"_id": 1668353,
		"coord": {
			"lon": 120.310562,
			"lat": 23.30694
		}
	},
	{
		"country": "CN",
		"name": "Xinyu",
		"_id": 1788508,
		"coord": {
			"lon": 114.93335,
			"lat": 27.804291
		}
	},
	{
		"country": "CN",
		"name": "Xinyuan",
		"_id": 1279694,
		"coord": {
			"lon": 99,
			"lat": 37.299999
		}
	},
	{
		"country": "CN",
		"name": "Xinzha",
		"_id": 7653974,
		"coord": {
			"lon": 113.629349,
			"lat": 31.116659
		}
	},
	{
		"country": "CN",
		"name": "Xinzhai",
		"_id": 1788491,
		"coord": {
			"lon": 107.947647,
			"lat": 36.94276
		}
	},
	{
		"country": "CN",
		"name": "Xinzhai",
		"_id": 1788493,
		"coord": {
			"lon": 104.683861,
			"lat": 33.643871
		}
	},
	{
		"country": "CN",
		"name": "Xinzhai",
		"_id": 1917869,
		"coord": {
			"lon": 117.148659,
			"lat": 23.72048
		}
	},
	{
		"country": "CN",
		"name": "Xinzhaiping",
		"_id": 1941102,
		"coord": {
			"lon": 109.8918,
			"lat": 29.1343
		}
	},
	{
		"country": "CN",
		"name": "Xinzhaipo",
		"_id": 1927935,
		"coord": {
			"lon": 109.422447,
			"lat": 29.284781
		}
	},
	{
		"country": "CN",
		"name": "Xinzhan",
		"_id": 1788482,
		"coord": {
			"lon": 106.856667,
			"lat": 28.38833
		}
	},
	{
		"country": "CN",
		"name": "Xinzheng",
		"_id": 1788467,
		"coord": {
			"lon": 106.28714,
			"lat": 31.27491
		}
	},
	{
		"country": "CN",
		"name": "Xinzheng",
		"_id": 1788468,
		"coord": {
			"lon": 109.62355,
			"lat": 18.54298
		}
	},
	{
		"country": "CN",
		"name": "Xinzhi",
		"_id": 1788462,
		"coord": {
			"lon": 111.70472,
			"lat": 36.49889
		}
	},
	{
		"country": "CN",
		"name": "Xinzhi",
		"_id": 1788463,
		"coord": {
			"lon": 114.682388,
			"lat": 27.694559
		}
	},
	{
		"country": "CN",
		"name": "Xinzhou",
		"_id": 1788450,
		"coord": {
			"lon": 112.73333,
			"lat": 38.409168
		}
	},
	{
		"country": "CN",
		"name": "Xinzhou",
		"_id": 1788452,
		"coord": {
			"lon": 114.800003,
			"lat": 30.866671
		}
	},
	{
		"country": "CN",
		"name": "Xinzhou",
		"_id": 1788453,
		"coord": {
			"lon": 111.881348,
			"lat": 29.55522
		}
	},
	{
		"country": "CN",
		"name": "Xinzhou",
		"_id": 1788457,
		"coord": {
			"lon": 105.351173,
			"lat": 24.872339
		}
	},
	{
		"country": "CN",
		"name": "Xinzhou",
		"_id": 1788461,
		"coord": {
			"lon": 109.311462,
			"lat": 19.71446
		}
	},
	{
		"country": "CN",
		"name": "Xinzhu",
		"_id": 1788425,
		"coord": {
			"lon": 109.055428,
			"lat": 34.38488
		}
	},
	{
		"country": "CN",
		"name": "Xinzhu",
		"_id": 1913862,
		"coord": {
			"lon": 110.206497,
			"lat": 19.62158
		}
	},
	{
		"country": "CN",
		"name": "Xinzhuang",
		"_id": 1898207,
		"coord": {
			"lon": 120.692047,
			"lat": 31.535219
		}
	},
	{
		"country": "CN",
		"name": "Xinzhuang",
		"_id": 1941693,
		"coord": {
			"lon": 117.323891,
			"lat": 39.020279
		}
	},
	{
		"country": "CN",
		"name": "Xinzhuang",
		"_id": 7048311,
		"coord": {
			"lon": 109.671043,
			"lat": 34.55909
		}
	},
	{
		"country": "CN",
		"name": "Xinzhuang",
		"_id": 7757099,
		"coord": {
			"lon": 115.079689,
			"lat": 28.458611
		}
	},
	{
		"country": "ES",
		"name": "Xinzo de Limia",
		"_id": 6359850,
		"coord": {
			"lon": -7.70073,
			"lat": 42.018978
		}
	},
	{
		"country": "ES",
		"name": "Xinzo de Limia",
		"_id": 3121404,
		"coord": {
			"lon": -7.72459,
			"lat": 42.063499
		}
	},
	{
		"country": "CN",
		"name": "Xiongbei",
		"_id": 1908957,
		"coord": {
			"lon": 112.811798,
			"lat": 33.662479
		}
	},
	{
		"country": "CN",
		"name": "Xiongchi",
		"_id": 7372848,
		"coord": {
			"lon": 105.33033,
			"lat": 33.40575
		}
	},
	{
		"country": "CN",
		"name": "Xiongguan",
		"_id": 6824599,
		"coord": {
			"lon": 102.801193,
			"lat": 24.225451
		}
	},
	{
		"country": "CN",
		"name": "Xionghe",
		"_id": 1788414,
		"coord": {
			"lon": 112.443062,
			"lat": 30.08424
		}
	},
	{
		"country": "CN",
		"name": "Xiongji",
		"_id": 1788416,
		"coord": {
			"lon": 112.654716,
			"lat": 31.95639
		}
	},
	{
		"country": "CN",
		"name": "Xiongkou",
		"_id": 1788409,
		"coord": {
			"lon": 112.775269,
			"lat": 30.306459
		}
	},
	{
		"country": "CN",
		"name": "Xiongshan",
		"_id": 1788407,
		"coord": {
			"lon": 118.857109,
			"lat": 27.364389
		}
	},
	{
		"country": "CN",
		"name": "Xiongyue",
		"_id": 2033630,
		"coord": {
			"lon": 122.122841,
			"lat": 40.177368
		}
	},
	{
		"country": "CN",
		"name": "Xiongzhou",
		"_id": 1788402,
		"coord": {
			"lon": 114.300003,
			"lat": 25.116671
		}
	},
	{
		"country": "CN",
		"name": "Xiping",
		"_id": 2033628,
		"coord": {
			"lon": 113.604553,
			"lat": 40.03952
		}
	},
	{
		"country": "CN",
		"name": "Xiping",
		"_id": 1784969,
		"coord": {
			"lon": 103.79612,
			"lat": 25.597839
		}
	},
	{
		"country": "CN",
		"name": "Xipingpo",
		"_id": 2033627,
		"coord": {
			"lon": 120.171494,
			"lat": 40.448212
		}
	},
	{
		"country": "CN",
		"name": "Xipo",
		"_id": 1899334,
		"coord": {
			"lon": 106.430389,
			"lat": 33.847721
		}
	},
	{
		"country": "CN",
		"name": "Xiqiao",
		"_id": 7525339,
		"coord": {
			"lon": 120.182182,
			"lat": 32.225761
		}
	},
	{
		"country": "CN",
		"name": "Xiqin",
		"_id": 1788375,
		"coord": {
			"lon": 118.109932,
			"lat": 26.572069
		}
	},
	{
		"country": "CN",
		"name": "Xiqu",
		"_id": 2038577,
		"coord": {
			"lon": 101.598282,
			"lat": 26.605659
		}
	},
	{
		"country": "CN",
		"name": "Xiquan",
		"_id": 1998312,
		"coord": {
			"lon": 109.13858,
			"lat": 34.407539
		}
	},
	{
		"country": "BR",
		"name": "Xique Xique",
		"_id": 3444823,
		"coord": {
			"lon": -42.73111,
			"lat": -10.82167
		}
	},
	{
		"country": "CN",
		"name": "Xiritala",
		"_id": 8054802,
		"coord": {
			"lon": 116.070213,
			"lat": 43.938889
		}
	},
	{
		"country": "ES",
		"name": "Xirivella",
		"_id": 6361975,
		"coord": {
			"lon": -0.42787,
			"lat": 39.46608
		}
	},
	{
		"country": "ES",
		"name": "Xirivella",
		"_id": 2519466,
		"coord": {
			"lon": -0.42589,
			"lat": 39.465881
		}
	},
	{
		"country": "GR",
		"name": "Xiropotamos",
		"_id": 733818,
		"coord": {
			"lon": 24.1,
			"lat": 41.200001
		}
	},
	{
		"country": "CN",
		"name": "Xisa",
		"_id": 1788365,
		"coord": {
			"lon": 104.707748,
			"lat": 23.450001
		}
	},
	{
		"country": "CN",
		"name": "Xishan",
		"_id": 7401246,
		"coord": {
			"lon": 120.349739,
			"lat": 40.352959
		}
	},
	{
		"country": "CN",
		"name": "Xishan",
		"_id": 1788351,
		"coord": {
			"lon": 115.624786,
			"lat": 28.551661
		}
	},
	{
		"country": "CN",
		"name": "Xishan",
		"_id": 1788352,
		"coord": {
			"lon": 108.96389,
			"lat": 25.68528
		}
	},
	{
		"country": "CN",
		"name": "Xishan",
		"_id": 1917215,
		"coord": {
			"lon": 114.420837,
			"lat": 24.26963
		}
	},
	{
		"country": "CN",
		"name": "Xishanzui",
		"_id": 2033618,
		"coord": {
			"lon": 108.64389,
			"lat": 40.7075
		}
	},
	{
		"country": "CN",
		"name": "Xishaping",
		"_id": 1927951,
		"coord": {
			"lon": 109.528297,
			"lat": 29.14257
		}
	},
	{
		"country": "CN",
		"name": "Xishenba",
		"_id": 1788330,
		"coord": {
			"lon": 106.919907,
			"lat": 32.805119
		}
	},
	{
		"country": "CN",
		"name": "Xishiqiao",
		"_id": 1788328,
		"coord": {
			"lon": 120.088333,
			"lat": 31.868891
		}
	},
	{
		"country": "CN",
		"name": "Xishui",
		"_id": 1914700,
		"coord": {
			"lon": 109.559677,
			"lat": 19.21129
		}
	},
	{
		"country": "CN",
		"name": "Xishuijie",
		"_id": 1788316,
		"coord": {
			"lon": 112.233414,
			"lat": 39.663658
		}
	},
	{
		"country": "CN",
		"name": "Xisi",
		"_id": 2033614,
		"coord": {
			"lon": 122.449089,
			"lat": 40.966282
		}
	},
	{
		"country": "CN",
		"name": "Xitan",
		"_id": 1789376,
		"coord": {
			"lon": 105.741608,
			"lat": 35.883781
		}
	},
	{
		"country": "CN",
		"name": "Xitang",
		"_id": 1788297,
		"coord": {
			"lon": 120.887848,
			"lat": 30.94729
		}
	},
	{
		"country": "CN",
		"name": "Xitangqiao",
		"_id": 1788298,
		"coord": {
			"lon": 120.982857,
			"lat": 30.608681
		}
	},
	{
		"country": "CN",
		"name": "Xitangtuo",
		"_id": 1788291,
		"coord": {
			"lon": 117.479439,
			"lat": 39.31472
		}
	},
	{
		"country": "CN",
		"name": "Xitianmu",
		"_id": 7679668,
		"coord": {
			"lon": 119.472229,
			"lat": 30.26577
		}
	},
	{
		"country": "CN",
		"name": "Xitieshan",
		"_id": 1279690,
		"coord": {
			"lon": 95.51667,
			"lat": 37.283329
		}
	},
	{
		"country": "CN",
		"name": "Xiting",
		"_id": 1788286,
		"coord": {
			"lon": 121.003883,
			"lat": 32.12442
		}
	},
	{
		"country": "CN",
		"name": "Xitou",
		"_id": 1788280,
		"coord": {
			"lon": 118.467308,
			"lat": 30.01053
		}
	},
	{
		"country": "CN",
		"name": "Xitou",
		"_id": 1788282,
		"coord": {
			"lon": 118.079422,
			"lat": 29.454041
		}
	},
	{
		"country": "IT",
		"name": "Xitta",
		"_id": 2522700,
		"coord": {
			"lon": 12.55,
			"lat": 37.98333
		}
	},
	{
		"country": "CN",
		"name": "Xituan",
		"_id": 1788274,
		"coord": {
			"lon": 120.418289,
			"lat": 33.109539
		}
	},
	{
		"country": "CN",
		"name": "Xitumenzi",
		"_id": 2038054,
		"coord": {
			"lon": 131.072571,
			"lat": 43.195141
		}
	},
	{
		"country": "CN",
		"name": "Xiuduan",
		"_id": 1917213,
		"coord": {
			"lon": 114.850594,
			"lat": 24.26475
		}
	},
	{
		"country": "CN",
		"name": "Xiugu",
		"_id": 1788269,
		"coord": {
			"lon": 116.776367,
			"lat": 27.91132
		}
	},
	{
		"country": "CN",
		"name": "Xiulin",
		"_id": 1788268,
		"coord": {
			"lon": 112.400002,
			"lat": 29.716669
		}
	},
	{
		"country": "CN",
		"name": "Xiumei",
		"_id": 1798091,
		"coord": {
			"lon": 111.625862,
			"lat": 29.51391
		}
	},
	{
		"country": "CN",
		"name": "Xiushan",
		"_id": 1788263,
		"coord": {
			"lon": 102.761528,
			"lat": 24.109989
		}
	},
	{
		"country": "CN",
		"name": "Xiushan",
		"_id": 1898581,
		"coord": {
			"lon": 122.168892,
			"lat": 30.18944
		}
	},
	{
		"country": "CN",
		"name": "Xiushi",
		"_id": 1788259,
		"coord": {
			"lon": 115.926537,
			"lat": 28.00078
		}
	},
	{
		"country": "CN",
		"name": "Xiushui",
		"_id": 1785565,
		"coord": {
			"lon": 113.388649,
			"lat": 38.10379
		}
	},
	{
		"country": "CN",
		"name": "Xiushui",
		"_id": 1917457,
		"coord": {
			"lon": 112.998009,
			"lat": 25.17226
		}
	},
	{
		"country": "CN",
		"name": "Xiuyan",
		"_id": 2033602,
		"coord": {
			"lon": 123.274437,
			"lat": 40.292782
		}
	},
	{
		"country": "CN",
		"name": "Xiwai",
		"_id": 6962690,
		"coord": {
			"lon": 107.47525,
			"lat": 31.21682
		}
	},
	{
		"country": "CN",
		"name": "Xiwang",
		"_id": 7048101,
		"coord": {
			"lon": 109.05677,
			"lat": 34.287682
		}
	},
	{
		"country": "CN",
		"name": "Xiwang",
		"_id": 7685374,
		"coord": {
			"lon": 115.703323,
			"lat": 27.893789
		}
	},
	{
		"country": "CN",
		"name": "Xiwanzi",
		"_id": 2033595,
		"coord": {
			"lon": 115.272499,
			"lat": 40.97139
		}
	},
	{
		"country": "CN",
		"name": "Xiwei",
		"_id": 1788237,
		"coord": {
			"lon": 118.37426,
			"lat": 26.18981
		}
	},
	{
		"country": "CN",
		"name": "Xiwu",
		"_id": 1788230,
		"coord": {
			"lon": 108.566391,
			"lat": 34.297218
		}
	},
	{
		"country": "CN",
		"name": "Xiwu",
		"_id": 1788231,
		"coord": {
			"lon": 117.884567,
			"lat": 29.90626
		}
	},
	{
		"country": "CN",
		"name": "Xiwu",
		"_id": 1788232,
		"coord": {
			"lon": 121.483521,
			"lat": 29.68322
		}
	},
	{
		"country": "CN",
		"name": "Xixi",
		"_id": 1788224,
		"coord": {
			"lon": 110.965828,
			"lat": 27.69722
		}
	},
	{
		"country": "CN",
		"name": "Xixi",
		"_id": 1916320,
		"coord": {
			"lon": 116.158546,
			"lat": 22.988741
		}
	},
	{
		"country": "CN",
		"name": "Xixia",
		"_id": 1925363,
		"coord": {
			"lon": 115.843262,
			"lat": 28.858549
		}
	},
	{
		"country": "CN",
		"name": "Xixiang",
		"_id": 1788206,
		"coord": {
			"lon": 112.864998,
			"lat": 35.162781
		}
	},
	{
		"country": "CN",
		"name": "Xixing",
		"_id": 1788192,
		"coord": {
			"lon": 120.226692,
			"lat": 30.18911
		}
	},
	{
		"country": "CN",
		"name": "Xiyan",
		"_id": 1788156,
		"coord": {
			"lon": 110.47361,
			"lat": 26.61639
		}
	},
	{
		"country": "CN",
		"name": "Xiyang",
		"_id": 1788170,
		"coord": {
			"lon": 109.00853,
			"lat": 34.660332
		}
	},
	{
		"country": "CN",
		"name": "Xiyang",
		"_id": 6824061,
		"coord": {
			"lon": 102.290733,
			"lat": 24.463989
		}
	},
	{
		"country": "CN",
		"name": "Xiyangjiang",
		"_id": 1983231,
		"coord": {
			"lon": 110.828888,
			"lat": 27.190281
		}
	},
	{
		"country": "CN",
		"name": "Xiyuan",
		"_id": 7636880,
		"coord": {
			"lon": 116.423012,
			"lat": 29.21608
		}
	},
	{
		"country": "CN",
		"name": "Xizhahaqi",
		"_id": 7012545,
		"coord": {
			"lon": 122.886192,
			"lat": 42.676029
		}
	},
	{
		"country": "CN",
		"name": "Xizhai",
		"_id": 1788123,
		"coord": {
			"lon": 110.050003,
			"lat": 34.684761
		}
	},
	{
		"country": "CN",
		"name": "Xizhai",
		"_id": 7343088,
		"coord": {
			"lon": 103.80175,
			"lat": 34.49366
		}
	},
	{
		"country": "CN",
		"name": "Xizhangbao",
		"_id": 1910248,
		"coord": {
			"lon": 108.565559,
			"lat": 34.50528
		}
	},
	{
		"country": "CN",
		"name": "Xizhi",
		"_id": 7372472,
		"coord": {
			"lon": 105.3564,
			"lat": 33.076729
		}
	},
	{
		"country": "CN",
		"name": "Xizhou",
		"_id": 1788102,
		"coord": {
			"lon": 121.672783,
			"lat": 29.478889
		}
	},
	{
		"country": "AZ",
		"name": "Xocali",
		"_id": 147774,
		"coord": {
			"lon": 46.790279,
			"lat": 39.912971
		}
	},
	{
		"country": "AZ",
		"name": "Xocalı Rayonu",
		"_id": 148449,
		"coord": {
			"lon": 46.75,
			"lat": 39.833328
		}
	},
	{
		"country": "AZ",
		"name": "Xocavənd Rayonu",
		"_id": 409423,
		"coord": {
			"lon": 47,
			"lat": 39.666672
		}
	},
	{
		"country": "MX",
		"name": "Xochihuehuetlan",
		"_id": 3514454,
		"coord": {
			"lon": -98.433327,
			"lat": 17.91667
		}
	},
	{
		"country": "MX",
		"name": "Xochimilco",
		"_id": 3514450,
		"coord": {
			"lon": -99.107498,
			"lat": 19.26222
		}
	},
	{
		"country": "MX",
		"name": "Xochistlahuaca",
		"_id": 3514440,
		"coord": {
			"lon": -98.25,
			"lat": 16.783331
		}
	},
	{
		"country": "MX",
		"name": "Xochitepec",
		"_id": 3514437,
		"coord": {
			"lon": -99.23333,
			"lat": 18.783331
		}
	},
	{
		"country": "MX",
		"name": "Xochitlan",
		"_id": 3514433,
		"coord": {
			"lon": -97.783333,
			"lat": 18.700001
		}
	},
	{
		"country": "MX",
		"name": "Xocotla",
		"_id": 3514424,
		"coord": {
			"lon": -97.099998,
			"lat": 19.033331
		}
	},
	{
		"country": "MX",
		"name": "Xocotlán",
		"_id": 3817701,
		"coord": {
			"lon": -98.849998,
			"lat": 19.525
		}
	},
	{
		"country": "CN",
		"name": "Xoixar",
		"_id": 8059273,
		"coord": {
			"lon": 91.903,
			"lat": 27.903
		}
	},
	{
		"country": "UZ",
		"name": "Xojayli Shahri",
		"_id": 829959,
		"coord": {
			"lon": 59.445438,
			"lat": 42.40881
		}
	},
	{
		"country": "MX",
		"name": "Xometla",
		"_id": 3514414,
		"coord": {
			"lon": -98.883331,
			"lat": 19.65
		}
	},
	{
		"country": "MX",
		"name": "Xonacatlan",
		"_id": 3514409,
		"coord": {
			"lon": -99.532501,
			"lat": 19.40222
		}
	},
	{
		"country": "FR",
		"name": "Xonrupt-Longemer",
		"_id": 6445811,
		"coord": {
			"lon": 6.91667,
			"lat": 48.083328
		}
	},
	{
		"country": "FR",
		"name": "Xonrupt-Longemer",
		"_id": 2967263,
		"coord": {
			"lon": 6.92944,
			"lat": 48.082241
		}
	},
	{
		"country": "UZ",
		"name": "Xorazm Viloyati",
		"_id": 1484843,
		"coord": {
			"lon": 60.5,
			"lat": 41.5
		}
	},
	{
		"country": "ES",
		"name": "Xove",
		"_id": 6359186,
		"coord": {
			"lon": -7.50398,
			"lat": 43.693748
		}
	},
	{
		"country": "ES",
		"name": "Xove",
		"_id": 3120114,
		"coord": {
			"lon": -7.5113,
			"lat": 43.686562
		}
	},
	{
		"country": "MX",
		"name": "Xoxocotla",
		"_id": 3514398,
		"coord": {
			"lon": -99.25,
			"lat": 18.683331
		}
	},