[
	{
		"country": "US",
		"name": "Y",
		"_id": 7263043,
		"coord": {
			"lon": -149.850754,
			"lat": 62.161289
		}
	},
	{
		"country": "AU",
		"name": "Yaamba",
		"_id": 2142722,
		"coord": {
			"lon": 150.366669,
			"lat": -23.133329
		}
	},
	{
		"country": "PS",
		"name": "Yabad",
		"_id": 281318,
		"coord": {
			"lon": 35.168221,
			"lat": 32.44566
		}
	},
	{
		"country": "CN",
		"name": "Yabai",
		"_id": 1787813,
		"coord": {
			"lon": 108.086617,
			"lat": 34.17939
		}
	},
	{
		"country": "JP",
		"name": "Yabase",
		"_id": 2110584,
		"coord": {
			"lon": 140.100006,
			"lat": 39.716671
		}
	},
	{
		"country": "CM",
		"name": "Yabassi",
		"_id": 2221046,
		"coord": {
			"lon": 9.96822,
			"lat": 4.45697
		}
	},
	{
		"country": "AU",
		"name": "Yabba North",
		"_id": 2142715,
		"coord": {
			"lon": 145.683334,
			"lat": -36.216671
		}
	},
	{
		"country": "RU",
		"name": "Yabedino",
		"_id": 469900,
		"coord": {
			"lon": 36.790489,
			"lat": 55.90477
		}
	},
	{
		"country": "ET",
		"name": "Yabelo",
		"_id": 326036,
		"coord": {
			"lon": 38.083328,
			"lat": 4.88333
		}
	},
	{
		"country": "BG",
		"name": "Yablanitsa",
		"_id": 725611,
		"coord": {
			"lon": 24.11278,
			"lat": 43.031391
		}
	},
	{
		"country": "RU",
		"name": "Yablochnyy",
		"_id": 2119640,
		"coord": {
			"lon": 142.066116,
			"lat": 47.166111
		}
	},
	{
		"country": "RU",
		"name": "Yablono-Bukin",
		"_id": 469864,
		"coord": {
			"lon": 50.033333,
			"lat": 51.666668
		}
	},
	{
		"country": "RU",
		"name": "Yablonovka",
		"_id": 469856,
		"coord": {
			"lon": 30.454445,
			"lat": 59.93222
		}
	},
	{
		"country": "RU",
		"name": "Yablonovskiy",
		"_id": 469844,
		"coord": {
			"lon": 38.943241,
			"lat": 44.98901
		}
	},
	{
		"country": "RU",
		"name": "Yablonskiy",
		"_id": 839718,
		"coord": {
			"lon": 39.656387,
			"lat": 44.148609
		}
	},
	{
		"country": "UA",
		"name": "Yablon’ki",
		"_id": 688628,
		"coord": {
			"lon": 30.216669,
			"lat": 50.549999
		}
	},
	{
		"country": "UA",
		"name": "Yabluniv",
		"_id": 688625,
		"coord": {
			"lon": 24.93874,
			"lat": 48.404179
		}
	},
	{
		"country": "UA",
		"name": "Yablunytsya",
		"_id": 688637,
		"coord": {
			"lon": 24.48448,
			"lat": 48.317421
		}
	},
	{
		"country": "SY",
		"name": "Yabrud",
		"_id": 162627,
		"coord": {
			"lon": 36.65741,
			"lat": 33.967361
		}
	},
	{
		"country": "JP",
		"name": "Yabu",
		"_id": 1848852,
		"coord": {
			"lon": 134.816666,
			"lat": 35.383331
		}
	},
	{
		"country": "PR",
		"name": "Yabucoa",
		"_id": 4568908,
		"coord": {
			"lon": -65.879333,
			"lat": 18.05052
		}
	},
	{
		"country": "PR",
		"name": "Yabucoa Municipio",
		"_id": 4568909,
		"coord": {
			"lon": -65.887108,
			"lat": 18.073021
		}
	},
	{
		"country": "JP",
		"name": "Yabuhana",
		"_id": 1848848,
		"coord": {
			"lon": 139.467224,
			"lat": 35.408329
		}
	},
	{
		"country": "JP",
		"name": "Yabuki",
		"_id": 2110583,
		"coord": {
			"lon": 140.316666,
			"lat": 37.200001
		}
	},
	{
		"country": "JP",
		"name": "Yabutani",
		"_id": 1848841,
		"coord": {
			"lon": 134.466675,
			"lat": 34.799999
		}
	},
	{
		"country": "CN",
		"name": "Yacha",
		"_id": 1787808,
		"coord": {
			"lon": 109.447502,
			"lat": 19.23056
		}
	},
	{
		"country": "CN",
		"name": "Yacheng",
		"_id": 1787805,
		"coord": {
			"lon": 120.188347,
			"lat": 26.988291
		}
	},
	{
		"country": "CN",
		"name": "Yacheng",
		"_id": 1787806,
		"coord": {
			"lon": 109.164742,
			"lat": 18.37595
		}
	},
	{
		"country": "MX",
		"name": "Yachihuacaltepec",
		"_id": 3827252,
		"coord": {
			"lon": -99.679443,
			"lat": 19.324169
		}
	},
	{
		"country": "JP",
		"name": "Yachimata",
		"_id": 2110579,
		"coord": {
			"lon": 140.316666,
			"lat": 35.650002
		}
	},
	{
		"country": "RU",
		"name": "Yachnevo",
		"_id": 808182,
		"coord": {
			"lon": 36.579399,
			"lat": 50.637508
		}
	},
	{
		"country": "KR",
		"name": "Yach’on",
		"_id": 1832973,
		"coord": {
			"lon": 126.815826,
			"lat": 35.13028
		}
	},
	{
		"country": "AR",
		"name": "Yacimiento Rio Turbio",
		"_id": 3832376,
		"coord": {
			"lon": -72.3508,
			"lat": -51.573212
		}
	},
	{
		"country": "AU",
		"name": "Yackandandah",
		"_id": 2142707,
		"coord": {
			"lon": 146.866669,
			"lat": -36.333328
		}
	},
	{
		"country": "US",
		"name": "Yacolt",
		"_id": 5816582,
		"coord": {
			"lon": -122.406212,
			"lat": 45.865952
		}
	},
	{
		"country": "CO",
		"name": "Yacopi",
		"_id": 3665813,
		"coord": {
			"lon": -74.338226,
			"lat": 5.45948
		}
	},
	{
		"country": "CO",
		"name": "Yacuanquer",
		"_id": 3665811,
		"coord": {
			"lon": -77.401688,
			"lat": 1.11577
		}
	},
	{
		"country": "BO",
		"name": "Yacuiba",
		"_id": 3901178,
		"coord": {
			"lon": -63.67968,
			"lat": -22.037991
		}
	},
	{
		"country": "IL",
		"name": "Yad H̱anna",
		"_id": 293260,
		"coord": {
			"lon": 35,
			"lat": 32.316669
		}
	},
	{
		"country": "IN",
		"name": "Yadgir",
		"_id": 1252822,
		"coord": {
			"lon": 77.133331,
			"lat": 16.76667
		}
	},
	{
		"country": "US",
		"name": "Yadkinville",
		"_id": 4500154,
		"coord": {
			"lon": -80.659508,
			"lat": 36.134579
		}
	},
	{
		"country": "RU",
		"name": "Yadrikha",
		"_id": 826716,
		"coord": {
			"lon": 46.522499,
			"lat": 61.202778
		}
	},
	{
		"country": "RU",
		"name": "Yadrin",
		"_id": 469809,
		"coord": {
			"lon": 46.206219,
			"lat": 55.940521
		}
	},
	{
		"country": "CN",
		"name": "Yaerya",
		"_id": 1787794,
		"coord": {
			"lon": 112.993088,
			"lat": 39.968761
		}
	},
	{
		"country": "IL",
		"name": "Yafo",
		"_id": 293253,
		"coord": {
			"lon": 34.752239,
			"lat": 32.05043
		}
	},
	{
		"country": "LY",
		"name": "Yafran",
		"_id": 2208791,
		"coord": {
			"lon": 12.52859,
			"lat": 32.06329
		}
	},
	{
		"country": "RU",
		"name": "Yaga",
		"_id": 1486551,
		"coord": {
			"lon": 90.263062,
			"lat": 55.501671
		}
	},
	{
		"country": "CN",
		"name": "Yaga",
		"_id": 7413340,
		"coord": {
			"lon": 102.276543,
			"lat": 35.76556
		}
	},
	{
		"country": "RU",
		"name": "Yagdag",
		"_id": 2013198,
		"coord": {
			"lon": 111.066673,
			"lat": 54.849998
		}
	},
	{
		"country": "TR",
		"name": "Yaglidere",
		"_id": 738123,
		"coord": {
			"lon": 38.624439,
			"lat": 40.860001
		}
	},
	{
		"country": "TR",
		"name": "Yaglidere",
		"_id": 738124,
		"coord": {
			"lon": 39.53167,
			"lat": 40.54501
		}
	},
	{
		"country": "MX",
		"name": "Yago",
		"_id": 3979983,
		"coord": {
			"lon": -105.066673,
			"lat": 21.83333
		}
	},
	{
		"country": "BG",
		"name": "Yagodina",
		"_id": 725594,
		"coord": {
			"lon": 24.35,
			"lat": 41.633331
		}
	},
	{
		"country": "RU",
		"name": "Yagodnaya",
		"_id": 469753,
		"coord": {
			"lon": 49.049999,
			"lat": 55.816666
		}
	},
	{
		"country": "RU",
		"name": "Yagodnoye",
		"_id": 2119626,
		"coord": {
			"lon": 149.666672,
			"lat": 62.549999
		}
	},
	{
		"country": "RU",
		"name": "Yagodnoye",
		"_id": 2119625,
		"coord": {
			"lon": 170.399994,
			"lat": 64.650002
		}
	},
	{
		"country": "RU",
		"name": "Yagodnyy",
		"_id": 2013191,
		"coord": {
			"lon": 113.5,
			"lat": 52.083328
		}
	},
	{
		"country": "CN",
		"name": "Yagou",
		"_id": 2033541,
		"coord": {
			"lon": 127.078911,
			"lat": 45.48061
		}
	},
	{
		"country": "CM",
		"name": "Yagoua",
		"_id": 2221030,
		"coord": {
			"lon": 15.23288,
			"lat": 10.34107
		}
	},
	{
		"country": "EC",
		"name": "Yaguachi",
		"_id": 3650121,
		"coord": {
			"lon": -79.683327,
			"lat": -2.11667
		}
	},
	{
		"country": "HN",
		"name": "Yaguacire",
		"_id": 3600271,
		"coord": {
			"lon": -87.216667,
			"lat": 14.01667
		}
	},
	{
		"country": "CU",
		"name": "Yaguajay",
		"_id": 3533826,
		"coord": {
			"lon": -79.237778,
			"lat": 22.327221
		}
	},
	{
		"country": "CO",
		"name": "Yaguara",
		"_id": 3665803,
		"coord": {
			"lon": -75.517532,
			"lat": 2.66355
		}
	},
	{
		"country": "VE",
		"name": "Yaguaraparo",
		"_id": 3625239,
		"coord": {
			"lon": -62.826931,
			"lat": 10.56916
		}
	},
	{
		"country": "PY",
		"name": "Yaguaron",
		"_id": 3436674,
		"coord": {
			"lon": -57.299999,
			"lat": -25.6
		}
	},
	{
		"country": "DO",
		"name": "Yaguate",
		"_id": 3491807,
		"coord": {
			"lon": -70.181129,
			"lat": 18.3353
		}
	},
	{
		"country": "DO",
		"name": "Yaguate Arriba",
		"_id": 3491805,
		"coord": {
			"lon": -70.191551,
			"lat": 18.33732
		}
	},
	{
		"country": "RU",
		"name": "Yagunovskiy",
		"_id": 1486525,
		"coord": {
			"lon": 85.977997,
			"lat": 55.282799
		}
	},
	{
		"country": "TH",
		"name": "Yaha",
		"_id": 1604979,
		"coord": {
			"lon": 101.132004,
			"lat": 6.4797
		}
	},
	{
		"country": "MM",
		"name": "Yahaungwa",
		"_id": 1285941,
		"coord": {
			"lon": 98.150002,
			"lat": 14.05
		}
	},
	{
		"country": "CN",
		"name": "Yahe",
		"_id": 2033540,
		"coord": {
			"lon": 123.276947,
			"lat": 40.227852
		}
	},
	{
		"country": "UA",
		"name": "Yahilnytsya",
		"_id": 688602,
		"coord": {
			"lon": 25.74374,
			"lat": 48.942478
		}
	},
	{
		"country": "CA",
		"name": "Yahk",
		"_id": 6185078,
		"coord": {
			"lon": -116.085388,
			"lat": 49.083199
		}
	},
	{
		"country": "UA",
		"name": "Yahotyn",
		"_id": 688587,
		"coord": {
			"lon": 31.762461,
			"lat": 50.279751
		}
	},
	{
		"country": "TR",
		"name": "Yahsihan",
		"_id": 297925,
		"coord": {
			"lon": 33.452942,
			"lat": 39.850281
		}
	},
	{
		"country": "MX",
		"name": "Yahualica",
		"_id": 3979982,
		"coord": {
			"lon": -102.849998,
			"lat": 21.133329
		}
	},
	{
		"country": "AF",
		"name": "Yahya Khel",
		"_id": 1121418,
		"coord": {
			"lon": 68.646217,
			"lat": 32.93742
		}
	},
	{
		"country": "TR",
		"name": "Yahyali",
		"_id": 297917,
		"coord": {
			"lon": 35.35704,
			"lat": 38.10228
		}
	},
	{
		"country": "FR",
		"name": "Yainville",
		"_id": 6443589,
		"coord": {
			"lon": 0.83333,
			"lat": 49.450001
		}
	},
	{
		"country": "FR",
		"name": "Yainville",
		"_id": 2967256,
		"coord": {
			"lon": 0.8292,
			"lat": 49.453709
		}
	},
	{
		"country": "IN",
		"name": "Yairipok",
		"_id": 1252810,
		"coord": {
			"lon": 94.066673,
			"lat": 24.66667
		}
	},
	{
		"country": "JP",
		"name": "Yaita",
		"_id": 1848776,
		"coord": {
			"lon": 139.933334,
			"lat": 36.799999
		}
	},
	{
		"country": "RU",
		"name": "Yaitskiy",
		"_id": 469678,
		"coord": {
			"lon": 50.183331,
			"lat": 53.099998
		}
	},
	{
		"country": "ES",
		"name": "Yaiza",
		"_id": 6360204,
		"coord": {
			"lon": -13.76312,
			"lat": 28.963289
		}
	},
	{
		"country": "ES",
		"name": "Yaiza",
		"_id": 2509408,
		"coord": {
			"lon": -13.76535,
			"lat": 28.956779
		}
	},
	{
		"country": "JP",
		"name": "Yaizu",
		"_id": 1848774,
		"coord": {
			"lon": 138.333328,
			"lat": 34.866669
		}
	},
	{
		"country": "MX",
		"name": "Yajalon",
		"_id": 3514349,
		"coord": {
			"lon": -92.333328,
			"lat": 17.23333
		}
	},
	{
		"country": "CN",
		"name": "Yajin",
		"_id": 1814514,
		"coord": {
			"lon": 116.794327,
			"lat": 25.126011
		}
	},
	{
		"country": "NG",
		"name": "Yajiwa",
		"_id": 2318480,
		"coord": {
			"lon": 12.7236,
			"lat": 11.38385
		}
	},
	{
		"country": "JP",
		"name": "Yakage",
		"_id": 1848764,
		"coord": {
			"lon": 133.583328,
			"lat": 34.616669
		}
	},
	{
		"country": "TR",
		"name": "Yakakent",
		"_id": 738085,
		"coord": {
			"lon": 35.528889,
			"lat": 41.6325
		}
	},
	{
		"country": "JP",
		"name": "Yakataishi",
		"_id": 1898186,
		"coord": {
			"lon": 129.925003,
			"lat": 33.521671
		}
	},
	{
		"country": "CN",
		"name": "Yakeshi",
		"_id": 2033536,
		"coord": {
			"lon": 120.73333,
			"lat": 49.283329
		}
	},
	{
		"country": "RU",
		"name": "Yakhino",
		"_id": 469671,
		"coord": {
			"lon": 31.89249,
			"lat": 56.460629
		}
	},
	{
		"country": "RU",
		"name": "Yakhroma",
		"_id": 469655,
		"coord": {
			"lon": 37.48333,
			"lat": 56.299999
		}
	},
	{
		"country": "US",
		"name": "Yakima",
		"_id": 5816605,
		"coord": {
			"lon": -120.505898,
			"lat": 46.60207
		}
	},
	{
		"country": "US",
		"name": "Yakima County",
		"_id": 5816597,
		"coord": {
			"lon": -120.667847,
			"lat": 46.466511
		}
	},
	{
		"country": "RU",
		"name": "Yakimanskaya Sloboda",
		"_id": 469646,
		"coord": {
			"lon": 42.049999,
			"lat": 55.583332
		}
	},
	{
		"country": "RU",
		"name": "Yakimovo",
		"_id": 469635,
		"coord": {
			"lon": 38.366669,
			"lat": 56.016666
		}
	},
	{
		"country": "RU",
		"name": "Yakimovo",
		"_id": 469633,
		"coord": {
			"lon": 43.643333,
			"lat": 57.849167
		}
	},
	{
		"country": "BG",
		"name": "Yakimovo",
		"_id": 725588,
		"coord": {
			"lon": 23.367781,
			"lat": 43.643059
		}
	},
	{
		"country": "UZ",
		"name": "Yakkabog Shahri",
		"_id": 1346492,
		"coord": {
			"lon": 66.688667,
			"lat": 38.976639
		}
	},
	{
		"country": "BF",
		"name": "Yako",
		"_id": 2353688,
		"coord": {
			"lon": -2.26667,
			"lat": 12.96667
		}
	},
	{
		"country": "RU",
		"name": "Yakornaya Shchel'",
		"_id": 823631,
		"coord": {
			"lon": 39.565834,
			"lat": 43.810555
		}
	},
	{
		"country": "BG",
		"name": "Yakoruda",
		"_id": 725586,
		"coord": {
			"lon": 23.68417,
			"lat": 42.02528
		}
	},
	{
		"country": "CN",
		"name": "Yakou",
		"_id": 1787781,
		"coord": {
			"lon": 118.637222,
			"lat": 24.67194
		}
	},
	{
		"country": "CN",
		"name": "Yakou",
		"_id": 1791271,
		"coord": {
			"lon": 113.523514,
			"lat": 33.29649
		}
	},
	{
		"country": "DZ",
		"name": "Yakouren",
		"_id": 2475039,
		"coord": {
			"lon": 4.43646,
			"lat": 36.730541
		}
	},
	{
		"country": "BG",
		"name": "Yakovitsa",
		"_id": 725584,
		"coord": {
			"lon": 25.299999,
			"lat": 41.283329
		}
	},
	{
		"country": "RU",
		"name": "Yakovka",
		"_id": 469602,
		"coord": {
			"lon": 35.846939,
			"lat": 52.8325
		}
	},
	{
		"country": "RU",
		"name": "Yakovlevka",
		"_id": 2013176,
		"coord": {
			"lon": 133.477219,
			"lat": 44.424999
		}
	},
	{
		"country": "RU",
		"name": "Yakovlevo",
		"_id": 469544,
		"coord": {
			"lon": 29.488001,
			"lat": 60.29409
		}
	},
	{
		"country": "RU",
		"name": "Yakovlevo",
		"_id": 469577,
		"coord": {
			"lon": 36.447842,
			"lat": 50.860329
		}
	},
	{
		"country": "RU",
		"name": "Yakovlevo",
		"_id": 6418007,
		"coord": {
			"lon": 37.455276,
			"lat": 55.963333
		}
	},
	{
		"country": "RU",
		"name": "Yakovlevo",
		"_id": 469550,
		"coord": {
			"lon": 40.866669,
			"lat": 56.799999
		}
	},
	{
		"country": "RU",
		"name": "Yakovlevskaya",
		"_id": 469542,
		"coord": {
			"lon": 38.786388,
			"lat": 55.574165
		}
	},
	{
		"country": "RU",
		"name": "Yakovlevskiy",
		"_id": 817965,
		"coord": {
			"lon": 37.39854,
			"lat": 54.782639
		}
	},
	{
		"country": "RU",
		"name": "Yakovlevskoye",
		"_id": 469533,
		"coord": {
			"lon": 37.950558,
			"lat": 55.441944
		}
	},
	{
		"country": "RU",
		"name": "Yaksatovo",
		"_id": 469512,
		"coord": {
			"lon": 48.015141,
			"lat": 46.24342
		}
	},
	{
		"country": "RU",
		"name": "Yakshur",
		"_id": 469473,
		"coord": {
			"lon": 53.435879,
			"lat": 56.887699
		}
	},
	{
		"country": "CA",
		"name": "Yaku",
		"_id": 6185108,
		"coord": {
			"lon": -133.019974,
			"lat": 54.18269
		}
	},
	{
		"country": "BY",
		"name": "Yakubovka",
		"_id": 619762,
		"coord": {
			"lon": 31.029301,
			"lat": 52.416698
		}
	},
	{
		"country": "JP",
		"name": "Yakuin-Horibata",
		"_id": 1848739,
		"coord": {
			"lon": 130.399994,
			"lat": 33.583328
		}
	},
	{
		"country": "JP",
		"name": "Yakumo",
		"_id": 2127478,
		"coord": {
			"lon": 140.269165,
			"lat": 42.253891
		}
	},
	{
		"country": "TR",
		"name": "Yakuplu",
		"_id": 738064,
		"coord": {
			"lon": 28.675819,
			"lat": 40.988941
		}
	},
	{
		"country": "US",
		"name": "Yakutat",
		"_id": 5558615,
		"coord": {
			"lon": -139.727219,
			"lat": 59.54694
		}
	},
	{
		"country": "US",
		"name": "Yakutat City and Borough",
		"_id": 5558618,
		"coord": {
			"lon": -139.133331,
			"lat": 59.666672
		}
	},
	{
		"country": "RU",
		"name": "Yakutsk",
		"_id": 2013159,
		"coord": {
			"lon": 129.733063,
			"lat": 62.03389
		}
	},
	{
		"country": "UA",
		"name": "Yakymivka",
		"_id": 713743,
		"coord": {
			"lon": 35.15361,
			"lat": 46.68972
		}
	},
	{
		"country": "TH",
		"name": "Yala",
		"_id": 1604870,
		"coord": {
			"lon": 101.281281,
			"lat": 6.53995
		}
	},
	{
		"country": "KE",
		"name": "Yala",
		"_id": 178040,
		"coord": {
			"lon": 34.537571,
			"lat": 0.09906
		}
	},
	{
		"country": "NI",
		"name": "Yalaguina",
		"_id": 3615669,
		"coord": {
			"lon": -86.492973,
			"lat": 13.48375
		}
	},
	{
		"country": "US",
		"name": "Yalaha",
		"_id": 4178817,
		"coord": {
			"lon": -81.808693,
			"lat": 28.7386
		}
	},
	{
		"country": "TR",
		"name": "Yalakdere",
		"_id": 738055,
		"coord": {
			"lon": 29.56389,
			"lat": 40.604721
		}
	},
	{
		"country": "AU",
		"name": "Yalca",
		"_id": 2142686,
		"coord": {
			"lon": 145.316666,
			"lat": -35.98333
		}
	},
	{
		"country": "CA",
		"name": "Yale",
		"_id": 6185120,
		"coord": {
			"lon": -121.435852,
			"lat": 49.566399
		}
	},
	{
		"country": "US",
		"name": "Yale",
		"_id": 4556110,
		"coord": {
			"lon": -96.699188,
			"lat": 36.114231
		}
	},
	{
		"country": "US",
		"name": "Yale",
		"_id": 5015627,
		"coord": {
			"lon": -82.798264,
			"lat": 43.130032
		}
	},
	{
		"country": "AU",
		"name": "Yalgoo",
		"_id": 7839858,
		"coord": {
			"lon": 117.15818,
			"lat": -28.487869
		}
	},
	{
		"country": "AU",
		"name": "Yalgoo",
		"_id": 2057633,
		"coord": {
			"lon": 116.683327,
			"lat": -28.33333
		}
	},
	{
		"country": "CO",
		"name": "Yali",
		"_id": 3665792,
		"coord": {
			"lon": -74.834297,
			"lat": 6.67456
		}
	},
	{
		"country": "TR",
		"name": "Yalihuyuk",
		"_id": 297839,
		"coord": {
			"lon": 32.08548,
			"lat": 37.30077
		}
	},
	{
		"country": "CF",
		"name": "Yalinga",
		"_id": 236052,
		"coord": {
			"lon": 23.265829,
			"lat": 6.50133
		}
	},
	{
		"country": "TR",
		"name": "Yalintas",
		"_id": 439099,
		"coord": {
			"lon": 39.39389,
			"lat": 36.735828
		}
	},
	{
		"country": "BY",
		"name": "Yalizava",
		"_id": 619616,
		"coord": {
			"lon": 29.00543,
			"lat": 53.398109
		}
	},
	{
		"country": "RU",
		"name": "Yalkhoy-Mokhk",
		"_id": 469372,
		"coord": {
			"lon": 46.190449,
			"lat": 43.105282
		}
	},
	{
		"country": "JM",
		"name": "Yallahs",
		"_id": 3487963,
		"coord": {
			"lon": -76.562447,
			"lat": 17.8748
		}
	},
	{
		"country": "AU",
		"name": "Yallingup",
		"_id": 2057614,
		"coord": {
			"lon": 115.033333,
			"lat": -33.650002
		}
	},
	{
		"country": "AU",
		"name": "Yallourn",
		"_id": 2142658,
		"coord": {
			"lon": 146.333328,
			"lat": -38.183331
		}
	},
	{
		"country": "TR",
		"name": "Yalova",
		"_id": 862469,
		"coord": {
			"lon": 29.16667,
			"lat": 40.583328
		}
	},
	{
		"country": "TR",
		"name": "Yalova",
		"_id": 738025,
		"coord": {
			"lon": 29.27693,
			"lat": 40.655022
		}
	},
	{
		"country": "RU",
		"name": "Yalpay",
		"_id": 6198157,
		"coord": {
			"lon": 47.899166,
			"lat": 56.176388
		}
	},
	{
		"country": "UA",
		"name": "Yalta",
		"_id": 688532,
		"coord": {
			"lon": 37.273651,
			"lat": 46.962791
		}
	},
	{
		"country": "UA",
		"name": "Yalta",
		"_id": 688533,
		"coord": {
			"lon": 34.166668,
			"lat": 44.5
		}
	},
	{
		"country": "CN",
		"name": "Yaluhu",
		"_id": 1810777,
		"coord": {
			"lon": 102.328979,
			"lat": 35.890961
		}
	},
	{
		"country": "CN",
		"name": "Yalukou",
		"_id": 7678180,
		"coord": {
			"lon": 119.014763,
			"lat": 30.661551
		}
	},
	{
		"country": "RU",
		"name": "Yalutorovsk",
		"_id": 1486468,
		"coord": {
			"lon": 66.300583,
			"lat": 56.65358
		}
	},
	{
		"country": "TR",
		"name": "Yalvac",
		"_id": 297789,
		"coord": {
			"lon": 31.17778,
			"lat": 38.295559
		}
	},
	{
		"country": "AU",
		"name": "Yalwal",
		"_id": 2142653,
		"coord": {
			"lon": 150.399994,
			"lat": -34.933331
		}
	},
	{
		"country": "RU",
		"name": "Yal’chiki",
		"_id": 469396,
		"coord": {
			"lon": 48.0014,
			"lat": 55.163151
		}
	},
	{
		"country": "RU",
		"name": "Yam",
		"_id": 469341,
		"coord": {
			"lon": 37.749168,
			"lat": 55.484444
		}
	},
	{
		"country": "TR",
		"name": "Yamacalti",
		"_id": 436399,
		"coord": {
			"lon": 38.942219,
			"lat": 36.97139
		}
	},
	{
		"country": "CA",
		"name": "Yamachiche",
		"_id": 6185138,
		"coord": {
			"lon": -72.832428,
			"lat": 46.266762
		}
	},
	{
		"country": "JP",
		"name": "Yamada",
		"_id": 2110560,
		"coord": {
			"lon": 141.949997,
			"lat": 39.466671
		}
	},
	{
		"country": "JP",
		"name": "Yamae",
		"_id": 1848706,
		"coord": {
			"lon": 130.566666,
			"lat": 33.466671
		}
	},
	{
		"country": "JP",
		"name": "Yamaga",
		"_id": 1848705,
		"coord": {
			"lon": 130.683334,
			"lat": 33.01667
		}
	},
	{
		"country": "JP",
		"name": "Yamagata-ken",
		"_id": 2110554,
		"coord": {
			"lon": 140.099701,
			"lat": 38.450298
		}
	},
	{
		"country": "JP",
		"name": "Yamagata-shi",
		"_id": 2110556,
		"coord": {
			"lon": 140.363327,
			"lat": 38.240559
		}
	},
	{
		"country": "JP",
		"name": "Yamaguchi-ken",
		"_id": 1848681,
		"coord": {
			"lon": 131.570465,
			"lat": 34.206081
		}
	},
	{
		"country": "JP",
		"name": "Yamaguchi-shi",
		"_id": 1848689,
		"coord": {
			"lon": 131.47139,
			"lat": 34.185829
		}
	},
	{
		"country": "JP",
		"name": "Yamakita",
		"_id": 1848667,
		"coord": {
			"lon": 139.073334,
			"lat": 35.35667
		}
	},
	{
		"country": "RU",
		"name": "Yamalo-Nenetskiy Avtonomnyy Okrug",
		"_id": 1486462,
		"coord": {
			"lon": 76,
			"lat": 66
		}
	},
	{
		"country": "JP",
		"name": "Yamanashi-ken",
		"_id": 1848649,
		"coord": {
			"lon": 138.608002,
			"lat": 35.61602
		}
	},
	{
		"country": "JP",
		"name": "Yamanobe",
		"_id": 2114134,
		"coord": {
			"lon": 140.266663,
			"lat": 38.291111
		}
	},
	{
		"country": "AU",
		"name": "Yamanto",
		"_id": 7932668,
		"coord": {
			"lon": 152.738632,
			"lat": -27.660271
		}
	},
	{
		"country": "HN",
		"name": "Yamaranguila",
		"_id": 3600254,
		"coord": {
			"lon": -88.25,
			"lat": 14.28333
		}
	},
	{
		"country": "DO",
		"name": "Yamasa",
		"_id": 3491796,
		"coord": {
			"lon": -70.025078,
			"lat": 18.77014
		}
	},
	{
		"country": "JP",
		"name": "Yamasaki",
		"_id": 1848633,
		"coord": {
			"lon": 134.550003,
			"lat": 35
		}
	},
	{
		"country": "CA",
		"name": "Yamaska",
		"_id": 6185140,
		"coord": {
			"lon": -72.915802,
			"lat": 46.000061
		}
	},
	{
		"country": "JP",
		"name": "Yamata",
		"_id": 1848612,
		"coord": {
			"lon": 139.816666,
			"lat": 36.150002
		}
	},
	{
		"country": "JP",
		"name": "Yamato-Takada",
		"_id": 1848593,
		"coord": {
			"lon": 135.75,
			"lat": 34.51667
		}
	},
	{
		"country": "JP",
		"name": "Yamato-minami",
		"_id": 1848598,
		"coord": {
			"lon": 139.456116,
			"lat": 35.46722
		}
	},
	{
		"country": "SS",
		"name": "Yambio",
		"_id": 363656,
		"coord": {
			"lon": 28.395491,
			"lat": 4.57213
		}
	},
	{
		"country": "BG",
		"name": "Yambol",
		"_id": 725578,
		"coord": {
			"lon": 26.5,
			"lat": 42.48333
		}
	},
	{
		"country": "AU",
		"name": "Yambuk",
		"_id": 2142637,
		"coord": {
			"lon": 142.065063,
			"lat": -38.315571
		}
	},
	{
		"country": "AU",
		"name": "Yambuna",
		"_id": 2142634,
		"coord": {
			"lon": 145.033325,
			"lat": -36.150002
		}
	},
	{
		"country": "CN",
		"name": "Yamenkou",
		"_id": 1787768,
		"coord": {
			"lon": 116.200279,
			"lat": 39.882778
		}
	},
	{
		"country": "MM",
		"name": "Yamethin",
		"_id": 1285899,
		"coord": {
			"lon": 96.150002,
			"lat": 20.433331
		}
	},
	{
		"country": "US",
		"name": "Yamhill",
		"_id": 5761959,
		"coord": {
			"lon": -123.187332,
			"lat": 45.341499
		}
	},
	{
		"country": "US",
		"name": "Yamhill County",
		"_id": 5761960,
		"coord": {
			"lon": -123.301224,
			"lat": 45.216499
		}
	},
	{
		"country": "RU",
		"name": "Yamkino",
		"_id": 469275,
		"coord": {
			"lon": 38.403889,
			"lat": 55.928055
		}
	},
	{
		"country": "RU",
		"name": "Yamkino",
		"_id": 469274,
		"coord": {
			"lon": 29.30879,
			"lat": 57.904831
		}
	},
	{
		"country": "RU",
		"name": "Yamnovo",
		"_id": 469252,
		"coord": {
			"lon": 44.552776,
			"lat": 56.248333
		}
	},
	{
		"country": "UA",
		"name": "Yamnytsya",
		"_id": 688512,
		"coord": {
			"lon": 24.7075,
			"lat": 48.989719
		}
	},
	{
		"country": "JP",
		"name": "Yamoto",
		"_id": 2110541,
		"coord": {
			"lon": 141.214874,
			"lat": 38.42738
		}
	},
	{
		"country": "CI",
		"name": "Yamoussoukro",
		"_id": 2279755,
		"coord": {
			"lon": -5.27674,
			"lat": 6.82055
		}
	},
	{
		"country": "BO",
		"name": "Yamparaez",
		"_id": 3901147,
		"coord": {
			"lon": -65.125832,
			"lat": -19.18722
		}
	},
	{
		"country": "BO",
		"name": "Yamparáez",
		"_id": 6621221,
		"coord": {
			"lon": -65.077713,
			"lat": -19.251459
		}
	},
	{
		"country": "UA",
		"name": "Yampil",
		"_id": 688501,
		"coord": {
			"lon": 33.783333,
			"lat": 51.950001
		}
	},
	{
		"country": "NG",
		"name": "Yamrat",
		"_id": 2318399,
		"coord": {
			"lon": 9.82604,
			"lat": 10.11161
		}
	},
	{
		"country": "IN",
		"name": "Yamunanagar",
		"_id": 1252797,
		"coord": {
			"lon": 77.283333,
			"lat": 30.1
		}
	},
	{
		"country": "TH",
		"name": "Yan Nawa",
		"_id": 1604792,
		"coord": {
			"lon": 100.542122,
			"lat": 13.69634
		}
	},
	{
		"country": "TH",
		"name": "Yan Ta Khao",
		"_id": 1149757,
		"coord": {
			"lon": 99.666924,
			"lat": 7.38622
		}
	},
	{
		"country": "RU",
		"name": "Yana",
		"_id": 2116271,
		"coord": {
			"lon": 149.386932,
			"lat": 59.738331
		}
	},
	{
		"country": "AU",
		"name": "Yanac",
		"_id": 2142624,
		"coord": {
			"lon": 141.433334,
			"lat": -36.133331
		}
	},
	{
		"country": "PE",
		"name": "Yanacancha",
		"_id": 3925863,
		"coord": {
			"lon": -76.645561,
			"lat": -10.24111
		}
	},
	{
		"country": "EC",
		"name": "Yanacocha",
		"_id": 3650095,
		"coord": {
			"lon": -79.216667,
			"lat": -3.98333
		}
	},
	{
		"country": "JP",
		"name": "Yanada",
		"_id": 1848575,
		"coord": {
			"lon": 139.483337,
			"lat": 36.299999
		}
	},
	{
		"country": "JP",
		"name": "Yanagawa",
		"_id": 2110538,
		"coord": {
			"lon": 140.600006,
			"lat": 37.849998
		}
	},
	{
		"country": "JP",
		"name": "Yanagawa",
		"_id": 1848573,
		"coord": {
			"lon": 130.399994,
			"lat": 33.166672
		}
	},
	{
		"country": "PE",
		"name": "Yanahuanca",
		"_id": 3925809,
		"coord": {
			"lon": -76.498611,
			"lat": -10.51667
		}
	},
	{
		"country": "JP",
		"name": "Yanai",
		"_id": 1848550,
		"coord": {
			"lon": 132.116669,
			"lat": 33.966671
		}
	},
	{
		"country": "IN",
		"name": "Yanam",
		"_id": 1252795,
		"coord": {
			"lon": 82.216667,
			"lat": 16.73333
		}
	},
	{
		"country": "IN",
		"name": "Yanamalakuduru",
		"_id": 7302853,
		"coord": {
			"lon": 80.667458,
			"lat": 16.48531
		}
	},
	{
		"country": "PE",
		"name": "Yanaoca",
		"_id": 3925749,
		"coord": {
			"lon": -71.431671,
			"lat": -14.21806
		}
	},
	{
		"country": "RU",
		"name": "Yanaul",
		"_id": 469178,
		"coord": {
			"lon": 54.930859,
			"lat": 56.2719
		}
	},
	{
		"country": "RU",
		"name": "Yanaul",
		"_id": 469181,
		"coord": {
			"lon": 53.683331,
			"lat": 55.75
		}
	},
	{
		"country": "CN",
		"name": "Yanbanpu",
		"_id": 1927962,
		"coord": {
			"lon": 109.832733,
			"lat": 29.091459
		}
	},
	{
		"country": "CN",
		"name": "Yanbei",
		"_id": 1920412,
		"coord": {
			"lon": 112.822472,
			"lat": 24.27392
		}
	},
	{
		"country": "CN",
		"name": "Yanbei",
		"_id": 1925370,
		"coord": {
			"lon": 115.532341,
			"lat": 27.36974
		}
	},
	{
		"country": "CN",
		"name": "Yanbodu",
		"_id": 1787758,
		"coord": {
			"lon": 110.96814,
			"lat": 29.37467
		}
	},
	{
		"country": "SA",
		"name": "Yanbu al Bahr",
		"_id": 100425,
		"coord": {
			"lon": 38.06374,
			"lat": 24.089121
		}
	},
	{
		"country": "CN",
		"name": "Yancang",
		"_id": 1898634,
		"coord": {
			"lon": 122.056938,
			"lat": 30.0329
		}
	},
	{
		"country": "US",
		"name": "Yancey County",
		"_id": 4500160,
		"coord": {
			"lon": -82.29985,
			"lat": 35.900108
		}
	},
	{
		"country": "US",
		"name": "Yanceyville",
		"_id": 4500166,
		"coord": {
			"lon": -79.336128,
			"lat": 36.40403
		}
	},
	{
		"country": "UA",
		"name": "Yanchekrak",
		"_id": 706967,
		"coord": {
			"lon": 35.360279,
			"lat": 47.536388
		}
	},
	{
		"country": "CN",
		"name": "Yancheng",
		"_id": 1787746,
		"coord": {
			"lon": 120.125282,
			"lat": 33.385559
		}
	},
	{
		"country": "CN",
		"name": "Yancheng",
		"_id": 1790852,
		"coord": {
			"lon": 111.869278,
			"lat": 38.915379
		}
	},
	{
		"country": "CN",
		"name": "Yancheng",
		"_id": 1805560,
		"coord": {
			"lon": 104.06723,
			"lat": 29.650681
		}
	},
	{
		"country": "CN",
		"name": "Yancheng",
		"_id": 1806483,
		"coord": {
			"lon": 103.566788,
			"lat": 29.74357
		}
	},
	{
		"country": "AU",
		"name": "Yanchep",
		"_id": 2057575,
		"coord": {
			"lon": 115.683327,
			"lat": -31.549999
		}
	},
	{
		"country": "CN",
		"name": "Yanchi",
		"_id": 1927972,
		"coord": {
			"lon": 110.929878,
			"lat": 29.799219
		}
	},
	{
		"country": "AU",
		"name": "Yanco",
		"_id": 2142612,
		"coord": {
			"lon": 146.399994,
			"lat": -34.599998
		}
	},
	{
		"country": "CN",
		"name": "Yancun",
		"_id": 2001855,
		"coord": {
			"lon": 109.494957,
			"lat": 34.418968
		}
	},
	{
		"country": "NG",
		"name": "Yanda Bayo",
		"_id": 2318383,
		"coord": {
			"lon": 10.7459,
			"lat": 11.5071
		}
	},
	{
		"country": "AU",
		"name": "Yandaran",
		"_id": 2142602,
		"coord": {
			"lon": 152.116669,
			"lat": -24.716669
		}
	},
	{
		"country": "AU",
		"name": "Yanderra",
		"_id": 2142598,
		"coord": {
			"lon": 150.566666,
			"lat": -34.333328
		}
	},
	{
		"country": "NG",
		"name": "Yandev",
		"_id": 2318374,
		"coord": {
			"lon": 9.05,
			"lat": 7.36667
		}
	},
	{
		"country": "CN",
		"name": "Yandian",
		"_id": 7653967,
		"coord": {
			"lon": 113.566521,
			"lat": 31.335171
		}
	},
	{
		"country": "AU",
		"name": "Yandilla",
		"_id": 2142596,
		"coord": {
			"lon": 151.366669,
			"lat": -27.85
		}
	},
	{
		"country": "AU",
		"name": "Yandina",
		"_id": 2142595,
		"coord": {
			"lon": 152.966675,
			"lat": -26.566669
		}
	},
	{
		"country": "AU",
		"name": "Yandoit",
		"_id": 2142592,
		"coord": {
			"lon": 144.100006,
			"lat": -37.200001
		}
	},
	{
		"country": "CN",
		"name": "Yandun",
		"_id": 1552321,
		"coord": {
			"lon": 118.15757,
			"lat": 30.721741
		}
	},
	{
		"country": "CN",
		"name": "Yanduo",
		"_id": 1279592,
		"coord": {
			"lon": 97.683327,
			"lat": 30.65
		}
	},
	{
		"country": "RU",
		"name": "Yandyki",
		"_id": 469151,
		"coord": {
			"lon": 47.125771,
			"lat": 45.769131
		}
	},
	{
		"country": "CN",
		"name": "Yanfang",
		"_id": 7643683,
		"coord": {
			"lon": 115.70076,
			"lat": 29.22369
		}
	},
	{
		"country": "CN",
		"name": "Yanfeng",
		"_id": 1913971,
		"coord": {
			"lon": 110.554512,
			"lat": 19.951151
		}
	},
	{
		"country": "TH",
		"name": "Yang Chum Noi",
		"_id": 1604807,
		"coord": {
			"lon": 104.39769,
			"lat": 15.26453
		}
	},
	{
		"country": "TH",
		"name": "Yang Si Surat",
		"_id": 1597130,
		"coord": {
			"lon": 103.103111,
			"lat": 15.68361
		}
	},
	{
		"country": "TH",
		"name": "Yang Talat",
		"_id": 1604797,
		"coord": {
			"lon": 103.367851,
			"lat": 16.39982
		}
	},
	{
		"country": "CD",
		"name": "Yanga",
		"_id": 2310882,
		"coord": {
			"lon": 13.36667,
			"lat": -5.35
		}
	},
	{
		"country": "MX",
		"name": "Yanga",
		"_id": 3514329,
		"coord": {
			"lon": -96.800003,
			"lat": 18.83333
		}
	},
	{
		"country": "CD",
		"name": "Yangambi",
		"_id": 203717,
		"coord": {
			"lon": 24.43359,
			"lat": 0.81021
		}
	},
	{
		"country": "AU",
		"name": "Yangan",
		"_id": 2142589,
		"coord": {
			"lon": 152.199997,
			"lat": -28.183331
		}
	},
	{
		"country": "CN",
		"name": "Yangba",
		"_id": 1787689,
		"coord": {
			"lon": 106.781914,
			"lat": 32.474628
		}
	},
	{
		"country": "CN",
		"name": "Yangba",
		"_id": 1914171,
		"coord": {
			"lon": 105.766434,
			"lat": 33.010269
		}
	},
	{
		"country": "CN",
		"name": "Yangban",
		"_id": 1928120,
		"coord": {
			"lon": 111.69075,
			"lat": 29.529961
		}
	},
	{
		"country": "CN",
		"name": "Yangce",
		"_id": 1787681,
		"coord": {
			"lon": 113.247063,
			"lat": 32.992851
		}
	},
	{
		"country": "CN",
		"name": "Yangcheng",
		"_id": 1787669,
		"coord": {
			"lon": 112.64521,
			"lat": 24.4762
		}
	},
	{
		"country": "CN",
		"name": "Yangchun",
		"_id": 1814786,
		"coord": {
			"lon": 111.783333,
			"lat": 22.16667
		}
	},
	{
		"country": "CN",
		"name": "Yangchun",
		"_id": 7408081,
		"coord": {
			"lon": 106.901482,
			"lat": 33.033241
		}
	},
	{
		"country": "CN",
		"name": "Yangcun",
		"_id": 1787646,
		"coord": {
			"lon": 117.06028,
			"lat": 39.363892
		}
	},
	{
		"country": "CN",
		"name": "Yangcun",
		"_id": 1787656,
		"coord": {
			"lon": 114.627991,
			"lat": 24.637341
		}
	},
	{
		"country": "CN",
		"name": "Yangcun",
		"_id": 1787657,
		"coord": {
			"lon": 114.467743,
			"lat": 23.433661
		}
	},
	{
		"country": "CN",
		"name": "Yangdi",
		"_id": 1787638,
		"coord": {
			"lon": 116.328148,
			"lat": 26.048639
		}
	},
	{
		"country": "CN",
		"name": "Yangdian",
		"_id": 1787554,
		"coord": {
			"lon": 106.426559,
			"lat": 33.933319
		}
	},
	{
		"country": "AU",
		"name": "Yangery",
		"_id": 2142586,
		"coord": {
			"lon": 142.416672,
			"lat": -38.316669
		}
	},
	{
		"country": "CN",
		"name": "Yangezhuang",
		"_id": 1787624,
		"coord": {
			"lon": 117.690277,
			"lat": 39.996391
		}
	},
	{
		"country": "CN",
		"name": "Yangfangkou",
		"_id": 1787619,
		"coord": {
			"lon": 112.330589,
			"lat": 39.100712
		}
	},
	{
		"country": "CN",
		"name": "Yangfanglin",
		"_id": 1787618,
		"coord": {
			"lon": 114.363022,
			"lat": 29.484131
		}
	},
	{
		"country": "CN",
		"name": "Yangfeng",
		"_id": 1910073,
		"coord": {
			"lon": 113.853157,
			"lat": 33.134399
		}
	},
	{
		"country": "CN",
		"name": "Yangfeng",
		"_id": 7636858,
		"coord": {
			"lon": 116.377647,
			"lat": 29.29108
		}
	},
	{
		"country": "CN",
		"name": "Yanggang",
		"_id": 1787610,
		"coord": {
			"lon": 115.137413,
			"lat": 29.57818
		}
	},
	{
		"country": "KP",
		"name": "Yanggang-do",
		"_id": 2039332,
		"coord": {
			"lon": 128.203613,
			"lat": 41.214169
		}
	},
	{
		"country": "KR",
		"name": "Yanggok",
		"_id": 1897122,
		"coord": {
			"lon": 127.214172,
			"lat": 37.636669
		}
	},
	{
		"country": "KR",
		"name": "Yanggu",
		"_id": 1832909,
		"coord": {
			"lon": 127.989441,
			"lat": 38.105831
		}
	},
	{
		"country": "CN",
		"name": "Yanggu",
		"_id": 1787601,
		"coord": {
			"lon": 115.775284,
			"lat": 36.110561
		}
	},
	{
		"country": "CN",
		"name": "Yanggu",
		"_id": 1921672,
		"coord": {
			"lon": 116.316292,
			"lat": 25.386061
		}
	},
	{
		"country": "CN",
		"name": "Yangguang",
		"_id": 1787599,
		"coord": {
			"lon": 102.793892,
			"lat": 24.13722
		}
	},
	{
		"country": "CN",
		"name": "Yangguao",
		"_id": 1983170,
		"coord": {
			"lon": 110.943893,
			"lat": 27.48667
		}
	},
	{
		"country": "CN",
		"name": "Yangguo",
		"_id": 1787594,
		"coord": {
			"lon": 109.51963,
			"lat": 34.355881
		}
	},
	{
		"country": "CN",
		"name": "Yanghe",
		"_id": 1787590,
		"coord": {
			"lon": 113.580887,
			"lat": 31.096251
		}
	},
	{
		"country": "CN",
		"name": "Yanghe",
		"_id": 2033916,
		"coord": {
			"lon": 123.40889,
			"lat": 40.058331
		}
	},
	{
		"country": "CN",
		"name": "Yanghe",
		"_id": 7050525,
		"coord": {
			"lon": 110.704102,
			"lat": 29.26502
		}
	},
	{
		"country": "CN",
		"name": "Yanghong",
		"_id": 1787581,
		"coord": {
			"lon": 108.315163,
			"lat": 34.519581
		}
	},
	{
		"country": "CN",
		"name": "Yanghou",
		"_id": 1787580,
		"coord": {
			"lon": 118.508057,
			"lat": 26.640829
		}
	},
	{
		"country": "CN",
		"name": "Yanghu",
		"_id": 1787579,
		"coord": {
			"lon": 118.297096,
			"lat": 29.70237
		}
	},
	{
		"country": "CN",
		"name": "Yanghuxiang",
		"_id": 7328917,
		"coord": {
			"lon": 115.493248,
			"lat": 28.0229
		}
	},
	{
		"country": "UZ",
		"name": "Yangi Mirishkor",
		"_id": 1216490,
		"coord": {
			"lon": 65.277893,
			"lat": 38.851429
		}
	},
	{
		"country": "AF",
		"name": "Yangi Qalah",
		"_id": 1121271,
		"coord": {
			"lon": 69.611313,
			"lat": 37.465721
		}
	},
	{
		"country": "UZ",
		"name": "Yangi-Nishon Shahri",
		"_id": 1346493,
		"coord": {
			"lon": 65.689522,
			"lat": 38.645012
		}
	},
	{
		"country": "UZ",
		"name": "Yangiobod",
		"_id": 1512372,
		"coord": {
			"lon": 70.094063,
			"lat": 41.11919
		}
	},
	{
		"country": "UZ",
		"name": "Yangiqorgon",
		"_id": 1512350,
		"coord": {
			"lon": 71.73333,
			"lat": 41.187222
		}
	},
	{
		"country": "UZ",
		"name": "Yangirabot",
		"_id": 1512348,
		"coord": {
			"lon": 65.960953,
			"lat": 40.025391
		}
	},
	{
		"country": "UZ",
		"name": "Yangiyer",
		"_id": 1512342,
		"coord": {
			"lon": 68.822502,
			"lat": 40.275002
		}
	},
	{
		"country": "UZ",
		"name": "Yangiyul",
		"_id": 1512339,
		"coord": {
			"lon": 69.047096,
			"lat": 41.112019
		}
	},
	{
		"country": "UZ",
		"name": "Yangiyŭl Shahri",
		"_id": 1538262,
		"coord": {
			"lon": 69.055,
			"lat": 41.113331
		}
	},
	{
		"country": "CN",
		"name": "Yangji",
		"_id": 1787538,
		"coord": {
			"lon": 112.994919,
			"lat": 31.218941
		}
	},
	{
		"country": "CN",
		"name": "Yangji",
		"_id": 7069747,
		"coord": {
			"lon": 112.992569,
			"lat": 33.327209
		}
	},
	{
		"country": "CN",
		"name": "Yangjia",
		"_id": 1811481,
		"coord": {
			"lon": 121.467323,
			"lat": 30.104429
		}
	},
	{
		"country": "CN",
		"name": "Yangjiachang",
		"_id": 1787557,
		"coord": {
			"lon": 112.284767,
			"lat": 30.06632
		}
	},
	{
		"country": "CN",
		"name": "Yangjiafang",
		"_id": 1928100,
		"coord": {
			"lon": 111.357529,
			"lat": 29.755699
		}
	},
	{
		"country": "CN",
		"name": "Yangjiaji",
		"_id": 1909481,
		"coord": {
			"lon": 113.338448,
			"lat": 32.829479
		}
	},
	{
		"country": "CN",
		"name": "Yangjialusanqiu",
		"_id": 7530465,
		"coord": {
			"lon": 121.067947,
			"lat": 30.219641
		}
	},
	{
		"country": "CN",
		"name": "Yangjian",
		"_id": 1898130,
		"coord": {
			"lon": 120.55632,
			"lat": 31.62575
		}
	},
	{
		"country": "CN",
		"name": "Yangjiang",
		"_id": 1806408,
		"coord": {
			"lon": 111.966667,
			"lat": 21.85
		}
	},
	{
		"country": "CN",
		"name": "Yangjiang",
		"_id": 1787531,
		"coord": {
			"lon": 114.53405,
			"lat": 27.856581
		}
	},
	{
		"country": "CN",
		"name": "Yangjiang",
		"_id": 1894135,
		"coord": {
			"lon": 110.343117,
			"lat": 19.100889
		}
	},
	{
		"country": "CN",
		"name": "Yangjiang",
		"_id": 6957984,
		"coord": {
			"lon": 118.804909,
			"lat": 31.332371
		}
	},
	{
		"country": "CN",
		"name": "Yangjiapo",
		"_id": 1787521,
		"coord": {
			"lon": 117.887497,
			"lat": 39.29417
		}
	},
	{
		"country": "CN",
		"name": "Yangjiapu",
		"_id": 7404519,
		"coord": {
			"lon": 123.330971,
			"lat": 40.192791
		}
	},
	{
		"country": "CN",
		"name": "Yangjinzhuang",
		"_id": 1787481,
		"coord": {
			"lon": 117.398064,
			"lat": 39.884998
		}
	},
	{
		"country": "KR",
		"name": "Yangju",
		"_id": 1832847,
		"coord": {
			"lon": 127.061691,
			"lat": 37.833111
		}
	},
	{
		"country": "CN",
		"name": "Yangla",
		"_id": 6643953,
		"coord": {
			"lon": 99.1278,
			"lat": 28.94183
		}
	},
	{
		"country": "CN",
		"name": "Yanglang",
		"_id": 1787470,
		"coord": {
			"lon": 106.169701,
			"lat": 36.225681
		}
	},
	{
		"country": "CN",
		"name": "Yanglin",
		"_id": 7064737,
		"coord": {
			"lon": 117.691879,
			"lat": 28.141171
		}
	},
	{
		"country": "CN",
		"name": "Yanglin",
		"_id": 7630159,
		"coord": {
			"lon": 127.131554,
			"lat": 46.077599
		}
	},
	{
		"country": "CN",
		"name": "Yangling",
		"_id": 1787458,
		"coord": {
			"lon": 108.078911,
			"lat": 34.271729
		}
	},
	{
		"country": "CN",
		"name": "Yanglinjie",
		"_id": 1793662,
		"coord": {
			"lon": 113.590897,
			"lat": 39.00898
		}
	},
	{
		"country": "CN",
		"name": "Yanglinshi",
		"_id": 1787455,
		"coord": {
			"lon": 111.775551,
			"lat": 29.97875
		}
	},
	{
		"country": "CN",
		"name": "Yangliu",
		"_id": 1787438,
		"coord": {
			"lon": 118.611732,
			"lat": 30.83795
		}
	},
	{
		"country": "CN",
		"name": "Yangliuqing",
		"_id": 1787437,
		"coord": {
			"lon": 116.999718,
			"lat": 39.137501
		}
	},
	{
		"country": "CN",
		"name": "Yanglu",
		"_id": 1787421,
		"coord": {
			"lon": 106.14164,
			"lat": 36.636551
		}
	},
	{
		"country": "CN",
		"name": "Yanglu",
		"_id": 7516123,
		"coord": {
			"lon": 106.14164,
			"lat": 36.636551
		}
	},
	{
		"country": "CN",
		"name": "Yangmaogong",
		"_id": 1538461,
		"coord": {
			"lon": 87.577217,
			"lat": 44.136669
		}
	},
	{
		"country": "CN",
		"name": "Yangmei",
		"_id": 1787409,
		"coord": {
			"lon": 112.56176,
			"lat": 24.10231
		}
	},
	{
		"country": "CN",
		"name": "Yangmen",
		"_id": 7658382,
		"coord": {
			"lon": 114.397102,
			"lat": 27.135469
		}
	},
	{
		"country": "CN",
		"name": "Yangming",
		"_id": 1787397,
		"coord": {
			"lon": 114.934402,
			"lat": 24.45088
		}
	},
	{
		"country": "CN",
		"name": "Yangmingbu",
		"_id": 1787395,
		"coord": {
			"lon": 112.872223,
			"lat": 39.012501
		}
	},
	{
		"country": "CN",
		"name": "Yangmulinzi",
		"_id": 2033489,
		"coord": {
			"lon": 130.496384,
			"lat": 42.902222
		}
	},
	{
		"country": "MM",
		"name": "Yangon Division",
		"_id": 1298822,
		"coord": {
			"lon": 96.166672,
			"lat": 17
		}
	},
	{
		"country": "CN",
		"name": "Yangong",
		"_id": 7638021,
		"coord": {
			"lon": 118.450188,
			"lat": 30.65062
		}
	},
	{
		"country": "CN",
		"name": "Yangping",
		"_id": 1787384,
		"coord": {
			"lon": 107.489861,
			"lat": 34.337898
		}
	},
	{
		"country": "CN",
		"name": "Yangpingguan",
		"_id": 1787381,
		"coord": {
			"lon": 106.053978,
			"lat": 32.962318
		}
	},
	{
		"country": "CN",
		"name": "Yangpu",
		"_id": 1787375,
		"coord": {
			"lon": 121.519043,
			"lat": 31.26193
		}
	},
	{
		"country": "KR",
		"name": "Yangpyong",
		"_id": 1832830,
		"coord": {
			"lon": 127.490562,
			"lat": 37.489719
		}
	},
	{
		"country": "CN",
		"name": "Yangqianhe",
		"_id": 7516251,
		"coord": {
			"lon": 112.305008,
			"lat": 40.101292
		}
	},
	{
		"country": "CN",
		"name": "Yangqiao",
		"_id": 1787367,
		"coord": {
			"lon": 114.589973,
			"lat": 27.95746
		}
	},
	{
		"country": "CN",
		"name": "Yangqiaodian",
		"_id": 1925380,
		"coord": {
			"lon": 116.54184,
			"lat": 28.37162
		}
	},
	{
		"country": "CN",
		"name": "Yangqitan",
		"_id": 1811151,
		"coord": {
			"lon": 118.543678,
			"lat": 29.435141
		}
	},
	{
		"country": "CN",
		"name": "Yangquan",
		"_id": 1787351,
		"coord": {
			"lon": 113.563332,
			"lat": 37.857498
		}
	},
	{
		"country": "KR",
		"name": "Yangsan",
		"_id": 1832828,
		"coord": {
			"lon": 129.038605,
			"lat": 35.338612
		}
	},
	{
		"country": "CN",
		"name": "Yangsha",
		"_id": 1787339,
		"coord": {
			"lon": 103.668159,
			"lat": 34.831551
		}
	},
	{
		"country": "CN",
		"name": "Yangshan",
		"_id": 1787335,
		"coord": {
			"lon": 116.25,
			"lat": 35.183331
		}
	},
	{
		"country": "CN",
		"name": "Yangshan",
		"_id": 1925381,
		"coord": {
			"lon": 115.028702,
			"lat": 28.761471
		}
	},
	{
		"country": "CN",
		"name": "Yangshan",
		"_id": 8246755,
		"coord": {
			"lon": 122.076851,
			"lat": 30.59416
		}
	},
	{
		"country": "CN",
		"name": "Yangshe",
		"_id": 6685842,
		"coord": {
			"lon": 120.605217,
			"lat": 31.88994
		}
	},
	{
		"country": "CN",
		"name": "Yangshi",
		"_id": 7661836,
		"coord": {
			"lon": 112.899979,
			"lat": 30.36978
		}
	},
	{
		"country": "CN",
		"name": "Yangshu",
		"_id": 1553494,
		"coord": {
			"lon": 117.509048,
			"lat": 29.945539
		}
	},
	{
		"country": "CN",
		"name": "Yangshufang",
		"_id": 2033483,
		"coord": {
			"lon": 122.4328,
			"lat": 40.242538
		}
	},
	{
		"country": "CN",
		"name": "Yangshuo",
		"_id": 1787323,
		"coord": {
			"lon": 110.48967,
			"lat": 24.780809
		}
	},
	{
		"country": "CN",
		"name": "Yangsi",
		"_id": 1925382,
		"coord": {
			"lon": 115.755508,
			"lat": 28.99378
		}
	},
	{
		"country": "CN",
		"name": "Yangtan",
		"_id": 1787313,
		"coord": {
			"lon": 111.538467,
			"lat": 35.775162
		}
	},
	{
		"country": "CN",
		"name": "Yangtan",
		"_id": 1787314,
		"coord": {
			"lon": 119.16806,
			"lat": 30.70583
		}
	},
	{
		"country": "CN",
		"name": "Yangtian",
		"_id": 1899343,
		"coord": {
			"lon": 105.664528,
			"lat": 33.18396
		}
	},
	{
		"country": "CN",
		"name": "Yangtou",
		"_id": 1787304,
		"coord": {
			"lon": 109.413887,
			"lat": 27.68944
		}
	},
	{
		"country": "CN",
		"name": "Yanguan",
		"_id": 1881661,
		"coord": {
			"lon": 120.54673,
			"lat": 30.45607
		}
	},
	{
		"country": "ES",
		"name": "Yanguas",
		"_id": 6361242,
		"coord": {
			"lon": -2.32504,
			"lat": 42.117161
		}
	},
	{
		"country": "ES",
		"name": "Yanguas",
		"_id": 3104444,
		"coord": {
			"lon": -2.33986,
			"lat": 42.101719
		}
	},
	{
		"country": "ES",
		"name": "Yanguas de Eresma",
		"_id": 6360947,
		"coord": {
			"lon": -4.25148,
			"lat": 41.066921
		}
	},
	{
		"country": "ES",
		"name": "Yanguas de Eresma",
		"_id": 3104443,
		"coord": {
			"lon": -4.23905,
			"lat": 41.07201
		}
	},
	{
		"country": "CN",
		"name": "Yangwang",
		"_id": 1787285,
		"coord": {
			"lon": 111.115211,
			"lat": 35.50716
		}
	},
	{
		"country": "CN",
		"name": "Yangxi",
		"_id": 1787272,
		"coord": {
			"lon": 118.642097,
			"lat": 30.15667
		}
	},
	{
		"country": "CN",
		"name": "Yangxi",
		"_id": 1787274,
		"coord": {
			"lon": 116.731918,
			"lat": 28.229771
		}
	},
	{
		"country": "CN",
		"name": "Yangxi",
		"_id": 1787277,
		"coord": {
			"lon": 114.213249,
			"lat": 27.297991
		}
	},
	{
		"country": "CN",
		"name": "Yangxi",
		"_id": 1787278,
		"coord": {
			"lon": 117.726723,
			"lat": 26.311411
		}
	},
	{
		"country": "CN",
		"name": "Yangxi",
		"_id": 7454440,
		"coord": {
			"lon": 116.39254,
			"lat": 26.62191
		}
	},
	{
		"country": "CN",
		"name": "Yangxu",
		"_id": 1787255,
		"coord": {
			"lon": 115.158493,
			"lat": 28.369221
		}
	},
	{
		"country": "CN",
		"name": "Yangxunqiao",
		"_id": 7735248,
		"coord": {
			"lon": 120.355942,
			"lat": 30.14328
		}
	},
	{
		"country": "KR",
		"name": "Yangyang",
		"_id": 1832809,
		"coord": {
			"lon": 128.621109,
			"lat": 38.073891
		}
	},
	{
		"country": "CN",
		"name": "Yangye",
		"_id": 7757674,
		"coord": {
			"lon": 115.066406,
			"lat": 30.31506
		}
	},
	{
		"country": "CN",
		"name": "Yangying",
		"_id": 1908845,
		"coord": {
			"lon": 112.167023,
			"lat": 33.0023
		}
	},
	{
		"country": "CN",
		"name": "Yangyong",
		"_id": 7432952,
		"coord": {
			"lon": 103.471977,
			"lat": 34.645901
		}
	},
	{
		"country": "CN",
		"name": "Yangyong",
		"_id": 7446325,
		"coord": {
			"lon": 103.478081,
			"lat": 34.648529
		}
	},
	{
		"country": "CN",
		"name": "Yangyu",
		"_id": 1787246,
		"coord": {
			"lon": 111.090973,
			"lat": 35.42012
		}
	},
	{
		"country": "CN",
		"name": "Yangyu",
		"_id": 1787247,
		"coord": {
			"lon": 108.206421,
			"lat": 34.651211
		}
	},
	{
		"country": "CN",
		"name": "Yangzhai",
		"_id": 1787497,
		"coord": {
			"lon": 113.995079,
			"lat": 31.517241
		}
	},
	{
		"country": "CN",
		"name": "Yangzhong",
		"_id": 1787230,
		"coord": {
			"lon": 119.374443,
			"lat": 26.705561
		}
	},
	{
		"country": "CN",
		"name": "Yangzhou",
		"_id": 1787227,
		"coord": {
			"lon": 119.435829,
			"lat": 32.397221
		}
	},
	{
		"country": "CN",
		"name": "Yangzhou",
		"_id": 1787228,
		"coord": {
			"lon": 115.38028,
			"lat": 29.16279
		}
	},
	{
		"country": "CN",
		"name": "Yangzhuang",
		"_id": 1910091,
		"coord": {
			"lon": 113.481049,
			"lat": 33.26852
		}
	},
	{
		"country": "CN",
		"name": "Yangzhuang",
		"_id": 1910101,
		"coord": {
			"lon": 113.837433,
			"lat": 33.337132
		}
	},
	{
		"country": "CN",
		"name": "Yangzhuang",
		"_id": 1910178,
		"coord": {
			"lon": 113.035027,
			"lat": 33.835758
		}
	},
	{
		"country": "CN",
		"name": "Yangzhuang",
		"_id": 1998359,
		"coord": {
			"lon": 109.140327,
			"lat": 34.041248
		}
	},
	{
		"country": "CN",
		"name": "Yangzhuang",
		"_id": 7446494,
		"coord": {
			"lon": 104.0392,
			"lat": 35.067181
		}
	},
	{
		"country": "CN",
		"name": "Yangzi",
		"_id": 1787206,
		"coord": {
			"lon": 116.604118,
			"lat": 29.6413
		}
	},
	{
		"country": "CN",
		"name": "Yangzi",
		"_id": 1787208,
		"coord": {
			"lon": 112.632431,
			"lat": 31.292101
		}
	},
	{
		"country": "CN",
		"name": "Yangzizhou",
		"_id": 7328867,
		"coord": {
			"lon": 115.905937,
			"lat": 28.722191
		}
	},
	{
		"country": "CN",
		"name": "Yangzongnan Hengjie",
		"_id": 1787204,
		"coord": {
			"lon": 102.969452,
			"lat": 24.82222
		}
	},
	{
		"country": "CN",
		"name": "Yanhe",
		"_id": 6825373,
		"coord": {
			"lon": 102.495918,
			"lat": 24.25876
		}
	},
	{
		"country": "CN",
		"name": "Yanhe",
		"_id": 6962805,
		"coord": {
			"lon": 106.338707,
			"lat": 32.547039
		}
	},
	{
		"country": "CN",
		"name": "Yanhe",
		"_id": 7628682,
		"coord": {
			"lon": 126.919746,
			"lat": 45.11586
		}
	},
	{
		"country": "CN",
		"name": "Yanhong",
		"_id": 1919643,
		"coord": {
			"lon": 116.867538,
			"lat": 23.608801
		}
	},
	{
		"country": "TR",
		"name": "Yaniklar",
		"_id": 7280504,
		"coord": {
			"lon": 29.05081,
			"lat": 36.708271
		}
	},
	{
		"country": "AU",
		"name": "Yaninee",
		"_id": 2057534,
		"coord": {
			"lon": 135.266663,
			"lat": -32.950001
		}
	},
	{
		"country": "RU",
		"name": "Yanino Pervoye",
		"_id": 546213,
		"coord": {
			"lon": 30.555834,
			"lat": 59.946667
		}
	},
	{
		"country": "RU",
		"name": "Yanino Vtoroye",
		"_id": 469087,
		"coord": {
			"lon": 30.615339,
			"lat": 59.935501
		}
	},
	{
		"country": "RU",
		"name": "Yanishpole",
		"_id": 469083,
		"coord": {
			"lon": 34.27562,
			"lat": 62.11467
		}
	},
	{
		"country": "RU",
		"name": "Yanisyarvi",
		"_id": 469081,
		"coord": {
			"lon": 30.950001,
			"lat": 61.883331
		}
	},
	{
		"country": "CN",
		"name": "Yanji",
		"_id": 2033467,
		"coord": {
			"lon": 129.507782,
			"lat": 42.907501
		}
	},
	{
		"country": "CN",
		"name": "Yanjiang",
		"_id": 1783683,
		"coord": {
			"lon": 104.648109,
			"lat": 30.12108
		}
	},
	{
		"country": "CN",
		"name": "Yanjiao",
		"_id": 1787178,
		"coord": {
			"lon": 118.041107,
			"lat": 29.82
		}
	},
	{
		"country": "CN",
		"name": "Yanjing",
		"_id": 1787162,
		"coord": {
			"lon": 106.347504,
			"lat": 29.94278
		}
	},
	{
		"country": "CN",
		"name": "Yanjing",
		"_id": 1787163,
		"coord": {
			"lon": 111.759438,
			"lat": 29.84277
		}
	},
	{
		"country": "CN",
		"name": "Yanjing",
		"_id": 1787164,
		"coord": {
			"lon": 101.509682,
			"lat": 27.426991
		}
	},
	{
		"country": "CN",
		"name": "Yanjing",
		"_id": 1787166,
		"coord": {
			"lon": 104.189003,
			"lat": 28.072069
		}
	},
	{
		"country": "AU",
		"name": "Yankalilla",
		"_id": 7839471,
		"coord": {
			"lon": 138.342255,
			"lat": -35.4939
		}
	},
	{
		"country": "AU",
		"name": "Yankalilla",
		"_id": 2057532,
		"coord": {
			"lon": 138.350006,
			"lat": -35.466671
		}
	},
	{
		"country": "CN",
		"name": "Yankou",
		"_id": 1787151,
		"coord": {
			"lon": 106.28669,
			"lat": 30.351151
		}
	},
	{
		"country": "CN",
		"name": "Yankou",
		"_id": 1787152,
		"coord": {
			"lon": 111.088058,
			"lat": 27.34833
		}
	},
	{
		"country": "US",
		"name": "Yankton",
		"_id": 5233053,
		"coord": {
			"lon": -97.397278,
			"lat": 42.871109
		}
	},
	{
		"country": "US",
		"name": "Yankton County",
		"_id": 5233056,
		"coord": {
			"lon": -97.383667,
			"lat": 43.049999
		}
	},
	{
		"country": "CN",
		"name": "Yanliang",
		"_id": 1787144,
		"coord": {
			"lon": 109.22921,
			"lat": 34.65918
		}
	},
	{
		"country": "CN",
		"name": "Yanling",
		"_id": 1787143,
		"coord": {
			"lon": 104.661079,
			"lat": 29.530649
		}
	},
	{
		"country": "CN",
		"name": "Yanliupu",
		"_id": 8016799,
		"coord": {
			"lon": 111.128143,
			"lat": 29.569189
		}
	},
	{
		"country": "CN",
		"name": "Yanmen",
		"_id": 1787131,
		"coord": {
			"lon": 109.74028,
			"lat": 27.855
		}
	},
	{
		"country": "CN",
		"name": "Yanmen",
		"_id": 6643961,
		"coord": {
			"lon": 99.023163,
			"lat": 28.07225
		}
	},
	{
		"country": "CN",
		"name": "Yanmenguan",
		"_id": 1787129,
		"coord": {
			"lon": 112.859459,
			"lat": 39.190182
		}
	},
	{
		"country": "CN",
		"name": "Yanmenkou",
		"_id": 7661837,
		"coord": {
			"lon": 112.974693,
			"lat": 30.83473
		}
	},
	{
		"country": "AU",
		"name": "Yannathan",
		"_id": 2142569,
		"coord": {
			"lon": 145.649994,
			"lat": -38.23333
		}
	},
	{
		"country": "AU",
		"name": "Yannergee",
		"_id": 2142567,
		"coord": {
			"lon": 150.033325,
			"lat": -31.450001
		}
	},
	{
		"country": "JP",
		"name": "Yanohama",
		"_id": 1848528,
		"coord": {
			"lon": 136.199997,
			"lat": 34.066669
		}
	},
	{
		"country": "CN",
		"name": "Yanping",
		"_id": 7578272,
		"coord": {
			"lon": 126.911217,
			"lat": 42.268681
		}
	},
	{
		"country": "CN",
		"name": "Yanqi",
		"_id": 1529031,
		"coord": {
			"lon": 86.568329,
			"lat": 42.058609
		}
	},
	{
		"country": "CN",
		"name": "Yanqian",
		"_id": 1787125,
		"coord": {
			"lon": 117.451637,
			"lat": 26.26259
		}
	},
	{
		"country": "CN",
		"name": "Yanqiao",
		"_id": 1787123,
		"coord": {
			"lon": 120.330948,
			"lat": 31.712721
		}
	},
	{
		"country": "CN",
		"name": "Yanqing",
		"_id": 2033458,
		"coord": {
			"lon": 115.966667,
			"lat": 40.466671
		}
	},
	{
		"country": "OM",
		"name": "Yanqul",
		"_id": 411849,
		"coord": {
			"lon": 56.550079,
			"lat": 23.590509
		}
	},
	{
		"country": "CN",
		"name": "Yanrui",
		"_id": 1924365,
		"coord": {
			"lon": 118.337151,
			"lat": 28.713989
		}
	},
	{
		"country": "CN",
		"name": "Yansi",
		"_id": 1787094,
		"coord": {
			"lon": 118.336792,
			"lat": 29.82365
		}
	},
	{
		"country": "CN",
		"name": "Yanta",
		"_id": 2001380,
		"coord": {
			"lon": 108.9524,
			"lat": 34.20636
		}
	},
	{
		"country": "CN",
		"name": "Yantai",
		"_id": 1787093,
		"coord": {
			"lon": 121.400002,
			"lat": 37.533329
		}
	},
	{
		"country": "RU",
		"name": "Yantal",
		"_id": 2055868,
		"coord": {
			"lon": 105.254204,
			"lat": 56.847099
		}
	},
	{
		"country": "CN",
		"name": "Yantan",
		"_id": 1787080,
		"coord": {
			"lon": 104.873802,
			"lat": 29.27396
		}
	},
	{
		"country": "CN",
		"name": "Yantang",
		"_id": 1787079,
		"coord": {
			"lon": 113.695831,
			"lat": 26.78833
		}
	},
	{
		"country": "UA",
		"name": "Yantarne",
		"_id": 7018912,
		"coord": {
			"lon": 34.222069,
			"lat": 45.433819
		}
	},
	{
		"country": "RU",
		"name": "Yantarnyy",
		"_id": 2609894,
		"coord": {
			"lon": 19.938057,
			"lat": 54.871666
		}
	},
	{
		"country": "CN",
		"name": "Yantian",
		"_id": 1787072,
		"coord": {
			"lon": 114.37429,
			"lat": 27.36594
		}
	},
	{
		"country": "CN",
		"name": "Yantian",
		"_id": 1787073,
		"coord": {
			"lon": 119.857498,
			"lat": 26.853331
		}
	},
	{
		"country": "CN",
		"name": "Yantian",
		"_id": 1787075,
		"coord": {
			"lon": 114.26722,
			"lat": 22.584221
		}
	},
	{
		"country": "CN",
		"name": "Yantianhe",
		"_id": 7757669,
		"coord": {
			"lon": 115.171303,
			"lat": 30.96973
		}
	},
	{
		"country": "RU",
		"name": "Yantikovo",
		"_id": 469049,
		"coord": {
			"lon": 47.910358,
			"lat": 55.821579
		}
	},
	{
		"country": "RU",
		"name": "Yantikovo",
		"_id": 469050,
		"coord": {
			"lon": 47.77927,
			"lat": 55.52103
		}
	},
	{
		"country": "CN",
		"name": "Yantongshan",
		"_id": 2033449,
		"coord": {
			"lon": 126.009438,
			"lat": 43.291939
		}
	},
	{
		"country": "CN",
		"name": "Yantou",
		"_id": 1787065,
		"coord": {
			"lon": 113.329018,
			"lat": 39.060589
		}
	},
	{
		"country": "EC",
		"name": "Yantzaza",
		"_id": 3650053,
		"coord": {
			"lon": -78.759438,
			"lat": -3.82778
		}
	},
	{
		"country": "CN",
		"name": "Yanwan",
		"_id": 1787059,
		"coord": {
			"lon": 106.978302,
			"lat": 34.033699
		}
	},
	{
		"country": "CN",
		"name": "Yanwang",
		"_id": 1999718,
		"coord": {
			"lon": 108.801941,
			"lat": 34.571671
		}
	},
	{
		"country": "CN",
		"name": "Yanweigang",
		"_id": 1787057,
		"coord": {
			"lon": 119.76667,
			"lat": 34.466671
		}
	},
	{
		"country": "CN",
		"name": "Yanwu",
		"_id": 1787053,
		"coord": {
			"lon": 107.073677,
			"lat": 36.1577
		}
	},
	{
		"country": "CN",
		"name": "Yanwukou",
		"_id": 1927922,
		"coord": {
			"lon": 109.916458,
			"lat": 29.501381
		}
	},
	{
		"country": "CN",
		"name": "Yanxi",
		"_id": 1787048,
		"coord": {
			"lon": 115.039047,
			"lat": 27.64255
		}
	},
	{
		"country": "CN",
		"name": "Yanxia",
		"_id": 1787046,
		"coord": {
			"lon": 114.862793,
			"lat": 29.56974
		}
	},
	{
		"country": "CN",
		"name": "Yanxia",
		"_id": 1998706,
		"coord": {
			"lon": 108.54306,
			"lat": 34.575562
		}
	},
	{
		"country": "CN",
		"name": "Yanyang",
		"_id": 7746307,
		"coord": {
			"lon": 115.124496,
			"lat": 29.12076
		}
	},
	{
		"country": "CN",
		"name": "Yanzhen",
		"_id": 1919348,
		"coord": {
			"lon": 115.444939,
			"lat": 24.490721
		}
	},
	{
		"country": "CN",
		"name": "Yanzhou",
		"_id": 1787031,
		"coord": {
			"lon": 116.828613,
			"lat": 35.55278
		}
	},
	{
		"country": "CN",
		"name": "Yanzhou",
		"_id": 7029917,
		"coord": {
			"lon": 114.93866,
			"lat": 22.725719
		}
	},
	{
		"country": "CN",
		"name": "Yanzi",
		"_id": 1787022,
		"coord": {
			"lon": 110.220284,
			"lat": 29.96806
		}
	},
	{
		"country": "CN",
		"name": "Yanzibian",
		"_id": 1787020,
		"coord": {
			"lon": 105.9254,
			"lat": 32.901192
		}
	},
	{
		"country": "CN",
		"name": "Yanzihe",
		"_id": 1787016,
		"coord": {
			"lon": 113.605057,
			"lat": 31.968969
		}
	},
	{
		"country": "CN",
		"name": "Yan’an",
		"_id": 1787765,
		"coord": {
			"lon": 109.491669,
			"lat": 36.598888
		}
	},
	{
		"country": "JP",
		"name": "Yao",
		"_id": 1848522,
		"coord": {
			"lon": 135.600006,
			"lat": 34.616669
		}
	},
	{
		"country": "CN",
		"name": "Yaoan",
		"_id": 1920524,
		"coord": {
			"lon": 112.405518,
			"lat": 25.01824
		}
	},
	{
		"country": "CN",
		"name": "Yaocheng",
		"_id": 1787005,
		"coord": {
			"lon": 114.701393,
			"lat": 37.3325
		}
	},
	{
		"country": "CN",
		"name": "Yaocun",
		"_id": 1787003,
		"coord": {
			"lon": 119.100578,
			"lat": 30.891809
		}
	},
	{
		"country": "CN",
		"name": "Yaodian",
		"_id": 1786996,
		"coord": {
			"lon": 108.851936,
			"lat": 34.407501
		}
	},
	{
		"country": "CN",
		"name": "Yaodu",
		"_id": 1786990,
		"coord": {
			"lon": 117.01667,
			"lat": 30.1
		}
	},
	{
		"country": "CN",
		"name": "Yaofeng",
		"_id": 1789752,
		"coord": {
			"lon": 111.212219,
			"lat": 35.138611
		}
	},
	{
		"country": "CN",
		"name": "Yaojia",
		"_id": 1916663,
		"coord": {
			"lon": 118.783623,
			"lat": 29.552601
		}
	},
	{
		"country": "CN",
		"name": "Yaojiadian",
		"_id": 1786997,
		"coord": {
			"lon": 111.43763,
			"lat": 30.36681
		}
	},
	{
		"country": "CN",
		"name": "Yaojiagou",
		"_id": 1786964,
		"coord": {
			"lon": 107.521477,
			"lat": 34.56641
		}
	},
	{
		"country": "CN",
		"name": "Yaoli",
		"_id": 1786955,
		"coord": {
			"lon": 117.57502,
			"lat": 29.546209
		}
	},
	{
		"country": "MX",
		"name": "Yaonahuac",
		"_id": 3514326,
		"coord": {
			"lon": -97.449997,
			"lat": 19.866671
		}
	},
	{
		"country": "CN",
		"name": "Yaopi",
		"_id": 1786948,
		"coord": {
			"lon": 113.644173,
			"lat": 26.88694
		}
	},
	{
		"country": "CN",
		"name": "Yaosai",
		"_id": 7525692,
		"coord": {
			"lon": 120.282097,
			"lat": 31.90543
		}
	},
	{
		"country": "CN",
		"name": "Yaoshan",
		"_id": 7057435,
		"coord": {
			"lon": 112.383728,
			"lat": 33.752628
		}
	},
	{
		"country": "CN",
		"name": "Yaoshan",
		"_id": 7679689,
		"coord": {
			"lon": 119.065781,
			"lat": 29.964439
		}
	},
	{
		"country": "CN",
		"name": "Yaoshi",
		"_id": 1786926,
		"coord": {
			"lon": 109.936592,
			"lat": 34.057961
		}
	},
	{
		"country": "CN",
		"name": "Yaoshi",
		"_id": 1786927,
		"coord": {
			"lon": 109.530281,
			"lat": 27.639441
		}
	},
	{
		"country": "CN",
		"name": "Yaoshi",
		"_id": 1786928,
		"coord": {
			"lon": 110.789169,
			"lat": 26.29306
		}
	},
	{
		"country": "CN",
		"name": "Yaoshui",
		"_id": 1930423,
		"coord": {
			"lon": 113.689171,
			"lat": 26.826941
		}
	},
	{
		"country": "CN",
		"name": "Yaotian",
		"_id": 1917121,
		"coord": {
			"lon": 113.826111,
			"lat": 23.983061
		}
	},
	{
		"country": "CN",
		"name": "Yaotian",
		"_id": 1925398,
		"coord": {
			"lon": 115.620789,
			"lat": 27.129641
		}
	},
	{
		"country": "JP",
		"name": "Yaotsu",
		"_id": 1848518,
		"coord": {
			"lon": 137.149994,
			"lat": 35.466671
		}
	},
	{
		"country": "AU",
		"name": "Yaouk",
		"_id": 2142552,
		"coord": {
			"lon": 148.800003,
			"lat": -35.816669
		}
	},
	{
		"country": "CM",
		"name": "Yaounde",
		"_id": 2220957,
		"coord": {
			"lon": 11.51667,
			"lat": 3.86667
		}
	},
	{
		"country": "CN",
		"name": "Yaowang",
		"_id": 1786960,
		"coord": {
			"lon": 120.066673,
			"lat": 32.216671
		}
	},
	{
		"country": "CN",
		"name": "Yaoxu",
		"_id": 1786893,
		"coord": {
			"lon": 115.208122,
			"lat": 27.85428
		}
	},
	{
		"country": "CN",
		"name": "Yaoxu",
		"_id": 1925399,
		"coord": {
			"lon": 116.793114,
			"lat": 28.1096
		}
	},
	{
		"country": "CN",
		"name": "Yaozhou",
		"_id": 1786900,
		"coord": {
			"lon": 108.970001,
			"lat": 34.905281
		}
	},
	{
		"country": "CN",
		"name": "Yaozhuang",
		"_id": 1910186,
		"coord": {
			"lon": 113.270943,
			"lat": 33.875751
		}
	},
	{
		"country": "CN",
		"name": "Yaozhuang",
		"_id": 7735218,
		"coord": {
			"lon": 120.956512,
			"lat": 30.91399
		}
	},
	{
		"country": "PH",
		"name": "Yapak",
		"_id": 1723907,
		"coord": {
			"lon": 121.933327,
			"lat": 11.95
		}
	},
	{
		"country": "AU",
		"name": "Yapeen",
		"_id": 2142548,
		"coord": {
			"lon": 144.183334,
			"lat": -37.133331
		}
	},
	{
		"country": "AR",
		"name": "Yapeyu",
		"_id": 3427279,
		"coord": {
			"lon": -56.818409,
			"lat": -29.469139
		}
	},
	{
		"country": "US",
		"name": "Yaphank",
		"_id": 5145197,
		"coord": {
			"lon": -72.917053,
			"lat": 40.836769
		}
	},
	{
		"country": "TR",
		"name": "Yaprakbasi",
		"_id": 297704,
		"coord": {
			"lon": 40.544819,
			"lat": 37.653969
		}
	},
	{
		"country": "TR",
		"name": "Yaprakli",
		"_id": 737980,
		"coord": {
			"lon": 33.778191,
			"lat": 40.757851
		}
	},
	{
		"country": "CO",
		"name": "Yapurquer",
		"_id": 3828718,
		"coord": {
			"lon": -77.731049,
			"lat": 0.8482
		}
	},
	{
		"country": "CN",
		"name": "Yaqian",
		"_id": 1786875,
		"coord": {
			"lon": 116.452881,
			"lat": 28.289829
		}
	},
	{
		"country": "CN",
		"name": "Yaqian",
		"_id": 7735276,
		"coord": {
			"lon": 120.403664,
			"lat": 30.1621
		}
	},
	{
		"country": "CN",
		"name": "Yaquehu",
		"_id": 7636837,
		"coord": {
			"lon": 116.629402,
			"lat": 29.3239
		}
	},
	{
		"country": "CN",
		"name": "Yaqueling",
		"_id": 1786872,
		"coord": {
			"lon": 111.586151,
			"lat": 30.64543
		}
	},
	{
		"country": "MX",
		"name": "Yaqui",
		"_id": 3979975,
		"coord": {
			"lon": -110.166672,
			"lat": 27.366671
		}
	},
	{
		"country": "RU",
		"name": "Yar",
		"_id": 469017,
		"coord": {
			"lon": 52.102581,
			"lat": 58.248981
		}
	},
	{
		"country": "RU",
		"name": "Yar-Sale",
		"_id": 1486321,
		"coord": {
			"lon": 70.833328,
			"lat": 66.833328
		}
	},
	{
		"country": "CU",
		"name": "Yara",
		"_id": 3533753,
		"coord": {
			"lon": -76.953331,
			"lat": 20.27528
		}
	},
	{
		"country": "VE",
		"name": "Yaracal",
		"_id": 3625214,
		"coord": {
			"lon": -68.54435,
			"lat": 10.97099
		}
	},
	{
		"country": "IN",
		"name": "Yarada",
		"_id": 1252783,
		"coord": {
			"lon": 83.26667,
			"lat": 17.65
		}
	},
	{
		"country": "TH",
		"name": "Yarang",
		"_id": 1604863,
		"coord": {
			"lon": 101.293388,
			"lat": 6.75986
		}
	},
	{
		"country": "RU",
		"name": "Yaransk",
		"_id": 469005,
		"coord": {
			"lon": 47.886108,
			"lat": 57.30331
		}
	},
	{
		"country": "AU",
		"name": "Yarck",
		"_id": 2142537,
		"coord": {
			"lon": 145.616669,
			"lat": -37.099998
		}
	},
	{
		"country": "AZ",
		"name": "Yardimli",
		"_id": 146961,
		"coord": {
			"lon": 48.237221,
			"lat": 38.920559
		}
	},
	{
		"country": "US",
		"name": "Yardley",
		"_id": 5816621,
		"coord": {
			"lon": -117.333542,
			"lat": 47.667122
		}
	},
	{
		"country": "US",
		"name": "Yardley",
		"_id": 5220281,
		"coord": {
			"lon": -74.846001,
			"lat": 40.245659
		}
	},
	{
		"country": "US",
		"name": "Yardville",
		"_id": 4833084,
		"coord": {
			"lon": -74.664322,
			"lat": 40.181221
		}
	},
	{
		"country": "AZ",
		"name": "Yardymli Rayon",
		"_id": 146962,
		"coord": {
			"lon": 48.25,
			"lat": 38.916672
		}
	},
	{
		"country": "BG",
		"name": "Yarebitsa",
		"_id": 725554,
		"coord": {
			"lon": 27,
			"lat": 43.849998
		}
	},
	{
		"country": "RU",
		"name": "Yarega",
		"_id": 468991,
		"coord": {
			"lon": 53.5765,
			"lat": 63.435429
		}
	},
	{
		"country": "UA",
		"name": "Yaremche",
		"_id": 688455,
		"coord": {
			"lon": 24.551945,
			"lat": 48.458332
		}
	},
	{
		"country": "NR",
		"name": "Yaren",
		"_id": 2110418,
		"coord": {
			"lon": 166.915985,
			"lat": -0.54724
		}
	},
	{
		"country": "RU",
		"name": "Yarensk",
		"_id": 468983,
		"coord": {
			"lon": 49.091621,
			"lat": 62.167549
		}
	},
	{
		"country": "RU",
		"name": "Yarikta",
		"_id": 2013101,
		"coord": {
			"lon": 110.01667,
			"lat": 53.933331
		}
	},
	{
		"country": "YE",
		"name": "Yarim",
		"_id": 69559,
		"coord": {
			"lon": 44.377949,
			"lat": 14.29804
		}
	},
	{
		"country": "TH",
		"name": "Yaring",
		"_id": 1604771,
		"coord": {
			"lon": 101.368942,
			"lat": 6.86617
		}
	},
	{
		"country": "VE",
		"name": "Yaritagua",
		"_id": 3625207,
		"coord": {
			"lon": -69.126106,
			"lat": 10.08
		}
	},
	{
		"country": "UA",
		"name": "Yarizovka",
		"_id": 688451,
		"coord": {
			"lon": 34.5,
			"lat": 48.950001
		}
	},
	{
		"country": "CA",
		"name": "Yarker",
		"_id": 6185213,
		"coord": {
			"lon": -76.766121,
			"lat": 44.383419
		}
	},
	{
		"country": "RU",
		"name": "Yarkovo",
		"_id": 1486369,
		"coord": {
			"lon": 67.078613,
			"lat": 57.402779
		}
	},
	{
		"country": "RU",
		"name": "Yarkovo",
		"_id": 1486371,
		"coord": {
			"lon": 82.5989,
			"lat": 54.805599
		}
	},
	{
		"country": "AU",
		"name": "Yarlington",
		"_id": 2142527,
		"coord": {
			"lon": 147.333328,
			"lat": -42.549999
		}
	},
	{
		"country": "AU",
		"name": "Yarloop",
		"_id": 2057470,
		"coord": {
			"lon": 115.900002,
			"lat": -32.966671
		}
	},
	{
		"country": "BG",
		"name": "Yarlovo",
		"_id": 725551,
		"coord": {
			"lon": 23.283331,
			"lat": 42.466671
		}
	},
	{
		"country": "RU",
		"name": "Yarlykovo",
		"_id": 817687,
		"coord": {
			"lon": 37.859444,
			"lat": 55.27861
		}
	},
	{
		"country": "GB",
		"name": "Yarm",
		"_id": 2633415,
		"coord": {
			"lon": -1.35793,
			"lat": 54.503639
		}
	},
	{
		"country": "TR",
		"name": "Yarma",
		"_id": 297628,
		"coord": {
			"lon": 32.882778,
			"lat": 37.811489
		}
	},
	{
		"country": "UA",
		"name": "Yarmolyntsi",
		"_id": 688440,
		"coord": {
			"lon": 26.83725,
			"lat": 49.19236
		}
	},
	{
		"country": "CA",
		"name": "Yarmouth",
		"_id": 6185217,
		"coord": {
			"lon": -66.11557,
			"lat": 43.83345
		}
	},
	{
		"country": "US",
		"name": "Yarmouth",
		"_id": 4956335,
		"coord": {
			"lon": -70.22863,
			"lat": 41.705669
		}
	},
	{
		"country": "GB",
		"name": "Yarmouth",
		"_id": 2633414,
		"coord": {
			"lon": -1.49929,
			"lat": 50.705292
		}
	},
	{
		"country": "US",
		"name": "Yarmouth",
		"_id": 4983572,
		"coord": {
			"lon": -70.186722,
			"lat": 43.80064
		}
	},
	{
		"country": "US",
		"name": "Yarmouth Junction",
		"_id": 4983578,
		"coord": {
			"lon": -70.193657,
			"lat": 43.81369
		}
	},
	{
		"country": "US",
		"name": "Yarmouth Port",
		"_id": 4956338,
		"coord": {
			"lon": -70.249458,
			"lat": 41.702049
		}
	},
	{
		"country": "GB",
		"name": "Yarnton",
		"_id": 2633412,
		"coord": {
			"lon": -1.30694,
			"lat": 51.80986
		}
	},
	{
		"country": "RU",
		"name": "Yaropolets",
		"_id": 468927,
		"coord": {
			"lon": 35.833172,
			"lat": 56.133331
		}
	},
	{
		"country": "RU",
		"name": "Yaroslavl",
		"_id": 468902,
		"coord": {
			"lon": 39.873676,
			"lat": 57.629871
		}
	},
	{
		"country": "RU",
		"name": "Yaroslavskaya",
		"_id": 468899,
		"coord": {
			"lon": 40.464169,
			"lat": 44.610561
		}
	},
	{
		"country": "RU",
		"name": "Yaroslavskaya Oblast’",
		"_id": 468898,
		"coord": {
			"lon": 39.5,
			"lat": 58
		}
	},
	{
		"country": "RU",
		"name": "Yaroslavskiy",
		"_id": 2013089,
		"coord": {
			"lon": 132.207214,
			"lat": 44.168331
		}
	},
	{
		"country": "RU",
		"name": "Yaroslavskiy",
		"_id": 530088,
		"coord": {
			"lon": 37.721668,
			"lat": 55.88139
		}
	},
	{
		"country": "RU",
		"name": "Yarovoye",
		"_id": 1486340,
		"coord": {
			"lon": 78.580002,
			"lat": 52.927299
		}
	},
	{
		"country": "AU",
		"name": "Yarpturk",
		"_id": 2142523,
		"coord": {
			"lon": 142.433334,
			"lat": -38.299999
		}
	},
	{
		"country": "JO",
		"name": "Yarqa",
		"_id": 245939,
		"coord": {
			"lon": 35.694729,
			"lat": 31.978451
		}
	},
	{
		"country": "AU",
		"name": "Yarra",
		"_id": 2142522,
		"coord": {
			"lon": 149.633331,
			"lat": -34.783329
		}
	},
	{
		"country": "AU",
		"name": "Yarra Glen",
		"_id": 2142507,
		"coord": {
			"lon": 145.366669,
			"lat": -37.666672
		}
	},
	{
		"country": "AU",
		"name": "Yarra Junction",
		"_id": 2142501,
		"coord": {
			"lon": 145.616669,
			"lat": -37.783329
		}
	},
	{
		"country": "AU",
		"name": "Yarra Ranges",
		"_id": 7839837,
		"coord": {
			"lon": 145.737076,
			"lat": -37.750061
		}
	},
	{
		"country": "AU",
		"name": "Yarrabandai",
		"_id": 2142518,
		"coord": {
			"lon": 147.600006,
			"lat": -33.133331
		}
	},
	{
		"country": "AU",
		"name": "Yarraford",
		"_id": 2142509,
		"coord": {
			"lon": 151.783325,
			"lat": -29.65
		}
	},
	{
		"country": "AU",
		"name": "Yarragon",
		"_id": 2142506,
		"coord": {
			"lon": 146.066666,
			"lat": -38.200001
		}
	},
	{
		"country": "AU",
		"name": "Yarragundry",
		"_id": 2142503,
		"coord": {
			"lon": 147.233337,
			"lat": -35.116669
		}
	},
	{
		"country": "AU",
		"name": "Yarram",
		"_id": 2142494,
		"coord": {
			"lon": 146.666672,
			"lat": -38.566669
		}
	},
	{
		"country": "AU",
		"name": "Yarramalong",
		"_id": 2142493,
		"coord": {
			"lon": 151.283325,
			"lat": -33.23333
		}
	},
	{
		"country": "AU",
		"name": "Yarraman",
		"_id": 2142492,
		"coord": {
			"lon": 151.983337,
			"lat": -26.83333
		}
	},
	{
		"country": "AU",
		"name": "Yarrambat",
		"_id": 2142478,
		"coord": {
			"lon": 145.003387,
			"lat": -37.804909
		}
	},
	{
		"country": "AU",
		"name": "Yarranlea",
		"_id": 2142466,
		"coord": {
			"lon": 151.533325,
			"lat": -27.73333
		}
	},
	{
		"country": "AU",
		"name": "Yarras",
		"_id": 2142459,
		"coord": {
			"lon": 152.350006,
			"lat": -31.41667
		}
	},
	{
		"country": "AU",
		"name": "Yarraville",
		"_id": 2142457,
		"coord": {
			"lon": 144.899994,
			"lat": -37.816669
		}
	},
	{
		"country": "AU",
		"name": "Yarrawalla",
		"_id": 2142455,
		"coord": {
			"lon": 144.033325,
			"lat": -36.066669
		}
	},
	{
		"country": "AU",
		"name": "Yarrawarrah",
		"_id": 2205980,
		"coord": {
			"lon": 151.033325,
			"lat": -34.049999
		}
	},
	{
		"country": "AU",
		"name": "Yarrawonga",
		"_id": 2142447,
		"coord": {
			"lon": 146,
			"lat": -36.01667
		}
	},
	{
		"country": "AU",
		"name": "Yarriambiack",
		"_id": 7839838,
		"coord": {
			"lon": 142.404526,
			"lat": -36.02618
		}
	},
	{
		"country": "AU",
		"name": "Yarrie Lake",
		"_id": 2142439,
		"coord": {
			"lon": 149.516663,
			"lat": -30.35
		}
	},
	{
		"country": "CA",
		"name": "Yarrow",
		"_id": 7669010,
		"coord": {
			"lon": -122.050339,
			"lat": 49.082069
		}
	},
	{
		"country": "US",
		"name": "Yarrow Point",
		"_id": 5816626,
		"coord": {
			"lon": -122.217346,
			"lat": 47.64621
		}
	},
	{
		"country": "AU",
		"name": "Yarroweyah",
		"_id": 2142426,
		"coord": {
			"lon": 145.550003,
			"lat": -35.933331
		}
	},
	{
		"country": "AU",
		"name": "Yarrowitch",
		"_id": 2142425,
		"coord": {
			"lon": 151.949997,
			"lat": -31.25
		}
	},
	{
		"country": "AU",
		"name": "Yarrowyck",
		"_id": 2142420,
		"coord": {
			"lon": 151.350006,
			"lat": -30.466669
		}
	},
	{
		"country": "RU",
		"name": "Yartsevo",
		"_id": 468859,
		"coord": {
			"lon": 43.833332,
			"lat": 57.900002
		}
	},
	{
		"country": "RU",
		"name": "Yartsevo",
		"_id": 468867,
		"coord": {
			"lon": 32.666672,
			"lat": 55.066669
		}
	},
	{
		"country": "RU",
		"name": "Yartsevo",
		"_id": 468866,
		"coord": {
			"lon": 32.696388,
			"lat": 55.066669
		}
	},
	{
		"country": "HN",
		"name": "Yaruchel",
		"_id": 3600236,
		"coord": {
			"lon": -88.816673,
			"lat": 14.53333
		}
	},
	{
		"country": "CO",
		"name": "Yarumal",
		"_id": 3787902,
		"coord": {
			"lon": -75.67083,
			"lat": 6.89028
		}
	},
	{
		"country": "CO",
		"name": "Yarumal",
		"_id": 3665741,
		"coord": {
			"lon": -75.417381,
			"lat": 6.96321
		}
	},
	{
		"country": "HN",
		"name": "Yarumela",
		"_id": 3600232,
		"coord": {
			"lon": -87.633331,
			"lat": 14.33333
		}
	},
	{
		"country": "EE",
		"name": "Yarvekyulya",
		"_id": 591951,
		"coord": {
			"lon": 24.79278,
			"lat": 59.376671
		}
	},
	{
		"country": "AU",
		"name": "Yarwun",
		"_id": 2142413,
		"coord": {
			"lon": 151.116669,
			"lat": -23.85
		}
	},
	{
		"country": "YE",
		"name": "Yarīm",
		"_id": 69558,
		"coord": {
			"lon": 44.31176,
			"lat": 14.25388
		}
	},
	{
		"country": "RU",
		"name": "Yasennaya",
		"_id": 468799,
		"coord": {
			"lon": 31.966667,
			"lat": 54.766666
		}
	},
	{
		"country": "RU",
		"name": "Yasenskaya",
		"_id": 468782,
		"coord": {
			"lon": 38.269001,
			"lat": 46.3592
		}
	},
	{
		"country": "BY",
		"name": "Yasen’",
		"_id": 8020123,
		"coord": {
			"lon": 27.3592,
			"lat": 53.4492
		}
	},
	{
		"country": "RU",
		"name": "Yashalta",
		"_id": 468776,
		"coord": {
			"lon": 42.276199,
			"lat": 46.3395
		}
	},
	{
		"country": "CN",
		"name": "Yashan",
		"_id": 1786867,
		"coord": {
			"lon": 109.94194,
			"lat": 22.1975
		}
	},
	{
		"country": "CN",
		"name": "Yashan",
		"_id": 1786866,
		"coord": {
			"lon": 118.01667,
			"lat": 30.816669
		}
	},
	{
		"country": "NG",
		"name": "Yashikera",
		"_id": 2318238,
		"coord": {
			"lon": 3.4,
			"lat": 9.76667
		}
	},
	{
		"country": "JP",
		"name": "Yashio-shi",
		"_id": 1848499,
		"coord": {
			"lon": 139.83905,
			"lat": 35.822552
		}
	},
	{
		"country": "JP",
		"name": "Yashiro",
		"_id": 1848498,
		"coord": {
			"lon": 134.966675,
			"lat": 34.916672
		}
	},
	{
		"country": "RU",
		"name": "Yashkino",
		"_id": 1486298,
		"coord": {
			"lon": 85.426498,
			"lat": 55.8736
		}
	},
	{
		"country": "RU",
		"name": "Yashkul",
		"_id": 468747,
		"coord": {
			"lon": 45.343498,
			"lat": 46.171101
		}
	},
	{
		"country": "PS",
		"name": "Yasid",
		"_id": 281297,
		"coord": {
			"lon": 35.277569,
			"lat": 32.296879
		}
	},
	{
		"country": "UA",
		"name": "Yasinovataya",
		"_id": 688373,
		"coord": {
			"lon": 37.859402,
			"lat": 48.129799
		}
	},
	{
		"country": "UA",
		"name": "Yasinya",
		"_id": 688365,
		"coord": {
			"lon": 24.36042,
			"lat": 48.279369
		}
	},
	{
		"country": "RU",
		"name": "Yaskino",
		"_id": 6417681,
		"coord": {
			"lon": 37.271942,
			"lat": 55.665001
		}
	},
	{
		"country": "UA",
		"name": "Yasna Polyana",
		"_id": 688357,
		"coord": {
			"lon": 34.633331,
			"lat": 46.183334
		}
	},
	{
		"country": "RU",
		"name": "Yasnaya Polyana",
		"_id": 805755,
		"coord": {
			"lon": 42.753899,
			"lat": 44.022499
		}
	},
	{
		"country": "RU",
		"name": "Yasnaya Polyana",
		"_id": 468682,
		"coord": {
			"lon": 42.216667,
			"lat": 59.666668
		}
	},
	{
		"country": "RU",
		"name": "Yasnaya Polyana",
		"_id": 468691,
		"coord": {
			"lon": 37.527779,
			"lat": 54.071388
		}
	},
	{
		"country": "KZ",
		"name": "Yasnaya Polyana",
		"_id": 1517310,
		"coord": {
			"lon": 70.283333,
			"lat": 53.950001
		}
	},
	{
		"country": "RU",
		"name": "Yasnogorsk",
		"_id": 468671,
		"coord": {
			"lon": 37.697498,
			"lat": 54.480278
		}
	},
	{
		"country": "RU",
		"name": "Yasnyy",
		"_id": 468657,
		"coord": {
			"lon": 59.874199,
			"lat": 51.033298
		}
	},
	{
		"country": "BY",
		"name": "Yasnyy Les",
		"_id": 619670,
		"coord": {
			"lon": 29.35,
			"lat": 53.166668
		}
	},
	{
		"country": "TH",
		"name": "Yasothon",
		"_id": 1604769,
		"coord": {
			"lon": 104.145103,
			"lat": 15.79408
		}
	},
	{
		"country": "AU",
		"name": "Yass",
		"_id": 2142412,
		"coord": {
			"lon": 148.916672,
			"lat": -34.833328
		}
	},
	{
		"country": "AU",
		"name": "Yass Valley",
		"_id": 7839793,
		"coord": {
			"lon": 148.972397,
			"lat": -34.9263
		}
	},
	{
		"country": "RU",
		"name": "Yastrebki",
		"_id": 468632,
		"coord": {
			"lon": 36.764721,
			"lat": 55.671944
		}
	},
	{
		"country": "JP",
		"name": "Yasu",
		"_id": 1848489,
		"coord": {
			"lon": 136.02327,
			"lat": 35.068008
		}
	},
	{
		"country": "PS",
		"name": "Yasuf",
		"_id": 281295,
		"coord": {
			"lon": 35.237839,
			"lat": 32.10841
		}
	},
	{
		"country": "JP",
		"name": "Yasugi",
		"_id": 1848482,
		"coord": {
			"lon": 133.25,
			"lat": 35.433331
		}
	},
	{
		"country": "IR",
		"name": "Yasuj",
		"_id": 66093,
		"coord": {
			"lon": 51.587959,
			"lat": 30.66824
		}
	},
	{
		"country": "TR",
		"name": "Yatagan",
		"_id": 297564,
		"coord": {
			"lon": 28.14279,
			"lat": 37.34026
		}
	},
	{
		"country": "PY",
		"name": "Yataity",
		"_id": 3436657,
		"coord": {
			"lon": -56.066669,
			"lat": -26.366671
		}
	},
	{
		"country": "AR",
		"name": "Yataity Calle",
		"_id": 3427273,
		"coord": {
			"lon": -58.908459,
			"lat": -29.019131
		}
	},
	{
		"country": "PY",
		"name": "Yataity del Norte",
		"_id": 3436655,
		"coord": {
			"lon": -56.349998,
			"lat": -24.83333
		}
	},
	{
		"country": "AU",
		"name": "Yatala",
		"_id": 2142409,
		"coord": {
			"lon": 153.216675,
			"lat": -27.716669
		}
	},
	{
		"country": "AU",
		"name": "Yatchaw",
		"_id": 2142407,
		"coord": {
			"lon": 142.100006,
			"lat": -37.816669
		}
	},
	{
		"country": "GB",
		"name": "Yate",
		"_id": 7300065,
		"coord": {
			"lon": -2.40944,
			"lat": 51.54805
		}
	},
	{
		"country": "GB",
		"name": "Yate",
		"_id": 2633406,
		"coord": {
			"lon": -2.41839,
			"lat": 51.540741
		}
	},
	{
		"country": "NC",
		"name": "Yate-Barrage",
		"_id": 2137644,
		"coord": {
			"lon": 166.883331,
			"lat": -22.15
		}
	},
	{
		"country": "GB",
		"name": "Yateley",
		"_id": 6620293,
		"coord": {
			"lon": -0.82985,
			"lat": 51.343048
		}
	},
	{
		"country": "US",
		"name": "Yates Center",
		"_id": 4282061,
		"coord": {
			"lon": -95.733322,
			"lat": 37.881149
		}
	},
	{
		"country": "CN",
		"name": "Yatian",
		"_id": 1929865,
		"coord": {
			"lon": 111.014442,
			"lat": 27.59194
		}
	},
	{
		"country": "AU",
		"name": "Yatina",
		"_id": 2057421,
		"coord": {
			"lon": 138.666672,
			"lat": -32.933331
		}
	},
	{
		"country": "PS",
		"name": "Yatma",
		"_id": 281293,
		"coord": {
			"lon": 35.269089,
			"lat": 32.108891
		}
	},
	{
		"country": "ID",
		"name": "Yatnyaketi",
		"_id": 7084591,
		"coord": {
			"lon": 114.93,
			"lat": -8.2371
		}
	},
	{
		"country": "CN",
		"name": "Yatou",
		"_id": 1786855,
		"coord": {
			"lon": 122.383331,
			"lat": 37.150002
		}
	},
	{
		"country": "ES",
		"name": "Yatova",
		"_id": 2509406,
		"coord": {
			"lon": -0.8,
			"lat": 39.383331
		}
	},
	{
		"country": "JP",
		"name": "Yatsuo",
		"_id": 1848447,
		"coord": {
			"lon": 137.133331,
			"lat": 36.566669
		}
	},
	{
		"country": "JP",
		"name": "Yatsushiro",
		"_id": 1848445,
		"coord": {
			"lon": 130.600006,
			"lat": 32.5
		}
	},
	{
		"country": "JP",
		"name": "Yatsuzawa",
		"_id": 1848440,
		"coord": {
			"lon": 139.116669,
			"lat": 35.616669
		}
	},
	{
		"country": "GB",
		"name": "Yatton",
		"_id": 2633403,
		"coord": {
			"lon": -2.53333,
			"lat": 51.966671
		}
	},
	{
		"country": "GB",
		"name": "Yatton",
		"_id": 2633404,
		"coord": {
			"lon": -2.81667,
			"lat": 51.383331
		}
	},
	{
		"country": "CN",
		"name": "Yatunpu",
		"_id": 1786854,
		"coord": {
			"lon": 109.626671,
			"lat": 26.155001
		}
	},
	{
		"country": "NC",
		"name": "Yaté-Village",
		"_id": 2137643,
		"coord": {
			"lon": 166.899994,
			"lat": -22.15
		}
	},
	{
		"country": "PR",
		"name": "Yauco",
		"_id": 4568917,
		"coord": {
			"lon": -66.849899,
			"lat": 18.03496
		}
	},
	{
		"country": "PR",
		"name": "Yauco Municipio",
		"_id": 4568918,
		"coord": {
			"lon": -66.855179,
			"lat": 18.078569
		}
	},
	{
		"country": "PR",
		"name": "Yaurel",
		"_id": 4568957,
		"coord": {
			"lon": -66.057114,
			"lat": 18.026911
		}
	},
	{
		"country": "MX",
		"name": "Yautepec",
		"_id": 3514321,
		"coord": {
			"lon": -99.067146,
			"lat": 18.88188
		}
	},
	{
		"country": "PE",
		"name": "Yauya",
		"_id": 3690733,
		"coord": {
			"lon": -77.300003,
			"lat": -8.98333
		}
	},
	{
		"country": "IN",
		"name": "Yaval",
		"_id": 1252773,
		"coord": {
			"lon": 75.699997,
			"lat": 21.16667
		}
	},
	{
		"country": "US",
		"name": "Yavapai County",
		"_id": 5321860,
		"coord": {
			"lon": -112.375717,
			"lat": 34.508362
		}
	},
	{
		"country": "MX",
		"name": "Yavaros",
		"_id": 3979962,
		"coord": {
			"lon": -109.51667,
			"lat": 26.700001
		}
	},
	{
		"country": "RU",
		"name": "Yavas",
		"_id": 468587,
		"coord": {
			"lon": 42.849098,
			"lat": 54.415901
		}
	},
	{
		"country": "IN",
		"name": "Yavatmal",
		"_id": 1252770,
		"coord": {
			"lon": 78.133331,
			"lat": 20.4
		}
	},
	{
		"country": "PA",
		"name": "Yaviza",
		"_id": 3699980,
		"coord": {
			"lon": -77.693077,
			"lat": 8.1537
		}
	},
	{
		"country": "KZ",
		"name": "Yavlenka",
		"_id": 1517305,
		"coord": {
			"lon": 68.457497,
			"lat": 54.346111
		}
	},
	{
		"country": "IL",
		"name": "Yavne",
		"_id": 293222,
		"coord": {
			"lon": 34.740002,
			"lat": 31.87639
		}
	},
	{
		"country": "IL",
		"name": "Yavneel",
		"_id": 293220,
		"coord": {
			"lon": 35.506618,
			"lat": 32.70356
		}
	},
	{
		"country": "UA",
		"name": "Yavoriv",
		"_id": 688288,
		"coord": {
			"lon": 23.38254,
			"lat": 49.938641
		}
	},
	{
		"country": "UA",
		"name": "Yavoruv",
		"_id": 688279,
		"coord": {
			"lon": 22.914049,
			"lat": 49.016739
		}
	},
	{
		"country": "TR",
		"name": "Yavuzeli",
		"_id": 297532,
		"coord": {
			"lon": 37.568241,
			"lat": 37.317719
		}
	},
	{
		"country": "CN",
		"name": "Yawangkou",
		"_id": 1786853,
		"coord": {
			"lon": 117.216667,
			"lat": 36.816669
		}
	},
	{
		"country": "JP",
		"name": "Yawata",
		"_id": 1848439,
		"coord": {
			"lon": 135.702698,
			"lat": 34.87009
		}
	},
	{
		"country": "MX",
		"name": "Yaxchoj",
		"_id": 3514297,
		"coord": {
			"lon": -92.133331,
			"lat": 16.25
		}
	},
	{
		"country": "MX",
		"name": "Yaxcopoil",
		"_id": 3514293,
		"coord": {
			"lon": -89.466667,
			"lat": 20.75
		}
	},
	{
		"country": "CN",
		"name": "Yaxing",
		"_id": 1783554,
		"coord": {
			"lon": 109.262733,
			"lat": 19.447781
		}
	},
	{
		"country": "GB",
		"name": "Yaxley",
		"_id": 2633399,
		"coord": {
			"lon": -0.25852,
			"lat": 52.517681
		}
	},
	{
		"country": "RU",
		"name": "Yaya",
		"_id": 1486261,
		"coord": {
			"lon": 86.440002,
			"lat": 56.206001
		}
	},
	{
		"country": "DO",
		"name": "Yayas de Viajama",
		"_id": 3491736,
		"coord": {
			"lon": -70.927528,
			"lat": 18.6071
		}
	},
	{
		"country": "TR",
		"name": "Yayladagi",
		"_id": 297466,
		"coord": {
			"lon": 36.062721,
			"lat": 35.9025
		}
	},
	{
		"country": "TR",
		"name": "Yayladere",
		"_id": 297461,
		"coord": {
			"lon": 40.0695,
			"lat": 39.226139
		}
	},
	{
		"country": "TR",
		"name": "Yayli",
		"_id": 297416,
		"coord": {
			"lon": 40.754768,
			"lat": 37.202011
		}
	},
	{
		"country": "UZ",
		"name": "Yaypan",
		"_id": 1512320,
		"coord": {
			"lon": 70.815559,
			"lat": 40.375832
		}
	},
	{
		"country": "RU",
		"name": "Yayva",
		"_id": 468560,
		"coord": {
			"lon": 57.26408,
			"lat": 59.33033
		}
	},
	{
		"country": "TR",
		"name": "Yayvantepe",
		"_id": 297404,
		"coord": {
			"lon": 41.520199,
			"lat": 37.30117
		}
	},
	{
		"country": "IR",
		"name": "Yazd",
		"_id": 111822,
		"coord": {
			"lon": 54.3675,
			"lat": 31.897221
		}
	},
	{
		"country": "CN",
		"name": "Yazhou",
		"_id": 1786841,
		"coord": {
			"lon": 120.325562,
			"lat": 32.390831
		}
	},
	{
		"country": "TR",
		"name": "Yazihan",
		"_id": 297371,
		"coord": {
			"lon": 38.18,
			"lat": 38.594719
		}
	},
	{
		"country": "PK",
		"name": "Yazman Mandi",
		"_id": 1162316,
		"coord": {
			"lon": 71.744591,
			"lat": 29.12122
		}
	},
	{
		"country": "US",
		"name": "Yazoo City",
		"_id": 4451810,
		"coord": {
			"lon": -90.405647,
			"lat": 32.855129
		}
	},
	{
		"country": "GB",
		"name": "Yazor",
		"_id": 2633398,
		"coord": {
			"lon": -2.86667,
			"lat": 52.116669
		}
	},
	{
		"country": "RU",
		"name": "Yazykovo",
		"_id": 468483,
		"coord": {
			"lon": 56.135319,
			"lat": 55.219879
		}
	},
	{
		"country": "RU",
		"name": "Yazykovo",
		"_id": 468486,
		"coord": {
			"lon": 47.389099,
			"lat": 54.292198
		}
	},
	{
		"country": "RU",
		"name": "Yazykovo",
		"_id": 468479,
		"coord": {
			"lon": 37.349998,
			"lat": 56.23333
		}
	},
	{
		"country": "TR",
		"name": "Yazıbaşı",
		"_id": 7590363,
		"coord": {
			"lon": 36.873531,
			"lat": 39.821079
		}
	},
	{
		"country": "TR",
		"name": "Yazıkonak",
		"_id": 297362,
		"coord": {
			"lon": 39.299999,
			"lat": 38.61161
		}
	},
	{
		"country": "TR",
		"name": "Yazılıkaya Yaylası",
		"_id": 297347,
		"coord": {
			"lon": 30.6,
			"lat": 39.150002
		}
	},
	{
		"country": "AT",
		"name": "Ybbs an der Donau",
		"_id": 7871831,
		"coord": {
			"lon": 15.07832,
			"lat": 48.177052
		}
	},
	{
		"country": "AT",
		"name": "Ybbs an der Donau",
		"_id": 2760772,
		"coord": {
			"lon": 15.08333,
			"lat": 48.166672
		}
	},
	{
		"country": "AT",
		"name": "Ybbsitz",
		"_id": 7872831,
		"coord": {
			"lon": 14.90534,
			"lat": 47.924229
		}
	},
	{
		"country": "AT",
		"name": "Ybbsitz",
		"_id": 2760770,
		"coord": {
			"lon": 14.88333,
			"lat": 47.933331
		}
	},
	{
		"country": "PY",
		"name": "Ybycui",
		"_id": 3436642,
		"coord": {
			"lon": -57.049999,
			"lat": -26.01667
		}
	},
	{
		"country": "FR",
		"name": "Ychoux",
		"_id": 6434019,
		"coord": {
			"lon": -0.96667,
			"lat": 44.333328
		}
	},
	{
		"country": "FR",
		"name": "Ychoux",
		"_id": 2967253,
		"coord": {
			"lon": -0.9518,
			"lat": 44.32869
		}
	},
	{
		"country": "NL",
		"name": "Yde",
		"_id": 2744130,
		"coord": {
			"lon": 6.59306,
			"lat": 53.115829
		}
	},
	{
		"country": "FR",
		"name": "Ydes",
		"_id": 6427682,
		"coord": {
			"lon": 2.438,
			"lat": 45.347401
		}
	},
	{
		"country": "FR",
		"name": "Ydes",
		"_id": 2967252,
		"coord": {
			"lon": 2.46667,
			"lat": 45.333328
		}
	},
	{
		"country": "GR",
		"name": "Ydra",
		"_id": 261822,
		"coord": {
			"lon": 23.46697,
			"lat": 37.350948
		}
	},
	{
		"country": "GR",
		"name": "Ydroussa",
		"_id": 261816,
		"coord": {
			"lon": 26.751671,
			"lat": 37.779442
		}
	},
	{
		"country": "GB",
		"name": "Yeadon",
		"_id": 2633397,
		"coord": {
			"lon": -1.68743,
			"lat": 53.864368
		}
	},
	{
		"country": "US",
		"name": "Yeadon",
		"_id": 4562430,
		"coord": {
			"lon": -75.255463,
			"lat": 39.938999
		}
	},
	{
		"country": "US",
		"name": "Yeager",
		"_id": 4556125,
		"coord": {
			"lon": -96.339447,
			"lat": 35.157581
		}
	},
	{
		"country": "US",
		"name": "Yeagertown",
		"_id": 5220310,
		"coord": {
			"lon": -77.580551,
			"lat": 40.643131
		}
	},
	{
		"country": "AU",
		"name": "Yealering",
		"_id": 2057415,
		"coord": {
			"lon": 117.616669,
			"lat": -32.599998
		}
	},
	{
		"country": "GB",
		"name": "Yealmpton",
		"_id": 2633394,
		"coord": {
			"lon": -3.99877,
			"lat": 50.34856
		}
	},
	{
		"country": "CN",
		"name": "Yebaishou",
		"_id": 2033423,
		"coord": {
			"lon": 119.640831,
			"lat": 41.397499
		}
	},
	{
		"country": "PH",
		"name": "Yeban",
		"_id": 1679488,
		"coord": {
			"lon": 121.94194,
			"lat": 17.02195
		}
	},
	{
		"country": "ES",
		"name": "Yebes",
		"_id": 6358083,
		"coord": {
			"lon": -3.1048,
			"lat": 40.548939
		}
	},
	{
		"country": "ES",
		"name": "Yebes",
		"_id": 3104439,
		"coord": {
			"lon": -3.10782,
			"lat": 40.53162
		}
	},
	{
		"country": "FR",
		"name": "Yebleron",
		"_id": 2967251,
		"coord": {
			"lon": 0.53746,
			"lat": 49.633331
		}
	},
	{
		"country": "ES",
		"name": "Yebra",
		"_id": 6358084,
		"coord": {
			"lon": -2.95558,
			"lat": 40.35136
		}
	},
	{
		"country": "ES",
		"name": "Yebra",
		"_id": 3104438,
		"coord": {
			"lon": -2.9663,
			"lat": 40.357021
		}
	},
	{
		"country": "ES",
		"name": "Yebra de Basa",
		"_id": 6358444,
		"coord": {
			"lon": -0.2435,
			"lat": 42.487011
		}
	},
	{
		"country": "ES",
		"name": "Yebra de Basa",
		"_id": 3104436,
		"coord": {
			"lon": -0.28178,
			"lat": 42.486469
		}
	},
	{
		"country": "MX",
		"name": "Yecapixtla",
		"_id": 3514278,
		"coord": {
			"lon": -98.866669,
			"lat": 18.883329
		}
	},
	{
		"country": "IN",
		"name": "Yechagām",
		"_id": 1252765,
		"coord": {
			"lon": 74.76667,
			"lat": 33.98333
		}
	},
	{
		"country": "ES",
		"name": "Yecla",
		"_id": 6359547,
		"coord": {
			"lon": -1.1296,
			"lat": 38.65514
		}
	},
	{
		"country": "ES",
		"name": "Yecla",
		"_id": 2509402,
		"coord": {
			"lon": -1.11468,
			"lat": 38.613651
		}
	},
	{
		"country": "ES",
		"name": "Yecla de Yeltes",
		"_id": 6360613,
		"coord": {
			"lon": -6.48063,
			"lat": 40.946781
		}
	},
	{
		"country": "ES",
		"name": "Yecla de Yeltes",
		"_id": 3104435,
		"coord": {
			"lon": -6.48904,
			"lat": 40.959171
		}
	},
	{
		"country": "MX",
		"name": "Yecuatla",
		"_id": 3514277,
		"coord": {
			"lon": -96.75,
			"lat": 19.866671
		}
	},
	{
		"country": "TR",
		"name": "Yedisu",
		"_id": 297286,
		"coord": {
			"lon": 40.54417,
			"lat": 39.43306
		}
	},
	{
		"country": "TR",
		"name": "Yediyol",
		"_id": 297280,
		"coord": {
			"lon": 41.11639,
			"lat": 37.942501
		}
	},
	{
		"country": "RU",
		"name": "Yednevo",
		"_id": 468454,
		"coord": {
			"lon": 36.233334,
			"lat": 56.099998
		}
	},
	{
		"country": "CN",
		"name": "Yedun",
		"_id": 1914421,
		"coord": {
			"lon": 118.141617,
			"lat": 26.909849
		}
	},
	{
		"country": "SO",
		"name": "Yeed",
		"_id": 49593,
		"coord": {
			"lon": 43.033329,
			"lat": 4.55
		}
	},
	{
		"country": "AU",
		"name": "Yeelanna",
		"_id": 2057402,
		"coord": {
			"lon": 135.733337,
			"lat": -34.150002
		}
	},
	{
		"country": "RU",
		"name": "Yefimovka",
		"_id": 468424,
		"coord": {
			"lon": 37.228889,
			"lat": 55.231945
		}
	},
	{
		"country": "RU",
		"name": "Yefimovo",
		"_id": 468418,
		"coord": {
			"lon": 44.75,
			"lat": 58.299999
		}
	},
	{
		"country": "RU",
		"name": "Yefim’yevo",
		"_id": 468401,
		"coord": {
			"lon": 36.099998,
			"lat": 56.150002
		}
	},
	{
		"country": "RU",
		"name": "Yefino",
		"_id": 468397,
		"coord": {
			"lon": 43.671665,
			"lat": 57.746113
		}
	},
	{
		"country": "RU",
		"name": "Yefremov",
		"_id": 468390,
		"coord": {
			"lon": 38.099239,
			"lat": 53.14806
		}
	},
	{
		"country": "RU",
		"name": "Yefremovskaya",
		"_id": 468364,
		"coord": {
			"lon": 38.984165,
			"lat": 55.422779
		}
	},
	{
		"country": "RU",
		"name": "Yefutino",
		"_id": 6608597,
		"coord": {
			"lon": 43.559444,
			"lat": 56.806389
		}
	},
	{
		"country": "RU",
		"name": "Yeganovo",
		"_id": 468345,
		"coord": {
			"lon": 38.02972,
			"lat": 55.535
		}
	},
	{
		"country": "ES",
		"name": "Yegen",
		"_id": 2509397,
		"coord": {
			"lon": -3.119,
			"lat": 36.98103
		}
	},
	{
		"country": "AM",
		"name": "Yeghegis",
		"_id": 174980,
		"coord": {
			"lon": 45.36002,
			"lat": 39.871811
		}
	},
	{
		"country": "AM",
		"name": "Yeghegnadzor",
		"_id": 174710,
		"coord": {
			"lon": 45.33239,
			"lat": 39.763889
		}
	},
	{
		"country": "AM",
		"name": "Yeghegnavan",
		"_id": 174709,
		"coord": {
			"lon": 44.625309,
			"lat": 39.83799
		}
	},
	{
		"country": "AM",
		"name": "Yeghegnut",
		"_id": 616060,
		"coord": {
			"lon": 44.63155,
			"lat": 40.903019
		}
	},
	{
		"country": "AM",
		"name": "Yeghegnut",
		"_id": 616061,
		"coord": {
			"lon": 44.160179,
			"lat": 40.091862
		}
	},
	{
		"country": "AM",
		"name": "Yeghvard",
		"_id": 616065,
		"coord": {
			"lon": 44.48138,
			"lat": 40.32053
		}
	},
	{
		"country": "RU",
		"name": "Yegorlykskaya",
		"_id": 468307,
		"coord": {
			"lon": 40.656212,
			"lat": 46.565639
		}
	},
	{
		"country": "RU",
		"name": "Yegoryevsk",
		"_id": 468250,
		"coord": {
			"lon": 39.041111,
			"lat": 55.378334
		}
	},
	{
		"country": "PY",
		"name": "Yegros",
		"_id": 3436617,
		"coord": {
			"lon": -56.400002,
			"lat": -26.450001
		}
	},
	{
		"country": "UA",
		"name": "Yehorove",
		"_id": 826042,
		"coord": {
			"lon": 36.482777,
			"lat": 45.385834
		}
	},
	{
		"country": "MX",
		"name": "Yehualtepec",
		"_id": 3514272,
		"coord": {
			"lon": -97.650002,
			"lat": 18.783331
		}
	},
	{
		"country": "SS",
		"name": "Yei",
		"_id": 363619,
		"coord": {
			"lon": 30.677919,
			"lat": 4.09504
		}
	},
	{
		"country": "CN",
		"name": "Yejia",
		"_id": 1790363,
		"coord": {
			"lon": 119.287659,
			"lat": 30.40764
		}
	},
	{
		"country": "RU",
		"name": "Yekaterinburg",
		"_id": 1486209,
		"coord": {
			"lon": 60.612499,
			"lat": 56.857498
		}
	},
	{
		"country": "RU",
		"name": "Yekaterinoslavka",
		"_id": 2013032,
		"coord": {
			"lon": 129.113861,
			"lat": 50.37336
		}
	},
	{
		"country": "RU",
		"name": "Yekaterinoslavskiy",
		"_id": 468197,
		"coord": {
			"lon": 40.168331,
			"lat": 45.342777
		}
	},
	{
		"country": "RU",
		"name": "Yekaterinovka",
		"_id": 2013030,
		"coord": {
			"lon": 133.047226,
			"lat": 42.924999
		}
	},
	{
		"country": "RU",
		"name": "Yekaterinovka",
		"_id": 468180,
		"coord": {
			"lon": 44.34515,
			"lat": 52.050831
		}
	},
	{
		"country": "RU",
		"name": "Yekaterinovka",
		"_id": 468127,
		"coord": {
			"lon": 37.383331,
			"lat": 55.766666
		}
	},
	{
		"country": "RU",
		"name": "Yekaterinovka",
		"_id": 802105,
		"coord": {
			"lon": 39.037777,
			"lat": 47.314999
		}
	},
	{
		"country": "RU",
		"name": "Yekimikha",
		"_id": 468119,
		"coord": {
			"lon": 42.433334,
			"lat": 59.883331
		}
	},
	{
		"country": "RU",
		"name": "Yekimovichi",
		"_id": 468116,
		"coord": {
			"lon": 33.296478,
			"lat": 54.11285
		}
	},
	{
		"country": "RU",
		"name": "Yekimtsevo",
		"_id": 468102,
		"coord": {
			"lon": 42.333332,
			"lat": 59
		}
	},
	{
		"country": "RU",
		"name": "Yekusha",
		"_id": 468091,
		"coord": {
			"lon": 52.966671,
			"lat": 67.666672
		}
	},
	{
		"country": "RU",
		"name": "Yelabuga",
		"_id": 468082,
		"coord": {
			"lon": 52.06493,
			"lat": 55.761269
		}
	},
	{
		"country": "IN",
		"name": "Yelahanka",
		"_id": 1252758,
		"coord": {
			"lon": 77.600281,
			"lat": 13.1075
		}
	},
	{
		"country": "ES",
		"name": "Yelamos de Abajo",
		"_id": 3104429,
		"coord": {
			"lon": -2.85803,
			"lat": 40.63092
		}
	},
	{
		"country": "ES",
		"name": "Yelamos de Arriba",
		"_id": 3104428,
		"coord": {
			"lon": -2.8434,
			"lat": 40.640079
		}
	},
	{
		"country": "RU",
		"name": "Yelan",
		"_id": 468063,
		"coord": {
			"lon": 43.737808,
			"lat": 50.949001
		}
	},
	{
		"country": "RU",
		"name": "Yelan-Koleno",
		"_id": 468044,
		"coord": {
			"lon": 41.230598,
			"lat": 51.152302
		}
	},
	{
		"country": "RU",
		"name": "Yelan-Kolenovskiy",
		"_id": 468042,
		"coord": {
			"lon": 41.151001,
			"lat": 51.1632
		}
	},
	{
		"country": "IN",
		"name": "Yelandur",
		"_id": 1252756,
		"coord": {
			"lon": 77.033333,
			"lat": 12.06667
		}
	},
	{
		"country": "UA",
		"name": "Yelanets’",
		"_id": 688221,
		"coord": {
			"lon": 31.85253,
			"lat": 47.696819
		}
	},
	{
		"country": "RU",
		"name": "Yelanskiy",
		"_id": 2052150,
		"coord": {
			"lon": 101.371109,
			"lat": 54.34972
		}
	},
	{
		"country": "RU",
		"name": "Yelanskiy",
		"_id": 1486164,
		"coord": {
			"lon": 62.5014,
			"lat": 56.8419
		}
	},
	{
		"country": "AU",
		"name": "Yelarbon",
		"_id": 2142378,
		"coord": {
			"lon": 150.75,
			"lat": -28.566669
		}
	},
	{
		"country": "RU",
		"name": "Yelatma",
		"_id": 468030,
		"coord": {
			"lon": 41.750832,
			"lat": 54.967499
		}
	},
	{
		"country": "IN",
		"name": "Yelbarga",
		"_id": 1252753,
		"coord": {
			"lon": 76.01667,
			"lat": 15.63333
		}
	},
	{
		"country": "AU",
		"name": "Yelbeni",
		"_id": 2057393,
		"coord": {
			"lon": 117.666672,
			"lat": -31.183331
		}
	},
	{
		"country": "PW",
		"name": "Yelch - New Village",
		"_id": 4038353,
		"coord": {
			"lon": 134.5457,
			"lat": 7.36051
		}
	},
	{
		"country": "ES",
		"name": "Yeles",
		"_id": 6361860,
		"coord": {
			"lon": -3.78375,
			"lat": 40.121399
		}
	},
	{
		"country": "ES",
		"name": "Yeles",
		"_id": 3104427,
		"coord": {
			"lon": -3.80487,
			"lat": 40.12035
		}
	},
	{
		"country": "RU",
		"name": "Yelesino",
		"_id": 6418652,
		"coord": {
			"lon": 44.277222,
			"lat": 56.298058
		}
	},
	{
		"country": "RU",
		"name": "Yelets",
		"_id": 467978,
		"coord": {
			"lon": 38.50169,
			"lat": 52.623661
		}
	},
	{
		"country": "RU",
		"name": "Yelevo",
		"_id": 6607941,
		"coord": {
			"lon": 43.834999,
			"lat": 56.531113
		}
	},
	{
		"country": "RU",
		"name": "Yelgazino",
		"_id": 467951,
		"coord": {
			"lon": 37.866669,
			"lat": 55.416668
		}
	},
	{
		"country": "AU",
		"name": "Yelgun",
		"_id": 2142377,
		"coord": {
			"lon": 153.516663,
			"lat": -28.48333
		}
	},
	{
		"country": "CN",
		"name": "Yeliguan",
		"_id": 1786811,
		"coord": {
			"lon": 103.660492,
			"lat": 34.964401
		}
	},
	{
		"country": "CN",
		"name": "Yelin",
		"_id": 7635189,
		"coord": {
			"lon": 110.041061,
			"lat": 18.52216
		}
	},
	{
		"country": "RU",
		"name": "Yelino",
		"_id": 467934,
		"coord": {
			"lon": 36.766666,
			"lat": 56.25
		}
	},
	{
		"country": "RU",
		"name": "Yelizarovo",
		"_id": 467896,
		"coord": {
			"lon": 36.766666,
			"lat": 56.166668
		}
	},
	{
		"country": "RU",
		"name": "Yelizavetino",
		"_id": 467856,
		"coord": {
			"lon": 29.79376,
			"lat": 59.49157
		}
	},
	{
		"country": "RU",
		"name": "Yelizavetinskaya",
		"_id": 467854,
		"coord": {
			"lon": 38.795799,
			"lat": 45.04446
		}
	},
	{
		"country": "RU",
		"name": "Yelizavetinskoye",
		"_id": 467850,
		"coord": {
			"lon": 43.349442,
			"lat": 45.007221
		}
	},
	{
		"country": "UA",
		"name": "Yelizavetovka",
		"_id": 688170,
		"coord": {
			"lon": 36.345829,
			"lat": 49.186111
		}
	},
	{
		"country": "RU",
		"name": "Yelizovo",
		"_id": 2119538,
		"coord": {
			"lon": 158.380493,
			"lat": 53.187302
		}
	},
	{
		"country": "RU",
		"name": "Yelkhovka",
		"_id": 467819,
		"coord": {
			"lon": 50.283192,
			"lat": 53.86668
		}
	},
	{
		"country": "RU",
		"name": "Yelkino",
		"_id": 467787,
		"coord": {
			"lon": 59.829109,
			"lat": 58.694
		}
	},
	{
		"country": "IN",
		"name": "Yellandu",
		"_id": 1252745,
		"coord": {
			"lon": 80.333328,
			"lat": 17.6
		}
	},
	{
		"country": "IN",
		"name": "Yellapur",
		"_id": 1252744,
		"coord": {
			"lon": 74.716667,
			"lat": 14.96667
		}
	},
	{
		"country": "IE",
		"name": "Yellow Furze",
		"_id": 2960874,
		"coord": {
			"lon": -6.57167,
			"lat": 53.673328
		}
	},
	{
		"country": "CA",
		"name": "Yellow Grass",
		"_id": 6185353,
		"coord": {
			"lon": -104.167809,
			"lat": 49.80006
		}
	},
	{
		"country": "US",
		"name": "Yellow Springs",
		"_id": 4528866,
		"coord": {
			"lon": -83.886871,
			"lat": 39.80645
		}
	},
	{
		"country": "AU",
		"name": "Yellowdine",
		"_id": 2057381,
		"coord": {
			"lon": 119.650002,
			"lat": -31.299999
		}
	},
	{
		"country": "CA",
		"name": "Yellowknife",
		"_id": 6185377,
		"coord": {
			"lon": -114.352547,
			"lat": 62.456001
		}
	},
	{
		"country": "US",
		"name": "Yellowstone County",
		"_id": 5687489,
		"coord": {
			"lon": -108.300682,
			"lat": 45.916618
		}
	},
	{
		"country": "US",
		"name": "Yellville",
		"_id": 4137291,
		"coord": {
			"lon": -92.684891,
			"lat": 36.226181
		}
	},
	{
		"country": "US",
		"name": "Yelm",
		"_id": 5816656,
		"coord": {
			"lon": -122.605957,
			"lat": 46.942039
		}
	},
	{
		"country": "RU",
		"name": "Yelnya",
		"_id": 467753,
		"coord": {
			"lon": 33.183731,
			"lat": 54.57864
		}
	},
	{
		"country": "ES",
		"name": "Yelo",
		"_id": 6361243,
		"coord": {
			"lon": -2.542,
			"lat": 41.220219
		}
	},
	{
		"country": "ES",
		"name": "Yelo",
		"_id": 3104425,
		"coord": {
			"lon": -2.51667,
			"lat": 41.216671
		}
	},
	{
		"country": "RU",
		"name": "Yelovaya",
		"_id": 1486093,
		"coord": {
			"lon": 92.541107,
			"lat": 56.138611
		}
	},